[{"feed_name":"World","feed_url":"https://rss.nytimes.com/services/xml/rss/nyt/World.xml","title":"New York City vaccinated six million people in less than a month. In 1947.","summary":"","link":"https://www.nytimes.com/2020/12/20/world/new-york-city-vaccinated-six-million-people-in-less-than-a-month-in-1947.html","published":"Sun, 20 Dec 2020 15:04:23 +0000","geolocations":[{"name":"New York City’S","count":1,"lat":40.71455,"lng":-74.00714,"type":"point"},{"name":"The Lower East Side","count":1,"lat":40.71682,"lng":-73.98454,"type":"point"},{"name":"New York","count":1,"lat":40.71455,"lng":-74.00714,"type":"point"},{"name":"Mexico City","count":1,"lat":19.27691,"lng":-99.13939,"type":"point"}],"source":"The New York Times"},{"feed_name":"World","feed_url":"https://www.latimes.com/world/rss2.0.xml","title":"A notorious child rapist was released from prison. Hordes of YouTube vigilantes awaited","summary":"<p>The growing popularity of YouTube in South Korea has led to questionable attempts by users to gain viewers, including promises of vigilante justice.</p>","link":"https://www.latimes.com/world-nation/story/2020-12-18/youtubers-vigilante-justice-child-rapist-south-korea","published":"Fri, 18 Dec 2020 10:05:19 -0500","geolocations":[{"name":"South Korea","count":2,"lat":37.55886,"lng":126.99989,"type":"country"},{"name":"Ansan","count":1,"lat":31.9518,"lng":35.94042,"type":"point"}],"source":"Los Angeles Times"},{"feed_name":"World","feed_url":"https://www.latimes.com/world/rss2.0.xml","title":"FDA authorizes vaccine from Moderna and NIH, ramping up fight against COVID-19","summary":"<p>The Food and Drug Administration grants emergency-use authorization to the COVID-19 vaccine from Moderna and the National Institutes of Health.</p>","link":"https://www.latimes.com/science/story/2020-12-18/fda-authorizes-covid-vaccine-moderna-nih","published":"Fri, 18 Dec 2020 19:49:52 -0500","geolocations":[{"name":"Pfizer","count":1,"lat":51.26584,"lng":-0.25106,"type":"point"},{"name":"The United States","count":3,"lat":38.89037,"lng":-77.03196,"type":"country"},{"name":"Southern California","count":1,"lat":41.77455,"lng":-84.88371,"type":"point"},{"name":"The San Joaquin Valley","count":1,"lat":34.28543,"lng":-118.68464,"type":"point"},{"name":"U.S.","count":1,"lat":38.89037,"lng":-77.03196,"type":"country"},{"name":"California","count":1,"lat":38.57944,"lng":-121.49085,"type":"point"},{"name":"Washington","count":1,"lat":38.89037,"lng":-77.03196,"type":"point"},{"name":"Fairfield","count":1,"lat":38.24924,"lng":-122.0443,"type":"point"},{"name":"Conn.","count":1,"lat":43.99815,"lng":-80.56848,"type":"point"}],"source":"Los Angeles Times"},{"feed_name":"World - Europe","feed_url":"http://feeds.bbci.co.uk/news/world/rss.xml","title":"Christmas celebrations to go ahead in Bethlehem","summary":"BBC Middle East correspondent Yolande Knell joins the rehearsals for the festive processions.","link":"https://www.bbc.co.uk/news/world-middle-east-55370593","published":"Sun, 20 Dec 2020 00:03:46 GMT","geolocations":[{"name":"Bethlehem","count":1,"lat":40.6266,"lng":-75.36798,"type":"point"},{"name":"The West Bank","count":1,"lat":-33.0312,"lng":27.90943,"type":"point"},{"name":"Middle East","count":1,"lat":39.29996,"lng":-76.58967,"type":"point"}],"source":"BBC"},{"feed_name":"World","feed_url":"https://www.theguardian.com/world/rss","title":"The best photographs of 2020 – and the stories behind them","summary":"<p>From an apocalyptic Australian dust storm to elephants scavenging in Kenya and goats roaming Llandudno – photographers recall how they grabbed some of the most eye-catching images of the year. Selected by features picture editor Sarah Gilbert</p><p><strong>Dust and rain storm at Parkes, NSW, Australia<br />Jason Davies/Severe Weather Australia</strong></p> <a href=\"https://www.theguardian.com/culture/2020/dec/21/the-best-photographs-of-2020-and-the-stories-behind-them\">Continue reading...</a>","link":"https://www.theguardian.com/culture/2020/dec/21/the-best-photographs-of-2020-and-the-stories-behind-them","published":"Mon, 21 Dec 2020 12:05:32 GMT","geolocations":[{"name":"Parkes","count":1,"lat":-33.13657,"lng":148.17457,"type":"point"},{"name":"Nsw","count":1,"lat":-32.16736,"lng":147.01315,"type":"point"},{"name":"Australia","count":3,"lat":-35.30654,"lng":149.12655,"type":"country"},{"name":"Central New South Wales","count":1,"lat":-33.87561,"lng":151.20719,"type":"point"},{"name":"Kenya","count":1,"lat":-1.28352,"lng":36.82379,"type":"country"},{"name":"East Africa","count":1,"lat":34.07879,"lng":-90.70776,"type":"point"},{"name":"The Middle East","count":1,"lat":39.29996,"lng":-76.58967,"type":"point"},{"name":"Yemen","count":1,"lat":15.3667,"lng":44.21122,"type":"point"},{"name":"Somalia","count":1,"lat":2.03812,"lng":45.34157,"type":"country"},{"name":"Oluvil","count":1,"lat":7.29076,"lng":81.82917,"type":"point"},{"name":"Sri Lanka","count":2,"lat":6.88398,"lng":79.9008,"type":"country"},{"name":"Oluvil-Palakkad","count":1,"lat":10.77581,"lng":76.65813,"type":"point"},{"name":"Hollywood","count":3,"lat":26.01067,"lng":-80.16026,"type":"point"},{"name":"Llandudno","count":2,"lat":53.32244,"lng":-3.81896,"type":"point"},{"name":"Wales","count":1,"lat":51.48127,"lng":-3.18072,"type":"country"},{"name":"Earth","count":1,"lat":38.76564,"lng":-90.46003,"type":"point"},{"name":"Cusseta","count":1,"lat":32.30555,"lng":-84.77485,"type":"point"},{"name":"Atlanta","count":1,"lat":33.74831,"lng":-84.39111,"type":"point"},{"name":"America","count":2,"lat":51.43739,"lng":5.98176,"type":"point"},{"name":"Minneapolis","count":3,"lat":44.97902,"lng":-93.26494,"type":"point"},{"name":"Ferguson","count":1,"lat":36.08563,"lng":-81.36743,"type":"point"},{"name":"Baltimore","count":1,"lat":39.29058,"lng":-76.60926,"type":"point"},{"name":"Westminster","count":1,"lat":33.75931,"lng":-117.98576,"type":"point"},{"name":"Manchester","count":2,"lat":53.47959,"lng":-2.24874,"type":"point"},{"name":"St Louis","count":1,"lat":38.62775,"lng":-90.19956,"type":"point"},{"name":"Missouri","count":1,"lat":38.57751,"lng":-92.17784,"type":"point"},{"name":"Liverpool","count":2,"lat":53.41005,"lng":-2.9784,"type":"point"},{"name":"Glastonbury","count":1,"lat":51.1477,"lng":-2.71651,"type":"point"},{"name":"Teufelssee Lake","count":1,"lat":52.36094,"lng":13.0934,"type":"point"},{"name":"Berlin","count":1,"lat":52.51604,"lng":13.37691,"type":"point"},{"name":"La","count":1,"lat":17.9518,"lng":102.61892,"type":"country"},{"name":"California","count":1,"lat":38.57944,"lng":-121.49085,"type":"point"},{"name":"Napa County","count":1,"lat":38.33607,"lng":-122.32355,"type":"point"},{"name":"Bangkok","count":2,"lat":13.75336,"lng":100.50483,"type":"point"},{"name":"El Salvador","count":2,"lat":13.69967,"lng":-89.2068,"type":"country"},{"name":"El Faro","count":1,"lat":19.68784,"lng":-99.08995,"type":"point"},{"name":"São Paulo","count":2,"lat":-23.56287,"lng":-46.65468,"type":"point"},{"name":"Zika","count":1,"lat":49.99707,"lng":16.0655,"type":"point"},{"name":"Aires","count":1,"lat":43.58301,"lng":3.10586,"type":"point"},{"name":"Argentina","count":1,"lat":-34.60849,"lng":-58.37344,"type":"country"},{"name":"Coventry","count":1,"lat":52.40518,"lng":-1.50856,"type":"point"}],"source":"The Guardian"},{"feed_name":"World","feed_url":"https://www.latimes.com/world/rss2.0.xml","title":"The most important company you've never heard of is being dragged into the U.S.-China rivalry","summary":"<p>Taiwan Semiconductor Manufacturing Co. makes chips for iPhones, video game consoles and fighter jets. Now it's being forced to choose sides.</p>","link":"https://www.latimes.com/world-nation/story/2020-12-17/taiwan-chips-tsmc-china-us","published":"Thu, 17 Dec 2020 04:30:21 -0500","geolocations":[{"name":"Taiwan","count":16,"lat":25.03737,"lng":121.56355,"type":"country"},{"name":"Silicon Shield","count":1,"lat":55.01085,"lng":-1.448,"type":"point"},{"name":"U.S.","count":18,"lat":38.89037,"lng":-77.03196,"type":"country"},{"name":"China","count":29,"lat":39.90657,"lng":116.38765,"type":"country"},{"name":"Beijing","count":8,"lat":39.90657,"lng":116.38765,"type":"point"},{"name":"Shanghai","count":1,"lat":39.45274,"lng":-78.15318,"type":"point"},{"name":"Arizona","count":1,"lat":33.44825,"lng":-112.0758,"type":"point"},{"name":"Nanjing","count":1,"lat":-23.38327,"lng":150.6275,"type":"point"},{"name":"The United States","count":1,"lat":38.89037,"lng":-77.03196,"type":"country"},{"name":"Washington","count":4,"lat":38.89037,"lng":-77.03196,"type":"point"},{"name":"Manhattan","count":1,"lat":39.17881,"lng":-96.56184,"type":"point"},{"name":"South Korea","count":1,"lat":37.55886,"lng":126.99989,"type":"country"},{"name":"Taipei","count":4,"lat":25.03293,"lng":121.56705,"type":"point"},{"name":"Silicon Valley","count":1,"lat":37.24667,"lng":-121.77279,"type":"point"},{"name":"Maryland","count":1,"lat":38.97678,"lng":-76.49014,"type":"point"},{"name":"Switzerland","count":2,"lat":46.94843,"lng":7.44046,"type":"country"},{"name":"Hong Kong","count":2,"lat":22.2783,"lng":114.16039,"type":"point"},{"name":"Ningbo","count":1,"lat":29.86569,"lng":121.53916,"type":"point"},{"name":"Singapore","count":1,"lat":1.29041,"lng":103.85211,"type":"country"},{"name":"Hsinchu","count":1,"lat":24.81662,"lng":120.97054,"type":"point"}],"source":"Los Angeles Times"},{"feed_name":"World","feed_url":"https://rss.nytimes.com/services/xml/rss/nyt/World.xml","title":"A Chinese official confirms that a million citizens received unproven homegrown vaccines.","summary":"","link":"https://www.nytimes.com/2020/12/18/world/a-chinese-official-confirms-that-a-million-citizens-received-unproven-homegrown-vaccines.html","published":"Sat, 19 Dec 2020 06:31:50 +0000","geolocations":[{"name":"China","count":3,"lat":39.90657,"lng":116.38765,"type":"country"},{"name":"Europe","count":1,"lat":-33.98201,"lng":18.58413,"type":"point"},{"name":"North America","count":1,"lat":36.19711,"lng":-94.52681,"type":"point"},{"name":"Beijing","count":1,"lat":39.90657,"lng":116.38765,"type":"point"}],"source":"The New York Times"},{"feed_name":"World","feed_url":"https://rss.nytimes.com/services/xml/rss/nyt/World.xml","title":"Thousands of internal documents reveal how China censored its internet in the early days of the pandemic.","summary":"","link":"https://www.nytimes.com/2020/12/19/world/thousands-of-internal-documents-reveal-how-china-censored-its-internet-in-the-early-days-of-the-pandemic.html","published":"Sun, 20 Dec 2020 15:04:25 +0000","geolocations":[{"name":"China","count":2,"lat":39.90657,"lng":116.38765,"type":"country"}],"source":"The New York Times"},{"feed_name":"World - Europe","feed_url":"http://feeds.bbci.co.uk/news/world/rss.xml","title":"The Belgian 'hero' who invaded UK fishing waters","summary":"The story of Victor Depaepe, who tested fishing rights in UK waters granted by King Charles II.","link":"https://www.bbc.co.uk/news/world-europe-55190259","published":"Mon, 21 Dec 2020 00:02:45 GMT","geolocations":[{"name":"Queens","count":1,"lat":46.2576,"lng":-63.11851,"type":"point"},{"name":"Bruges","count":1,"lat":51.20847,"lng":3.2245,"type":"point"}],"source":"BBC"},{"feed_name":"World","feed_url":"https://rss.nytimes.com/services/xml/rss/nyt/World.xml","title":"Nepal's Prime Minister, K.P. Sharma Oli, Calls for New Elections","summary":"The prime minister dissolved the lower house of Parliament, throwing into doubt the political fortunes of the Himalayan country, which has long swung between Beijing and New Delhi.","link":"https://www.nytimes.com/2020/12/20/world/asia/nepal-parliament.html","published":"Sun, 20 Dec 2020 14:57:29 +0000","geolocations":[{"name":"Kathmandu","count":1,"lat":27.69329,"lng":85.32227,"type":"point"},{"name":"Nepal","count":3,"lat":27.69329,"lng":85.32227,"type":"country"},{"name":"China","count":2,"lat":39.90657,"lng":116.38765,"type":"country"},{"name":"India","count":1,"lat":28.63095,"lng":77.21721,"type":"country"}],"source":"The New York Times"},{"feed_name":"World","feed_url":"https://www.aljazeera.com/xml/rss/all.xml","title":"Which countries have banned UK travel over COVID concerns?","summary":"At least 27 countries ban flights and travellers from the UK after the detection of a new coronavirus strain in England.","link":"https://www.aljazeera.com/news/2020/12/21/which-countries-have-banned-uk-flights-over-new-covid-19-concerns","published":"Mon, 21 Dec 2020 08:15:20 +0000","geolocations":[{"name":"England","count":1,"lat":51.50643,"lng":-0.12719,"type":"country"},{"name":"London","count":1,"lat":51.50643,"lng":-0.12719,"type":"point"},{"name":"Argentina","count":1,"lat":-34.60849,"lng":-58.37344,"type":"country"},{"name":"Belgium","count":1,"lat":50.84439,"lng":4.35609,"type":"country"},{"name":"Bulgaria","count":1,"lat":42.69718,"lng":23.32433,"type":"country"},{"name":"Canada","count":1,"lat":45.42178,"lng":-75.69116,"type":"country"},{"name":"Chile","count":1,"lat":-33.43722,"lng":-70.65002,"type":"country"},{"name":"Colombia","count":1,"lat":4.61496,"lng":-74.06941,"type":"country"},{"name":"Croatia","count":1,"lat":45.80724,"lng":15.96757,"type":"country"},{"name":"Denmark","count":3,"lat":55.67567,"lng":12.56756,"type":"country"},{"name":"El Salvador‘S","count":1,"lat":13.69967,"lng":-89.2068,"type":"country"},{"name":"United Kingdom","count":1,"lat":38.95953,"lng":-91.92768,"type":"point"},{"name":"South Africa","count":3,"lat":-25.74587,"lng":28.18764,"type":"country"},{"name":"Estonia","count":1,"lat":59.43642,"lng":24.75258,"type":"country"},{"name":"Latvia","count":1,"lat":56.94598,"lng":24.11487,"type":"country"},{"name":"Lithuania","count":1,"lat":54.69062,"lng":25.2698,"type":"country"},{"name":"Finland","count":1,"lat":60.17116,"lng":24.93265,"type":"country"},{"name":"France","count":1,"lat":48.85717,"lng":2.3414,"type":"country"},{"name":"Germany","count":1,"lat":52.51604,"lng":13.37691,"type":"country"},{"name":"Hong Kong","count":1,"lat":22.2783,"lng":114.16039,"type":"point"},{"name":"Italy","count":3,"lat":41.90322,"lng":12.49565,"type":"country"},{"name":"Great Britain","count":1,"lat":-26.25097,"lng":28.04804,"type":"point"},{"name":"Iran","count":1,"lat":35.68877,"lng":51.41503,"type":"country"},{"name":"Ireland","count":1,"lat":53.34807,"lng":-6.24827,"type":"country"},{"name":"Israel","count":1,"lat":31.78003,"lng":35.21873,"type":"country"},{"name":"Kuwait","count":1,"lat":29.37321,"lng":47.97142,"type":"country"},{"name":"Morocco","count":1,"lat":34.01791,"lng":-6.83612,"type":"country"},{"name":"Netherlands","count":2,"lat":52.36993,"lng":4.90788,"type":"country"},{"name":"Poland","count":1,"lat":52.2356,"lng":21.01037,"type":"country"},{"name":"Romania","count":1,"lat":44.43429,"lng":26.10298,"type":"country"},{"name":"Switzerland","count":1,"lat":46.94843,"lng":7.44046,"type":"country"},{"name":"Turkey","count":1,"lat":39.92109,"lng":32.85391,"type":"country"}],"source":"Aljazeera"},{"feed_name":"World","feed_url":"https://www.latimes.com/world/rss2.0.xml","title":"'Will they let us live?' Inside Xinjiang, survivors of China's internment camps speak","summary":"<p>A vast system of Chinese surveillance, detention, cultural erasure and forced labor has devastated the Uighur people in Xingiang, their homeland.</p>","link":"https://www.latimes.com/world-nation/story/2020-12-17/china-xinjiang-uighurs-muslim-minority-camps","published":"Thu, 17 Dec 2020 13:42:15 -0500","geolocations":[{"name":"Xinjiang","count":19,"lat":35.61469,"lng":111.21768,"type":"point"},{"name":"China","count":5,"lat":39.90657,"lng":116.38765,"type":"country"},{"name":"Jevlan Shirmemmet","count":1,"lat":45.38941,"lng":-84.92315,"type":"point"},{"name":"Istanbul","count":1,"lat":41.06201,"lng":28.98877,"type":"point"},{"name":"Turkey","count":2,"lat":39.92109,"lng":32.85391,"type":"country"},{"name":"Kashgar","count":2,"lat":51.48714,"lng":0.09757,"type":"point"},{"name":"Korla","count":5,"lat":22.98609,"lng":85.13433,"type":"point"},{"name":"East Turkestan","count":1,"lat":43.31648,"lng":68.2409,"type":"point"},{"name":"Urumqi","count":2,"lat":43.78787,"lng":87.58627,"type":"point"},{"name":"Google Earth","count":1,"lat":38.76564,"lng":-90.46003,"type":"point"},{"name":"U.S.","count":1,"lat":38.89037,"lng":-77.03196,"type":"country"}],"source":"Los Angeles Times"},{"feed_name":"World","feed_url":"https://www.latimes.com/world/rss2.0.xml","title":"U.S. cybersecurity agency warns of 'grave' threat from hack","summary":"<p>U.S. authorities are expressing increased alarm about an intrusion into computer systems around the globe that officials suspect Russia is behind.</p>","link":"https://www.latimes.com/world-nation/story/2020-12-17/us-cybersecurity-agency-warns-of-grave-threat-from-hack","published":"Thu, 17 Dec 2020 13:30:30 -0500","geolocations":[{"name":"Russia","count":3,"lat":55.75696,"lng":37.61502,"type":"country"},{"name":"Moscow","count":1,"lat":55.75696,"lng":37.61502,"type":"point"},{"name":"U.S.","count":3,"lat":38.89037,"lng":-77.03196,"type":"country"},{"name":"Texas","count":1,"lat":30.26759,"lng":-97.74299,"type":"point"}],"source":"Los Angeles Times"},{"feed_name":"World","feed_url":"https://rss.nytimes.com/services/xml/rss/nyt/World.xml","title":"Former Governor of Jalisco, Mexico, Is Killed in Puerto Vallarta","summary":"Aristóteles Sandoval was shot in the back inside a restaurant restroom in one of the highest-profile political killings in Mexico in recent memory.","link":"https://www.nytimes.com/2020/12/18/world/americas/mexico-governor-killed.html","published":"Fri, 18 Dec 2020 23:33:32 +0000","geolocations":[{"name":"Mexico City","count":1,"lat":19.27691,"lng":-99.13939,"type":"point"},{"name":"Jalisco","count":1,"lat":20.58078,"lng":-103.61323,"type":"point"},{"name":"Puerto Vallarta","count":1,"lat":20.60841,"lng":-105.23525,"type":"point"},{"name":"Mexico","count":3,"lat":23.94757,"lng":-102.5411,"type":"country"}],"source":"The New York Times"},{"feed_name":"World","feed_url":"https://www.theguardian.com/world/rss","title":"'Santa Claus is good to go': Dr Fauci says he vaccinated Father Christmas – video","summary":"<p>Anthony Fauci told children he had visited Santa Claus at the north pole and personally gave him the vaccine so he could deliver presents this year.</p><p>The US infectious disease expert responded to video messages sent in to CNN on Saturday from children who were concerned they would not receive their presents due to spread of Covid-19</p> <a href=\"https://www.theguardian.com/world/video/2020/dec/19/santa-claus-is-good-to-go-dr-fauci-says-he-vaccinated-father-christmas-video\">Continue reading...</a>","link":"https://www.theguardian.com/world/video/2020/dec/19/santa-claus-is-good-to-go-dr-fauci-says-he-vaccinated-father-christmas-video","published":"Sat, 19 Dec 2020 18:41:36 GMT","geolocations":[{"name":"Us","count":1,"lat":38.89037,"lng":-77.03196,"type":"country"}],"source":"The Guardian"},{"feed_name":"World","feed_url":"https://www.aljazeera.com/xml/rss/all.xml","title":"Al Jazeera journalists hacked using Israeli firm’s spyware","summary":"Watchdog suspects Saudi Arabia, the UAE behind the attack on 36 journalists earlier this year.","link":"https://www.aljazeera.com/news/2020/12/21/al-jazeera-journalists-hacked-by-spyware-sold-by-israeli-firm","published":"Mon, 21 Dec 2020 09:57:53 +0000","geolocations":[{"name":"Saudi Arabia","count":5,"lat":24.68211,"lng":46.68722,"type":"country"},{"name":"The United Arab Emirates","count":6,"lat":24.46918,"lng":54.37173,"type":"country"},{"name":"Qatar","count":4,"lat":25.29424,"lng":51.51967,"type":"country"},{"name":"Bahrain","count":1,"lat":26.22952,"lng":50.57604,"type":"country"},{"name":"Egypt","count":1,"lat":30.04427,"lng":31.23525,"type":"country"},{"name":"Doha","count":1,"lat":25.29424,"lng":51.51967,"type":"point"},{"name":"Iran","count":2,"lat":35.68877,"lng":51.41503,"type":"country"},{"name":"Israel","count":1,"lat":31.78003,"lng":35.21873,"type":"country"},{"name":"Istanbul","count":1,"lat":41.06201,"lng":28.98877,"type":"point"}],"source":"Aljazeera"},{"feed_name":"World","feed_url":"https://rss.nytimes.com/services/xml/rss/nyt/World.xml","title":"Congressional Leaders Work to finalize a $900 Billion Stimulus Deal","summary":"","link":"https://www.nytimes.com/2020/12/19/world/stimulus-deal-congress.html","published":"Sun, 20 Dec 2020 06:19:36 +0000","geolocations":[{"name":"Pennsylvania","count":1,"lat":40.25986,"lng":-76.88223,"type":"point"},{"name":"New York","count":1,"lat":40.71455,"lng":-74.00714,"type":"point"}],"source":"The New York Times"},{"feed_name":"World","feed_url":"https://www.latimes.com/world/rss2.0.xml","title":"Haves vs. have-nots: Who 'deserves' to be next in line for the COVID-19 vaccine?","summary":"<p>Americans waiting their turn for a COVID-19 vaccine may not be pleased to see who's in line ahead of them. Does a prisoner or smoker deserve it more?</p>","link":"https://www.latimes.com/science/story/2020-12-19/who-deserves-to-get-covid-19-vaccine-next","published":"Sat, 19 Dec 2020 15:05:56 -0500","geolocations":[{"name":"U.S.","count":3,"lat":38.89037,"lng":-77.03196,"type":"country"},{"name":"The United States","count":1,"lat":38.89037,"lng":-77.03196,"type":"country"},{"name":"California","count":1,"lat":38.57944,"lng":-121.49085,"type":"point"},{"name":"North Carolina","count":1,"lat":35.78547,"lng":-78.6427,"type":"point"},{"name":"Maryland","count":1,"lat":38.97678,"lng":-76.49014,"type":"point"},{"name":"Delaware","count":1,"lat":39.15803,"lng":-75.52473,"type":"point"},{"name":"Utah","count":1,"lat":40.76031,"lng":-111.88822,"type":"point"},{"name":"New Mexico","count":1,"lat":35.69177,"lng":-105.93824,"type":"point"},{"name":"Nebraska","count":1,"lat":40.81362,"lng":-96.7073,"type":"point"},{"name":"Montana","count":1,"lat":46.58976,"lng":-112.02065,"type":"point"},{"name":"Massachusetts","count":1,"lat":42.35866,"lng":-71.05674,"type":"point"},{"name":"Colorado","count":1,"lat":39.74001,"lng":-104.99202,"type":"point"},{"name":"Polis","count":1,"lat":35.03688,"lng":32.40714,"type":"point"}],"source":"Los Angeles Times"},{"feed_name":"World","feed_url":"https://rss.nytimes.com/services/xml/rss/nyt/World.xml","title":"‘I Miss Home’: In Tigray Conflict, Displaced Children Suffer","summary":"Of the thousands of refugees who have fled the conflict in the northern Ethiopian region of Tigray, nearly a third are children. Hundreds of them walked unaccompanied to Sudan.","link":"https://www.nytimes.com/2020/12/20/world/africa/tigray-ethiopia-sudan-refugees.html","published":"Sun, 20 Dec 2020 15:04:18 +0000","geolocations":[{"name":"Sudan","count":2,"lat":15.58651,"lng":32.52318,"type":"point"},{"name":"Tigray","count":1,"lat":10.34021,"lng":-84.58133,"type":"point"},{"name":"Rakuba","count":1,"lat":26.6071,"lng":84.30724,"type":"point"}],"source":"The New York Times"},{"feed_name":"World","feed_url":"https://www.latimes.com/world/rss2.0.xml","title":"A Hong Kong pastor tried to protect democracy activists. Now his bank account is frozen","summary":"<p>China is targeting government opponents through financial institutions using a draconian national security law that's already led to U.S. sanctions. </p>","link":"https://www.latimes.com/world-nation/story/2020-12-16/hong-kong-bank-accounts-frozen","published":"Wed, 16 Dec 2020 04:30:33 -0500","geolocations":[{"name":"Hong Kong’S","count":6,"lat":22.2783,"lng":114.16039,"type":"point"},{"name":"United Kingdom","count":4,"lat":38.95953,"lng":-91.92768,"type":"point"},{"name":"Hong Kong","count":16,"lat":22.2783,"lng":114.16039,"type":"point"},{"name":"China","count":11,"lat":39.90657,"lng":116.38765,"type":"country"},{"name":"Asia","count":2,"lat":-12.76551,"lng":-76.61171,"type":"point"},{"name":"Beijing","count":3,"lat":39.90657,"lng":116.38765,"type":"point"},{"name":"Hong Kongers","count":1,"lat":22.2783,"lng":114.16039,"type":"point"},{"name":"U.K.","count":1,"lat":29.93186,"lng":77.81922,"type":"point"},{"name":"U.S.","count":5,"lat":38.89037,"lng":-77.03196,"type":"country"},{"name":"London","count":1,"lat":51.50643,"lng":-0.12719,"type":"point"},{"name":"Europe","count":1,"lat":-33.98201,"lng":18.58413,"type":"point"}],"source":"Los Angeles Times"},{"feed_name":"World","feed_url":"https://rss.nytimes.com/services/xml/rss/nyt/World.xml","title":"The C.D.C. advisory panel has endorsed the Moderna vaccine.","summary":"","link":"https://www.nytimes.com/2020/12/19/world/the-cdc-advisory-panel-has-endorsed-the-moderna-vaccine.html","published":"Sun, 20 Dec 2020 15:04:25 +0000","geolocations":[{"name":"The United States","count":1,"lat":38.89037,"lng":-77.03196,"type":"country"},{"name":"United Kingdom","count":1,"lat":38.95953,"lng":-91.92768,"type":"point"}],"source":"The New York Times"},{"feed_name":"World","feed_url":"https://www.latimes.com/world/rss2.0.xml","title":"Environmental justice groups block Mary Nichols' path to EPA","summary":"<p>Mary Nichols' climate policies made her an environmental celebrity, but her support for California's cap-and-trade program drew opposition.</p>","link":"https://www.latimes.com/environment/story/2020-12-17/environmental-justice-groups-block-mary-nichols-path-to-epa","published":"Thu, 17 Dec 2020 13:06:03 -0500","geolocations":[{"name":"California","count":7,"lat":38.57944,"lng":-121.49085,"type":"point"},{"name":"North Carolina","count":1,"lat":35.78547,"lng":-78.6427,"type":"point"},{"name":"America","count":1,"lat":51.43739,"lng":5.98176,"type":"point"},{"name":"North America","count":1,"lat":36.19711,"lng":-94.52681,"type":"point"},{"name":"Nebraska","count":1,"lat":40.81362,"lng":-96.7073,"type":"point"},{"name":"Quebec","count":1,"lat":46.81273,"lng":-71.2193,"type":"point"},{"name":"South L.A.","count":1,"lat":5.71851,"lng":-0.48509,"type":"point"},{"name":"Black Communities","count":1,"lat":34.64722,"lng":-106.73226,"type":"point"},{"name":"The United States","count":1,"lat":38.89037,"lng":-77.03196,"type":"country"},{"name":"L.A.","count":1,"lat":17.9518,"lng":102.61892,"type":"country"}],"source":"Los Angeles Times"},{"feed_name":"World","feed_url":"https://www.latimes.com/world/rss2.0.xml","title":"Despite his boasts, Trump again is no deal-maker as Congress seeks pandemic relief bill","summary":"<p>Donald Trump was elected partly on his fame for \"The Art of the Deal,\" yet he's cut no big deals in office. The relief package is the latest, perhaps final, example.</p>","link":"https://www.latimes.com/politics/story/2020-12-20/despite-his-boasts-trump-again-is-no-deal-maker-as-congress-seeks-crisis-relief-bill","published":"Sun, 20 Dec 2020 06:00:32 -0500","geolocations":[{"name":"Rose Garden","count":1,"lat":37.33473,"lng":-121.92853,"type":"point"},{"name":"Ky","count":1,"lat":19.29657,"lng":-81.38175,"type":"country"}],"source":"Los Angeles Times"},{"feed_name":"World","feed_url":"https://www.aljazeera.com/xml/rss/all.xml","title":"Mutant virus adds to Brexit concerns as UK suppliers sound alarm","summary":"British industry group warns of possible disruptions to fresh food supplies over Christmas holiday.","link":"https://www.aljazeera.com/economy/2020/12/21/bb-mutantvirusadds-to-brexit-concerns-as-uk-suppliers-sound-alarm","published":"Mon, 21 Dec 2020 03:36:57 +0000","geolocations":[{"name":"United Kingdom","count":3,"lat":38.95953,"lng":-91.92768,"type":"point"},{"name":"Europe","count":1,"lat":-33.98201,"lng":18.58413,"type":"point"},{"name":"U.K.","count":4,"lat":29.93186,"lng":77.81922,"type":"point"},{"name":"France","count":2,"lat":48.85717,"lng":2.3414,"type":"country"},{"name":"Kent","count":1,"lat":47.3807,"lng":-122.23741,"type":"point"},{"name":"Dover","count":3,"lat":39.15803,"lng":-75.52473,"type":"point"},{"name":"London","count":1,"lat":51.50643,"lng":-0.12719,"type":"point"},{"name":"England","count":1,"lat":51.50643,"lng":-0.12719,"type":"country"},{"name":"United Approach","count":1,"lat":46.35649,"lng":-100.58402,"type":"point"}],"source":"Aljazeera"},{"feed_name":"World","feed_url":"https://www.aljazeera.com/xml/rss/all.xml","title":"In Pictures: The Syrian potter preserving a centuries-old craft","summary":"Misak Antranik Petros, master craftsman, has passed his art on to the next generation.","link":"https://www.aljazeera.com/gallery/2020/12/21/in-pictures-syrian-potter-preserves-centuries-old-craft","published":"Mon, 21 Dec 2020 09:43:31 +0000","geolocations":[{"name":"Syria","count":1,"lat":33.51656,"lng":36.31708,"type":"point"},{"name":"Hasakeh Province","count":1,"lat":43.07715,"lng":-7.66689,"type":"point"},{"name":"Qamishli","count":1,"lat":37.05472,"lng":41.23975,"type":"point"}],"source":"Aljazeera"},{"feed_name":"World","feed_url":"https://rss.nytimes.com/services/xml/rss/nyt/World.xml","title":"She Called Police Over a Neo-Nazi Threat. But the Neo-Nazis Were Inside the Police.","summary":"Death threats linked to police computers and the discovery of far-right chat groups in police departments across Germany have fed concerns about far-right infiltration.","link":"https://www.nytimes.com/2020/12/21/world/europe/germany-far-right-neo-nazis-police.html","published":"Mon, 21 Dec 2020 05:01:11 +0000","geolocations":[{"name":"Berlin","count":2,"lat":52.51604,"lng":13.37691,"type":"point"},{"name":"Essen","count":1,"lat":51.45183,"lng":7.01108,"type":"point"},{"name":"Kiel","count":1,"lat":54.32325,"lng":10.13224,"type":"point"},{"name":"Neumünster","count":1,"lat":54.07032,"lng":9.98766,"type":"point"},{"name":"Hesse","count":1,"lat":48.69422,"lng":7.04572,"type":"point"},{"name":"Frankfurt","count":1,"lat":50.11208,"lng":8.68341,"type":"point"},{"name":"Germany","count":2,"lat":52.51604,"lng":13.37691,"type":"country"},{"name":"Turkey","count":1,"lat":39.92109,"lng":32.85391,"type":"country"}],"source":"The New York Times"},{"feed_name":"World","feed_url":"https://www.latimes.com/world/rss2.0.xml","title":"What happens to the Space Force after the Trump administration?","summary":"<p>President Trump championed the creation of the Space Force, but he has done little to ensure it has the funding, staffing and authority to succeed.</p>","link":"https://www.latimes.com/business/story/2020-12-15/space-force-biden-trump","published":"Tue, 15 Dec 2020 08:00:14 -0500","geolocations":[{"name":"U.S.","count":6,"lat":38.89037,"lng":-77.03196,"type":"country"},{"name":"Florida","count":1,"lat":30.43977,"lng":-84.28065,"type":"point"},{"name":"China","count":2,"lat":39.90657,"lng":116.38765,"type":"country"},{"name":"Russia","count":1,"lat":55.75696,"lng":37.61502,"type":"country"},{"name":"San Diego","count":1,"lat":32.71568,"lng":-117.16171,"type":"point"}],"source":"Los Angeles Times"},{"feed_name":"World","feed_url":"https://www.aljazeera.com/xml/rss/all.xml","title":"Greece: Activists, journalists decry crackdown on protests","summary":"Blanket bans on protests that restrict freedom of expression and assembly cannot be justified, rights groups said.","link":"https://www.aljazeera.com/news/2020/12/21/disturbing-precedent-activists-decry-protest-ban-in-greece","published":"Mon, 21 Dec 2020 09:00:25 +0000","geolocations":[{"name":"Athens","count":9,"lat":37.97614,"lng":23.7364,"type":"point"},{"name":"Greece","count":8,"lat":37.97614,"lng":23.7364,"type":"country"},{"name":"Europe","count":1,"lat":-33.98201,"lng":18.58413,"type":"point"},{"name":"Ioannina","count":1,"lat":39.66858,"lng":20.85638,"type":"point"}],"source":"Aljazeera"},{"feed_name":"World","feed_url":"https://www.latimes.com/world/rss2.0.xml","title":"Column: Biden was left with a mess in Iran. Can he get out of it?","summary":"<p>The first foreign policy challenge for the Biden administration will be reviving the U.S. nuclear deal with Iran.</p>","link":"https://www.latimes.com/politics/story/2020-12-20/biden-was-left-with-a-mess-in-iran-can-he-get-out-of-it","published":"Sun, 20 Dec 2020 07:00:45 -0500","geolocations":[{"name":"Iran","count":16,"lat":35.68877,"lng":51.41503,"type":"country"},{"name":"Tehran","count":3,"lat":35.68877,"lng":51.41503,"type":"point"},{"name":"U.S.","count":5,"lat":38.89037,"lng":-77.03196,"type":"country"},{"name":"The United States","count":3,"lat":38.89037,"lng":-77.03196,"type":"country"},{"name":"New York","count":1,"lat":40.71455,"lng":-74.00714,"type":"point"},{"name":"Delaware","count":1,"lat":39.15803,"lng":-75.52473,"type":"point"},{"name":"United States","count":1,"lat":38.89037,"lng":-77.03196,"type":"country"},{"name":"Washington","count":1,"lat":38.89037,"lng":-77.03196,"type":"point"}],"source":"Los Angeles Times"},{"feed_name":"World","feed_url":"https://www.theguardian.com/world/rss","title":"Hard lockdown needed to prevent Sydney Christmas Covid surge, health experts warn","summary":"<p>Raina MacIntyre says without drastic action there could be thousands of cases in early 2021 but others argue NSW Health has struck the right balance</p><ul><li><a href=\"https://www.theguardian.com/australia-news/2020/dec/18/coronavirus-nsw-hotspots-list-regional-sydney-covid-19-outbreak-locations\">NSW Covid hotspots</a></li><li><a href=\"https://www.theguardian.com/world/2020/dec/20/sydney-covid-restrictions-explained-limits-on-gatherings-venues-and-the-northern-beaches-lockdown\">Sydney Covid restrictions explained</a></li><li><a href=\"https://www.theguardian.com/australia-news/2020/dec/20/australia-border-restrictions-here-are-the-new-state-and-territory-covid-rules-for-nsw-travellers\">Australia border restrictions: new state and territory rules</a></li></ul><p>A hard lockdown across Sydney for the next three days is needed to reduce the risk of Christmas Day and New Year’s Eve becoming super spreader events, some health experts have warned.</p><p>The dual celebrations could lead to thousands of new cases in the first weeks of 2021 without drastic action, warned Prof Raina MacIntyre, the head of the biosecurity program at the University of New South Wales’ Kirby Institute.</p> <a href=\"https://www.theguardian.com/australia-news/2020/dec/21/hard-lockdown-needed-to-prevent-sydney-christmas-covid-surge-health-experts-warn\">Continue reading...</a>","link":"https://www.theguardian.com/australia-news/2020/dec/21/hard-lockdown-needed-to-prevent-sydney-christmas-covid-surge-health-experts-warn","published":"Mon, 21 Dec 2020 09:08:49 GMT","geolocations":[{"name":"Sydney","count":8,"lat":-33.8696,"lng":151.20691,"type":"point"},{"name":"Melbourne","count":1,"lat":-37.81739,"lng":144.96751,"type":"point"},{"name":"Erskineville","count":1,"lat":-33.89964,"lng":151.18401,"type":"point"},{"name":"Turramurra","count":1,"lat":-33.73203,"lng":151.12866,"type":"point"},{"name":"Nsw","count":1,"lat":-32.16736,"lng":147.01315,"type":"point"},{"name":"Hobart","count":1,"lat":-42.88164,"lng":147.33162,"type":"point"},{"name":"New South Wales","count":1,"lat":-32.16736,"lng":147.01315,"type":"point"}],"source":"The Guardian"},{"feed_name":"World","feed_url":"https://rss.nytimes.com/services/xml/rss/nyt/World.xml","title":"To Understand Red-State America, He Urges a Look at Red-State Israel","summary":"An Israeli sociologist argues that Trump voters, like Netanyahu supporters in Israel, have legitimate reasons to find liberal values threatening.","link":"https://www.nytimes.com/2020/12/18/world/middleeast/israel-mizrahim-netanyahu.html","published":"Fri, 18 Dec 2020 19:16:39 +0000","geolocations":[{"name":"Israel","count":2,"lat":31.78003,"lng":35.21873,"type":"country"},{"name":"Iraq","count":1,"lat":33.3421,"lng":44.39307,"type":"country"},{"name":"Jerusalem","count":1,"lat":31.7801,"lng":35.20882,"type":"point"},{"name":"Mizrahi","count":2,"lat":32.05909,"lng":34.76938,"type":"point"},{"name":"The United States","count":1,"lat":38.89037,"lng":-77.03196,"type":"country"},{"name":"Mizrahim","count":1,"lat":32.05909,"lng":34.76938,"type":"point"},{"name":"Europe","count":1,"lat":-33.98201,"lng":18.58413,"type":"point"}],"source":"The New York Times"},{"feed_name":"World","feed_url":"https://www.theguardian.com/world/rss","title":"Caste-based area names to be changed across Indian state to 'increase unity'","summary":"<p>Millions of people in Maharashtra to have neighbourhoods renamed but critics say plan means little without behavioural change</p><p>The names of neighbourhoods in the Indian state of Maharashtra based on the caste of people who have traditionally lived there are to be be changed, to reflect the country’s evolving attitudes.</p><p>In the same way Indian surnames reveal the caste to which a person belongs, neighbourhoods have acquired names based on the caste of the community that predominates.</p> <a href=\"https://www.theguardian.com/global-development/2020/dec/21/caste-based-area-names-to-be-changed-across-indian-state-to-increase-unity\">Continue reading...</a>","link":"https://www.theguardian.com/global-development/2020/dec/21/caste-based-area-names-to-be-changed-across-indian-state-to-increase-unity","published":"Mon, 21 Dec 2020 06:00:39 GMT","geolocations":[{"name":"Maharashtra","count":3,"lat":18.94017,"lng":72.83483,"type":"point"},{"name":"Gujarat","count":1,"lat":23.24082,"lng":72.63734,"type":"point"},{"name":"Haryana","count":1,"lat":29.19659,"lng":76.34156,"type":"point"},{"name":"Chennai","count":1,"lat":13.08362,"lng":80.28252,"type":"point"}],"source":"The Guardian"},{"feed_name":"World","feed_url":"https://www.theguardian.com/world/rss","title":"Firm with mystery investors wins £200m of PPE contracts via 'high-priority lane'","summary":"<p><strong>Exclusive: </strong>It’s unclear how PPE Medpro’s bids were processed through channel for firms referred by MPs and senior officials</p><ul><li><a href=\"https://www.theguardian.com/world/series/coronavirus-live/latest\">Coronavirus – latest updates</a></li><li><a href=\"https://www.theguardian.com/world/coronavirus-outbreak\">See all our coronavirus coverage</a></li></ul><p>A company with mystery investors and links to the Isle of Man was awarded government contracts worth £200m to supply the UK with personal protective equipment (PPE) after it was placed in a “high-priority lane” for well-connected firms, the Guardian can reveal.</p><p>PPE Medpro has not revealed the identities of the financiers and businessmen behind the venture, and it remains unclear how its offer to supply PPE came to be processed through a channel created for companies referred by politicians and senior officials.</p> <a href=\"https://www.theguardian.com/world/2020/dec/21/firm-with-mystery-investors-wins-200m-of-ppe-contracts-via-high-priority-lane\">Continue reading...</a>","link":"https://www.theguardian.com/world/2020/dec/21/firm-with-mystery-investors-wins-200m-of-ppe-contracts-via-high-priority-lane","published":"Mon, 21 Dec 2020 06:00:38 GMT","geolocations":[{"name":"The Isle Of Man","count":2,"lat":54.22821,"lng":-4.53874,"type":"country"},{"name":"London","count":1,"lat":51.50643,"lng":-0.12719,"type":"point"}],"source":"The Guardian"},{"feed_name":"World","feed_url":"https://rss.nytimes.com/services/xml/rss/nyt/World.xml","title":"A Brazen Police Shooting Caught on Video Sparks Anger in the Philippines","summary":"The video shows a police officer shooting a woman and her son after a dispute over a noisemaker. Some activists linked the killings to a culture of violence in which the police are allowed to act with impunity.","link":"https://www.nytimes.com/2020/12/21/world/asia/philippines-police-shooting-video.html","published":"Mon, 21 Dec 2020 10:12:09 +0000","geolocations":[{"name":"Manila","count":1,"lat":14.60487,"lng":120.98627,"type":"point"},{"name":"Philippines","count":1,"lat":14.60487,"lng":120.98627,"type":"country"},{"name":"Tarlac","count":1,"lat":15.47799,"lng":120.58631,"type":"point"}],"source":"The New York Times"},{"feed_name":"World","feed_url":"https://rss.nytimes.com/services/xml/rss/nyt/World.xml","title":"Bans on U.K. Travelers Are Imposed Amid Concern Over New Virus Variant","summary":"","link":"https://www.nytimes.com/2020/12/20/world/UK-travelers-barred-over-new-virus-variant.html","published":"Mon, 21 Dec 2020 06:36:05 +0000","geolocations":[{"name":"Italy","count":1,"lat":41.90322,"lng":12.49565,"type":"country"},{"name":"The United Kingdom","count":3,"lat":38.95953,"lng":-91.92768,"type":"point"},{"name":"Germany","count":1,"lat":52.51604,"lng":13.37691,"type":"country"},{"name":"Switzerland","count":1,"lat":46.94843,"lng":7.44046,"type":"country"},{"name":"United Kingdom","count":3,"lat":38.95953,"lng":-91.92768,"type":"point"},{"name":"South Africa","count":2,"lat":-25.74587,"lng":28.18764,"type":"country"},{"name":"Austria","count":1,"lat":48.20263,"lng":16.36842,"type":"country"},{"name":"Ireland","count":1,"lat":53.34807,"lng":-6.24827,"type":"country"},{"name":"France","count":1,"lat":48.85717,"lng":2.3414,"type":"country"},{"name":"Bulgaria","count":1,"lat":42.69718,"lng":23.32433,"type":"country"},{"name":"Portugal","count":1,"lat":38.72639,"lng":-9.14948,"type":"country"},{"name":"Canada","count":1,"lat":45.42178,"lng":-75.69116,"type":"country"},{"name":"U.K.","count":2,"lat":29.93186,"lng":77.81922,"type":"point"},{"name":"The United States","count":1,"lat":38.89037,"lng":-77.03196,"type":"country"},{"name":"New York","count":1,"lat":40.71455,"lng":-74.00714,"type":"point"},{"name":"Spain","count":1,"lat":40.41955,"lng":-3.69196,"type":"country"},{"name":"Iran","count":1,"lat":35.68877,"lng":51.41503,"type":"country"},{"name":"Israel","count":1,"lat":31.78003,"lng":35.21873,"type":"country"},{"name":"Denmark","count":1,"lat":55.67567,"lng":12.56756,"type":"country"},{"name":"Turkey","count":1,"lat":39.92109,"lng":32.85391,"type":"country"},{"name":"Netherlands","count":1,"lat":52.36993,"lng":4.90788,"type":"country"}],"source":"The New York Times"},{"feed_name":"World","feed_url":"https://www.aljazeera.com/xml/rss/all.xml","title":"Seoul caps gatherings at four as S Korea logs record COVID deaths","summary":"South Korea&#039;s capital area limits gatherings to four people as authorities struggle to control COVID-19 spike.","link":"https://www.aljazeera.com/news/2020/12/21/south-korea-reports-record-daily-covid-19-toll-with-24-dead","published":"Mon, 21 Dec 2020 04:12:00 +0000","geolocations":[{"name":"South Korea’S","count":4,"lat":37.55886,"lng":126.99989,"type":"country"},{"name":"Seoul","count":12,"lat":37.55886,"lng":126.99989,"type":"point"},{"name":"Gyeonggi Province","count":2,"lat":43.07715,"lng":-7.66689,"type":"point"},{"name":"Incheon","count":2,"lat":52.27325,"lng":4.73491,"type":"point"}],"source":"Aljazeera"},{"feed_name":"World - Europe","feed_url":"http://feeds.bbci.co.uk/news/world/rss.xml","title":"New coronavirus variant: What do we know?","summary":"How has a new coronavirus variant become the most common form of the virus in parts of England?","link":"https://www.bbc.co.uk/news/health-55388846","published":"Sun, 20 Dec 2020 19:12:30 GMT","geolocations":[{"name":"England","count":3,"lat":51.50643,"lng":-0.12719,"type":"country"},{"name":"Scotland","count":1,"lat":55.95438,"lng":-3.20144,"type":"country"},{"name":"Wales","count":1,"lat":51.48127,"lng":-3.18072,"type":"country"},{"name":"London","count":3,"lat":51.50643,"lng":-0.12719,"type":"point"},{"name":"Northern Ireland","count":1,"lat":54.59534,"lng":-5.93455,"type":"country"},{"name":"The South East","count":1,"lat":43.02059,"lng":-78.67434,"type":"point"},{"name":"Nextstrain","count":1,"lat":48.69134,"lng":10.92015,"type":"point"},{"name":"Denmark","count":2,"lat":55.67567,"lng":12.56756,"type":"country"},{"name":"Australia","count":1,"lat":-35.30654,"lng":149.12655,"type":"country"},{"name":"Netherlands","count":1,"lat":52.36993,"lng":4.90788,"type":"country"},{"name":"South Africa","count":1,"lat":-25.74587,"lng":28.18764,"type":"country"},{"name":"Wuhan","count":1,"lat":30.64353,"lng":114.32472,"type":"point"},{"name":"China","count":1,"lat":39.90657,"lng":116.38765,"type":"country"},{"name":"Europe","count":2,"lat":-33.98201,"lng":18.58413,"type":"point"},{"name":"Spain","count":1,"lat":40.41955,"lng":-3.69196,"type":"country"}],"source":"BBC"},{"feed_name":"World","feed_url":"https://www.latimes.com/world/rss2.0.xml","title":"A tale of two cities: the cautious refugees hit by COVID-19 and those who call it a hoax and refuse masks","summary":"<p>In South Dakota's largest city, the coronavirus was once largely seen as something that infected refugees and immigrants at the Smithfield pork plant. Now, it has spread far and wide across one of the worst-hit states.</p>","link":"https://www.latimes.com/world-nation/story/2020-12-18/south-dakota-sioux-falls-coronavirus","published":"Fri, 18 Dec 2020 05:00:32 -0500","geolocations":[{"name":"South Dakota","count":3,"lat":44.36905,"lng":-100.35,"type":"point"},{"name":"Smithfield","count":15,"lat":35.51175,"lng":-78.34729,"type":"point"},{"name":"Sioux Falls","count":7,"lat":43.54577,"lng":-96.73128,"type":"point"},{"name":"Urwan","count":12,"lat":24.346,"lng":85.46229,"type":"point"},{"name":"South Dakota’S","count":1,"lat":44.36905,"lng":-100.35,"type":"point"},{"name":"Windy City","count":1,"lat":41.61723,"lng":-78.87866,"type":"point"},{"name":"Plains","count":1,"lat":33.18661,"lng":-102.81865,"type":"point"},{"name":"Midwest","count":1,"lat":43.41272,"lng":-106.27664,"type":"point"},{"name":"Bhutan","count":1,"lat":27.41483,"lng":90.42623,"type":"country"},{"name":"Nepal","count":1,"lat":27.69329,"lng":85.32227,"type":"country"},{"name":"Sioux","count":2,"lat":42.4999,"lng":-96.42086,"type":"point"},{"name":"Ethiopia","count":2,"lat":9.01358,"lng":38.76286,"type":"country"},{"name":"Sudan","count":1,"lat":15.58651,"lng":32.52318,"type":"point"},{"name":"Sioux River","count":1,"lat":42.52187,"lng":-96.48322,"type":"point"},{"name":"California","count":1,"lat":38.57944,"lng":-121.49085,"type":"point"},{"name":"Greeley","count":1,"lat":40.42327,"lng":-104.69446,"type":"point"},{"name":"Virginia","count":1,"lat":37.54068,"lng":-77.43367,"type":"point"},{"name":"Queens","count":1,"lat":46.2576,"lng":-63.11851,"type":"point"},{"name":"Aayo Badaa Dina","count":1,"lat":25.22709,"lng":81.67618,"type":"point"},{"name":"Falls Smithfield","count":1,"lat":41.48321,"lng":-75.85466,"type":"point"}],"source":"Los Angeles Times"},{"feed_name":"World","feed_url":"https://rss.nytimes.com/services/xml/rss/nyt/World.xml","title":"Covid Is an Afterthought in War-Torn Afghanistan","summary":"In Afghanistan, life goes on as though the coronavirus never existed. “Fake news,” some say, even as a second wave has brought on a surge of new cases and hospitalizations.","link":"https://www.nytimes.com/2020/12/20/world/asia/covid-afghanistan-coronavirus.html","published":"Mon, 21 Dec 2020 05:54:33 +0000","geolocations":[{"name":"Kabul","count":1,"lat":34.53313,"lng":69.10223,"type":"point"},{"name":"Afghanistan","count":2,"lat":34.53313,"lng":69.10223,"type":"country"}],"source":"The New York Times"},{"feed_name":"World - Europe","feed_url":"http://feeds.bbci.co.uk/news/world/rss.xml","title":"Blindian Project: Celebrating black and South Asian relationships","summary":"Blindian Project runs workshops to prepare couples for tricky family introductions.","link":"https://www.bbc.co.uk/news/world-us-canada-55370482","published":"Sat, 19 Dec 2020 00:00:32 GMT","geolocations":[{"name":"The United States","count":1,"lat":38.89037,"lng":-77.03196,"type":"country"},{"name":"Us","count":1,"lat":38.89037,"lng":-77.03196,"type":"country"}],"source":"BBC"},{"feed_name":"World","feed_url":"https://www.latimes.com/world/rss2.0.xml","title":"Trump finds himself isolated in refusal to blame Russia for big cyberattack","summary":"<p>Some lawmakers want the Kremlin punished over the suspected hack, but Trump refuses to point fingers.</p>","link":"https://www.latimes.com/world-nation/story/2020-12-20/lawmakers-experts-baffled-trump-brushes-off-suspected-russian-hack","published":"Sun, 20 Dec 2020 16:10:25 -0500","geolocations":[{"name":"U.S.","count":7,"lat":38.89037,"lng":-77.03196,"type":"country"},{"name":"Russia","count":7,"lat":55.75696,"lng":37.61502,"type":"country"},{"name":"The United States","count":3,"lat":38.89037,"lng":-77.03196,"type":"country"},{"name":"Utah","count":1,"lat":40.76031,"lng":-111.88822,"type":"point"},{"name":"China","count":1,"lat":39.90657,"lng":116.38765,"type":"country"},{"name":"Virginia","count":1,"lat":37.54068,"lng":-77.43367,"type":"point"},{"name":"Austin","count":1,"lat":30.26759,"lng":-97.74299,"type":"point"},{"name":"Wyo","count":1,"lat":39.78186,"lng":-122.19752,"type":"point"},{"name":"Moscow","count":1,"lat":55.75696,"lng":37.61502,"type":"point"},{"name":"Washington","count":1,"lat":38.89037,"lng":-77.03196,"type":"point"}],"source":"Los Angeles Times"},{"feed_name":"World","feed_url":"https://www.aljazeera.com/xml/rss/all.xml","title":"‘Russia, Rwanda sent troops’ to Central African Republic","summary":"CAR gov&#039;t says foreign troops sent to the country after alleged coup bid ahead of presidential and parliamentary polls.","link":"https://www.aljazeera.com/news/2020/12/21/russia-rwanda-send-troops-to-central-african-republic","published":"Mon, 21 Dec 2020 11:38:27 +0000","geolocations":[{"name":"The Central African Republic","count":1,"lat":4.39669,"lng":18.5586,"type":"country"},{"name":"Russia","count":2,"lat":55.75696,"lng":37.61502,"type":"country"},{"name":"Rwanda","count":2,"lat":-1.97575,"lng":30.03177,"type":"country"},{"name":"Moscow","count":1,"lat":55.75696,"lng":37.61502,"type":"point"}],"source":"Aljazeera"},{"feed_name":"World - Europe","feed_url":"http://feeds.bbci.co.uk/news/world/rss.xml","title":"Sudan-Israel deal fuels migrants' fears","summary":"Israel is supported by some Sudanese communities, yet restoring relations may not be good news from them.","link":"https://www.bbc.co.uk/news/world-africa-55333131","published":"Mon, 21 Dec 2020 00:05:07 GMT","geolocations":[{"name":"Israel","count":2,"lat":31.78003,"lng":35.21873,"type":"country"},{"name":"Us","count":1,"lat":38.89037,"lng":-77.03196,"type":"country"},{"name":"Sudan","count":1,"lat":15.58651,"lng":32.52318,"type":"point"}],"source":"BBC"},{"feed_name":"World","feed_url":"https://www.latimes.com/world/rss2.0.xml","title":"Coronavirus vaccinations begin in historic U.S. campaign","summary":"<p>The first coronavirus vaccinations arrive nearly 11 months after the nation's first case was diagnosed. </p>","link":"https://www.latimes.com/world-nation/story/2020-12-14/coronavirus-vaccinations-begin-in-historic-u-s-campaign","published":"Tue, 15 Dec 2020 02:48:42 -0500","geolocations":[{"name":"America","count":1,"lat":51.43739,"lng":5.98176,"type":"point"},{"name":"Long Island","count":2,"lat":40.75072,"lng":-73.94103,"type":"point"},{"name":"New York","count":4,"lat":40.71455,"lng":-74.00714,"type":"point"},{"name":"U.S.","count":2,"lat":38.89037,"lng":-77.03196,"type":"country"},{"name":"N.Y.","count":1,"lat":40.71455,"lng":-74.00714,"type":"point"},{"name":"Los Angeles","count":1,"lat":34.05357,"lng":-118.24545,"type":"point"},{"name":"California","count":1,"lat":38.57944,"lng":-121.49085,"type":"point"},{"name":"Oklahoma City","count":2,"lat":35.47203,"lng":-97.52107,"type":"point"},{"name":"Oklahoma","count":1,"lat":35.47203,"lng":-97.52107,"type":"point"},{"name":"Louisville","count":3,"lat":38.25489,"lng":-85.76666,"type":"point"},{"name":"Ky.","count":2,"lat":19.29657,"lng":-81.38175,"type":"country"},{"name":"Kalamazoo","count":1,"lat":42.29157,"lng":-85.58839,"type":"point"},{"name":"Portage","count":1,"lat":42.20159,"lng":-85.58937,"type":"point"},{"name":"Mich.","count":1,"lat":19.20709,"lng":-101.87815,"type":"point"},{"name":"Miramar","count":2,"lat":10.09102,"lng":-84.72239,"type":"point"},{"name":"Fla.","count":4,"lat":49.43176,"lng":1.80087,"type":"point"},{"name":"Tampa","count":2,"lat":27.94653,"lng":-82.45927,"type":"point"},{"name":"Seattle","count":2,"lat":47.60357,"lng":-122.32945,"type":"point"},{"name":"San Juan","count":2,"lat":18.39169,"lng":-66.06259,"type":"point"},{"name":"Puerto Rico","count":2,"lat":18.22286,"lng":-66.4685,"type":"country"},{"name":"Baton Rouge","count":2,"lat":30.44335,"lng":-91.18664,"type":"point"},{"name":"La.","count":1,"lat":17.9518,"lng":102.61892,"type":"country"}],"source":"Los Angeles Times"},{"feed_name":"World","feed_url":"https://www.aljazeera.com/xml/rss/all.xml","title":"Japan sets record military budget with stealth fighters, missiles","summary":"Japan aims to develop an advanced stealth fighter and longer-range missile amid concerns about China&#039;s power.","link":"https://www.aljazeera.com/news/2020/12/21/japan-sets-record-military-budget-with-stealth-fighters-missiles","published":"Mon, 21 Dec 2020 02:52:18 +0000","geolocations":[{"name":"China","count":3,"lat":39.90657,"lng":116.38765,"type":"country"},{"name":"Japan","count":4,"lat":35.68408,"lng":139.80885,"type":"country"},{"name":"Russia","count":2,"lat":55.75696,"lng":37.61502,"type":"country"},{"name":"North Korea","count":1,"lat":39.01196,"lng":125.78684,"type":"country"},{"name":"Asia","count":1,"lat":-12.76551,"lng":-76.61171,"type":"point"},{"name":"Us","count":1,"lat":38.89037,"lng":-77.03196,"type":"country"},{"name":"Okinawan","count":1,"lat":-17.21977,"lng":-62.8939,"type":"point"}],"source":"Aljazeera"},{"feed_name":"World","feed_url":"https://www.theguardian.com/world/rss","title":"Covid is a chance to build a world where everyone has access to basic vaccines | David Miliband and Anuradha Gupta","summary":"<p>Preventable diseases still plague those missing out on vaccines. Efforts to halt coronavirus could help crack this issue</p><ul><li><a href=\"https://www.theguardian.com/world/series/coronavirus-live/latest\">Coronavirus – latest updates</a></li><li><a href=\"https://www.theguardian.com/world/coronavirus-outbreak\">See all our coronavirus coverage</a></li></ul><p>The massive public, private and foundation investments in a coronavirus vaccine are producing results at a record pace. And countries are reacting accordingly. A <a href=\"https://globalhealth.duke.edu/news/will-low-income-countries-be-left-behind-when-covid-19-vaccines-arrive\">recent global assessment </a>of purchasing agreements for Covid-19 vaccines reveals that high-income countries, as well as a few middle-income countries with high manufacturing capacity, have already bought enough doses for their populations.</p><p>But delivery of the vaccine needs a new level of focus. This is especially the case for populations in poor and war-torn countries, where the health system is weak or nonexistent. <a href=\"https://www.who.int/news/item/15-07-2019-20-million-children-miss-out-on-lifesaving-measles-diphtheria-and-tetanus-vaccines-in-2018\">Even before the pandemic</a>, approximately 20 million infants a year, often some of the most vulnerable in the world, were missing out on basic vaccines. For example, there are estimated to be more than <a href=\"https://www.gavi.org/news/media-room/gavi-helps-immunise-65-million-children-2019-though-covid-19-puts-progress-under\">10.6 million children</a> in the world’s poorest countries who in 2019 did not receive even a first dose of a diphtheria-pertussis-tetanus vaccine (DPT).</p> <a href=\"https://www.theguardian.com/global-development/2020/dec/18/covid-is-a-chance-to-build-a-world-where-everyone-has-access-to-basic-vaccines\">Continue reading...</a>","link":"https://www.theguardian.com/global-development/2020/dec/18/covid-is-a-chance-to-build-a-world-where-everyone-has-access-to-basic-vaccines","published":"Fri, 18 Dec 2020 08:15:03 GMT","geolocations":[{"name":"Yemen","count":1,"lat":15.3667,"lng":44.21122,"type":"point"},{"name":"Bazar","count":1,"lat":22.56628,"lng":88.36115,"type":"point"},{"name":"Bangladesh","count":1,"lat":23.71325,"lng":90.39959,"type":"country"},{"name":"Myanmar","count":1,"lat":21.11892,"lng":96.51169,"type":"country"},{"name":"Kenya","count":1,"lat":-1.28352,"lng":36.82379,"type":"country"}],"source":"The Guardian"},{"feed_name":"World","feed_url":"https://rss.nytimes.com/services/xml/rss/nyt/World.xml","title":"A Company Made P.P.E. for the World. Now Its Workers Have the Virus.","summary":"Top Glove, the world’s largest rubber glove maker, has enjoyed record profits in the pandemic, even as thousands of its low-paid workers in Malaysia suffer from a large outbreak of Covid-19.","link":"https://www.nytimes.com/2020/12/20/world/asia/top-glove-ppe-covid-malaysia-workers.html","published":"Sun, 20 Dec 2020 11:48:22 +0000","geolocations":[{"name":"Bangkok","count":1,"lat":13.75336,"lng":100.50483,"type":"point"},{"name":"Nepal","count":1,"lat":27.69329,"lng":85.32227,"type":"country"},{"name":"Malaysia","count":1,"lat":3.14789,"lng":101.69405,"type":"country"},{"name":"Selangor","count":1,"lat":3.09198,"lng":101.49428,"type":"point"}],"source":"The New York Times"},{"feed_name":"World","feed_url":"https://www.theguardian.com/world/rss","title":"Keir Starmer: Johnson is asking public to pay for his incompetence – video","summary":"<p>The Labour leader labels the decision on Saturday 19 December to cancel the planned Christmas relaxation of Covid restrictions an 'act of gross negligence by a prime minister who once again has been caught behind the curve'. Boris Johnson announced swaths of the south-east of England would be put in a new tier 4 to contain a new strain of the virus just days after he insisted Christmas plans could go ahead. 'We have a prime minister who is so scared of being unpopular that he is incapable of making tough decisions until it is too late,' Starmer says.</p><ul><li><a href=\"https://www.theguardian.com/world/live/2020/dec/20/coronavirus-live-news-nsw-premier-to-provide-update-on-sydney-restrictions-as-northern-beaches-locked-down-uk-tightens-christmas-rules\">Coronavirus live updates</a></li><li><a href=\"https://www.theguardian.com/world/2020/dec/20/england-new-covid-restrictions-likely-to-stay-for-months-until-vaccine-rollout\">England's new Covid restrictions likely to stay 'for months' until vaccine rollout</a><br /></li><li><a href=\"https://www.theguardian.com/uk-news/2020/dec/20/police-to-stop-people-fleeing-new-covid-tier-4-areas-hancock-says\">Police will stop people fleeing new Covid tier 4 areas, ministers say</a></li></ul> <a href=\"https://www.theguardian.com/world/video/2020/dec/20/keir-starmer-boris-johnson-asking-public-pay-incompetence-video\">Continue reading...</a>","link":"https://www.theguardian.com/world/video/2020/dec/20/keir-starmer-boris-johnson-asking-public-pay-incompetence-video","published":"Sun, 20 Dec 2020 13:32:31 GMT","geolocations":[{"name":"England","count":1,"lat":51.50643,"lng":-0.12719,"type":"country"}],"source":"The Guardian"},{"feed_name":"World","feed_url":"https://www.theguardian.com/world/rss","title":"Joe Biden will face an inbox of complex foreign policy problems from the start","summary":"<p>The massive, ongoing hack of US federal agencies, relations with China and North Korea will be urgent issues for Biden to address</p><p>Joe Biden’s foreign policy in-tray is only looking more difficult as he approaches inauguration day – even as the US still confronts the pressing issue of <a href=\"https://www.theguardian.com/us-news/2020/dec/17/us-coronavirus-cases-deaths-record-vaccine\">record coronavirus deaths and infections</a>.</p><p>The <a href=\"https://www.theguardian.com/technology/2020/dec/17/us-government-cyber-attack-hack-russia\">massive and ongoing hack of US federal agencies – blamed on Russia</a> – has so far elicited no response from Donald Trump, who has a long history of denying or downplaying Russian interventions.</p> <a href=\"https://www.theguardian.com/us-news/2020/dec/19/joe-biden-will-face-an-inbox-of-complex-foreign-policy-problems-from-the-start\">Continue reading...</a>","link":"https://www.theguardian.com/us-news/2020/dec/19/joe-biden-will-face-an-inbox-of-complex-foreign-policy-problems-from-the-start","published":"Sat, 19 Dec 2020 10:00:46 GMT","geolocations":[{"name":"Us","count":7,"lat":38.89037,"lng":-77.03196,"type":"country"},{"name":"Russia","count":3,"lat":55.75696,"lng":37.61502,"type":"country"},{"name":"Iran","count":3,"lat":35.68877,"lng":51.41503,"type":"country"},{"name":"China","count":6,"lat":39.90657,"lng":116.38765,"type":"country"},{"name":"Washington","count":2,"lat":38.89037,"lng":-77.03196,"type":"point"},{"name":"North Korea","count":1,"lat":39.01196,"lng":125.78684,"type":"country"},{"name":"Kremlin","count":1,"lat":36.5497,"lng":-97.83185,"type":"point"},{"name":"Tehran","count":1,"lat":35.68877,"lng":51.41503,"type":"point"},{"name":"Israel","count":1,"lat":31.78003,"lng":35.21873,"type":"country"},{"name":"The Middle East","count":1,"lat":39.29996,"lng":-76.58967,"type":"point"},{"name":"Syria","count":1,"lat":33.51656,"lng":36.31708,"type":"point"},{"name":"Ukraine","count":1,"lat":50.45056,"lng":30.52428,"type":"country"}],"source":"The Guardian"},{"feed_name":"World","feed_url":"https://rss.nytimes.com/services/xml/rss/nyt/World.xml","title":"Frontline workers were left off the vaccine list at Stanford Medical Center in Palo Alto. They fought back.","summary":"","link":"https://www.nytimes.com/2020/12/18/world/covid-stanford-health-center-vaccine-protest.html","published":"Sat, 19 Dec 2020 15:55:22 +0000","geolocations":[{"name":"Palo Alto","count":1,"lat":37.44466,"lng":-122.16079,"type":"point"},{"name":"Calif.","count":1,"lat":3.43402,"lng":-76.52645,"type":"point"}],"source":"The New York Times"},{"feed_name":"World","feed_url":"https://www.aljazeera.com/xml/rss/all.xml","title":"Turkish court sentences Kurdish former MP to 22 years in jail","summary":"Guven convicted on three separate terrorism charges after losing parliamentary immunity in June this year.","link":"https://www.aljazeera.com/news/2020/12/21/turkish-court-sentences-kurdish-former-mp-to-22-years-in-jail","published":"Mon, 21 Dec 2020 12:36:41 +0000","geolocations":[{"name":"Diyarbakir","count":1,"lat":37.92444,"lng":40.21072,"type":"point"},{"name":"Ankara","count":1,"lat":39.92109,"lng":32.85391,"type":"point"},{"name":"Turkey","count":1,"lat":39.92109,"lng":32.85391,"type":"country"}],"source":"Aljazeera"},{"feed_name":"World","feed_url":"https://rss.nytimes.com/services/xml/rss/nyt/World.xml","title":"Trump Contradicts Pompeo Over Russia’s Role in Hack","summary":"Hours after the secretary of state said that Moscow was behind the vast cybersecurity breach, the president suggested it might have been China and downplayed the severity of the attack.","link":"https://www.nytimes.com/2020/12/19/us/trump-contradicts-pompeo-over-russias-role-in-hack.html","published":"Sat, 19 Dec 2020 20:54:32 +0000","geolocations":[{"name":"America","count":1,"lat":51.43739,"lng":5.98176,"type":"point"},{"name":"Fort Meade","count":1,"lat":39.10788,"lng":-76.73504,"type":"point"},{"name":"Md.","count":1,"lat":47.02459,"lng":28.83242,"type":"country"}],"source":"The New York Times"},{"feed_name":"World","feed_url":"https://www.aljazeera.com/xml/rss/all.xml","title":"Meet the women behind the Indian farmers’ protests","summary":"In India, the land is &#039;mother&#039;; and it is India&#039;s mothers, daughters and sisters forming the backbone of the protests.","link":"https://www.aljazeera.com/features/2020/12/21/meet-the-women-behind-the-indian-farmers-protests","published":"Mon, 21 Dec 2020 08:31:50 +0000","geolocations":[{"name":"India","count":9,"lat":28.63095,"lng":77.21721,"type":"country"},{"name":"Punjab","count":9,"lat":30.84324,"lng":75.41748,"type":"point"},{"name":"New Delhi","count":1,"lat":28.63095,"lng":77.21721,"type":"point"},{"name":"Tikri","count":7,"lat":29.22904,"lng":77.35338,"type":"point"},{"name":"Haryana","count":2,"lat":29.19659,"lng":76.34156,"type":"point"},{"name":"Uttar Pradesh","count":1,"lat":26.85471,"lng":80.92135,"type":"point"},{"name":"Delhi","count":8,"lat":28.63409,"lng":77.21693,"type":"point"},{"name":"Singhu","count":3,"lat":28.84832,"lng":77.13441,"type":"point"},{"name":"Jalandhar","count":1,"lat":31.33081,"lng":75.59003,"type":"point"},{"name":"Paramjeet","count":1,"lat":31.3737,"lng":75.37691,"type":"point"},{"name":"Sangha","count":1,"lat":11.17744,"lng":0.16094,"type":"point"},{"name":"Rajasthan","count":1,"lat":26.92576,"lng":75.80661,"type":"point"},{"name":"Tikri Border","count":1,"lat":32.54457,"lng":-117.03141,"type":"point"}],"source":"Aljazeera"},{"feed_name":"World","feed_url":"https://rss.nytimes.com/services/xml/rss/nyt/World.xml","title":"Brexit Trade Deal Really Is Coming Down to the Wire","summary":"Until now, the deadlines have seemed notional and the extensions endless, but New Year’s Eve is when the Brexit transition period ends. Talks could go well beyond that day.","link":"https://www.nytimes.com/2020/12/18/world/europe/brexit-trade-deal.html","published":"Fri, 18 Dec 2020 19:49:59 +0000","geolocations":[{"name":"United Kingdom","count":4,"lat":38.95953,"lng":-91.92768,"type":"point"},{"name":"Brussels","count":1,"lat":50.84439,"lng":4.35609,"type":"point"},{"name":"London","count":1,"lat":51.50643,"lng":-0.12719,"type":"point"}],"source":"The New York Times"},{"feed_name":"World","feed_url":"https://www.aljazeera.com/xml/rss/all.xml","title":"US to earmark $1.9bn to replace Huawei, ZTE telecoms gear: Report","summary":"Virus relief bill reportedly has funds to replace Chinese phone equipment that US says poses national security risk.","link":"https://www.aljazeera.com/economy/2020/12/21/us-lays-out-funds-to-replace-telecom-equipment-from-huawei-zte","published":"Mon, 21 Dec 2020 07:58:39 +0000","geolocations":[{"name":"Us","count":7,"lat":38.89037,"lng":-77.03196,"type":"country"},{"name":"China","count":1,"lat":39.90657,"lng":116.38765,"type":"country"}],"source":"Aljazeera"},{"feed_name":"World","feed_url":"https://rss.nytimes.com/services/xml/rss/nyt/World.xml","title":"Once a Slogan of Unity, ‘Je Suis Charlie’ Now Divides France","summary":"After the 2015 terrorist attack on Charlie Hebdo, “I am Charlie” became a unifying slogan of free speech. Now it fuels divisions in an increasingly polarized country.","link":"https://www.nytimes.com/2020/12/19/world/europe/france-charlie-hebdo-slogan.html","published":"Sat, 19 Dec 2020 11:18:09 +0000","geolocations":[{"name":"Paris","count":1,"lat":48.85717,"lng":2.3414,"type":"point"},{"name":"France","count":4,"lat":48.85717,"lng":2.3414,"type":"country"},{"name":"Hollywood","count":1,"lat":26.01067,"lng":-80.16026,"type":"point"}],"source":"The New York Times"},{"feed_name":"World - Europe","feed_url":"http://feeds.bbci.co.uk/news/world/rss.xml","title":"Miss France runner-up April Benayoum targeted by anti-Semitic tweets","summary":"Police are investigating insults against April Benayoum after she revealed her Israeli origins.","link":"https://www.bbc.co.uk/news/world-europe-55389153","published":"Sun, 20 Dec 2020 22:08:20 GMT","geolocations":[{"name":"Provence","count":1,"lat":46.89143,"lng":6.72771,"type":"point"}],"source":"BBC"},{"feed_name":"World","feed_url":"https://rss.nytimes.com/services/xml/rss/nyt/World.xml","title":"A Canadian’s Gripping Tale Withers Under Scrutiny","summary":"A Burlington, Ontario, man told elaborate and gruesome stories of life in the Islamic State for a New York Times podcast. An examination revealed a pattern of misrepresentation.","link":"https://www.nytimes.com/2020/12/18/world/canada/canada-caliphate-chaudhry.html","published":"Fri, 18 Dec 2020 22:17:47 +0000","geolocations":[{"name":"Syria","count":2,"lat":33.51656,"lng":36.31708,"type":"point"},{"name":"Podcast","count":1,"lat":48.15764,"lng":-4.13881,"type":"point"},{"name":"Burlington","count":1,"lat":43.32619,"lng":-79.79862,"type":"point"},{"name":"Ontario","count":1,"lat":43.64869,"lng":-79.38544,"type":"point"}],"source":"The New York Times"},{"feed_name":"World - Europe","feed_url":"http://feeds.bbci.co.uk/news/world/rss.xml","title":"The drug that fuels fighters - destroyed","summary":"The BBC gains access to an operation to destroy millions of pills of an amphetamine made in Syria.","link":"https://www.bbc.co.uk/news/world-55378461","published":"Mon, 21 Dec 2020 00:00:59 GMT","geolocations":[{"name":"Italy","count":1,"lat":41.90322,"lng":12.49565,"type":"country"},{"name":"Syria","count":1,"lat":33.51656,"lng":36.31708,"type":"point"},{"name":"The Middle East","count":2,"lat":39.29996,"lng":-76.58967,"type":"point"},{"name":"Middle East","count":1,"lat":39.29996,"lng":-76.58967,"type":"point"}],"source":"BBC"},{"feed_name":"World","feed_url":"https://www.aljazeera.com/xml/rss/all.xml","title":"UK cut off over fears of new COVID strain: Live news","summary":"France, Germany, Italy, Austria among countries to freeze travel links with UK due to fears over new coronavirus strain.","link":"https://www.aljazeera.com/news/2020/12/21/saudi-arabia-halts-international-flights-over-virus-live-news","published":"Mon, 21 Dec 2020 06:45:27 +0000","geolocations":[{"name":"France","count":4,"lat":48.85717,"lng":2.3414,"type":"country"},{"name":"Germany","count":2,"lat":52.51604,"lng":13.37691,"type":"country"},{"name":"Italy","count":2,"lat":41.90322,"lng":12.49565,"type":"country"},{"name":"Netherlands","count":2,"lat":52.36993,"lng":4.90788,"type":"country"},{"name":"Austria","count":2,"lat":48.20263,"lng":16.36842,"type":"country"},{"name":"The United Kingdom","count":2,"lat":38.95953,"lng":-91.92768,"type":"point"},{"name":"Europe","count":5,"lat":-33.98201,"lng":18.58413,"type":"point"},{"name":"Thailand","count":5,"lat":13.75336,"lng":100.50483,"type":"country"},{"name":"Bangkok","count":1,"lat":13.75336,"lng":100.50483,"type":"point"},{"name":"Saudi Arabia","count":7,"lat":24.68211,"lng":46.68722,"type":"country"},{"name":"Myanmar","count":3,"lat":21.11892,"lng":96.51169,"type":"country"},{"name":"Yangon","count":1,"lat":16.82699,"lng":96.13763,"type":"point"},{"name":"The United States","count":2,"lat":38.89037,"lng":-77.03196,"type":"country"},{"name":"India","count":6,"lat":28.63095,"lng":77.21721,"type":"country"},{"name":"United Kingdom","count":3,"lat":38.95953,"lng":-91.92768,"type":"point"},{"name":"Us","count":2,"lat":38.89037,"lng":-77.03196,"type":"country"},{"name":"Philippines","count":3,"lat":14.60487,"lng":120.98627,"type":"country"},{"name":"China","count":1,"lat":39.90657,"lng":116.38765,"type":"country"},{"name":"London","count":2,"lat":51.50643,"lng":-0.12719,"type":"point"},{"name":"England","count":1,"lat":51.50643,"lng":-0.12719,"type":"country"},{"name":"Ireland","count":1,"lat":53.34807,"lng":-6.24827,"type":"country"},{"name":"Belgium","count":1,"lat":50.84439,"lng":4.35609,"type":"country"},{"name":"Sweden","count":1,"lat":59.33257,"lng":18.06683,"type":"country"},{"name":"Finland","count":1,"lat":60.17116,"lng":24.93265,"type":"country"},{"name":"Switzerland","count":1,"lat":46.94843,"lng":7.44046,"type":"country"},{"name":"Bulgaria","count":1,"lat":42.69718,"lng":23.32433,"type":"country"},{"name":"Romania","count":1,"lat":44.43429,"lng":26.10298,"type":"country"},{"name":"Croatia","count":1,"lat":45.80724,"lng":15.96757,"type":"country"},{"name":"Lithuania","count":1,"lat":54.69062,"lng":25.2698,"type":"country"},{"name":"Estonia","count":1,"lat":59.43642,"lng":24.75258,"type":"country"},{"name":"Latvia","count":1,"lat":56.94598,"lng":24.11487,"type":"country"},{"name":"Denmark","count":1,"lat":55.67567,"lng":12.56756,"type":"country"},{"name":"Poland","count":1,"lat":52.2356,"lng":21.01037,"type":"country"},{"name":"Latin America","count":1,"lat":41.62788,"lng":13.34278,"type":"point"},{"name":"El Salvador","count":1,"lat":13.69967,"lng":-89.2068,"type":"country"},{"name":"Chile","count":1,"lat":-33.43722,"lng":-70.65002,"type":"country"},{"name":"Colombia","count":1,"lat":4.61496,"lng":-74.06941,"type":"country"},{"name":"Argentina","count":1,"lat":-34.60849,"lng":-58.37344,"type":"country"},{"name":"Peru","count":1,"lat":-12.05613,"lng":-77.02679,"type":"country"},{"name":"The Middle East","count":1,"lat":39.29996,"lng":-76.58967,"type":"point"},{"name":"Turkey","count":1,"lat":39.92109,"lng":32.85391,"type":"country"},{"name":"Iran","count":1,"lat":35.68877,"lng":51.41503,"type":"country"},{"name":"Israel","count":1,"lat":31.78003,"lng":35.21873,"type":"country"},{"name":"Kuwait","count":1,"lat":29.37321,"lng":47.97142,"type":"country"},{"name":"Morocco","count":1,"lat":34.01791,"lng":-6.83612,"type":"country"},{"name":"North America","count":1,"lat":36.19711,"lng":-94.52681,"type":"point"},{"name":"Canada","count":1,"lat":45.42178,"lng":-75.69116,"type":"country"},{"name":"Kent","count":1,"lat":47.3807,"lng":-122.23741,"type":"point"},{"name":"Samut Sakhon","count":2,"lat":13.54565,"lng":100.25965,"type":"point"},{"name":"Mahachai","count":1,"lat":14.99051,"lng":102.12185,"type":"point"},{"name":"Seoul","count":2,"lat":37.55886,"lng":126.99989,"type":"point"},{"name":"South Korea’S","count":1,"lat":37.55886,"lng":126.99989,"type":"country"},{"name":"South Korea","count":1,"lat":37.55886,"lng":126.99989,"type":"country"},{"name":"Hong Kong","count":1,"lat":22.2783,"lng":114.16039,"type":"point"},{"name":"Hong Kong’S","count":1,"lat":22.2783,"lng":114.16039,"type":"point"},{"name":"Riyadh","count":1,"lat":24.68211,"lng":46.68722,"type":"point"}],"source":"Aljazeera"},{"feed_name":"World","feed_url":"https://www.latimes.com/world/rss2.0.xml","title":"What could Trump have done to produce a different election outcome?","summary":"<p>One can't help but wonder: What could Trump have done — other than his tragicomic efforts after the fact — to produce a different election outcome?</p>","link":"https://www.latimes.com/politics/story/2020-12-15/what-could-trump-have-done-to-produce-a-different-election-outcome","published":"Tue, 15 Dec 2020 08:00:06 -0500","geolocations":[{"name":"Arizona","count":1,"lat":33.44825,"lng":-112.0758,"type":"point"},{"name":"Wisconsin","count":1,"lat":43.07313,"lng":-89.38644,"type":"point"},{"name":"New York","count":2,"lat":40.71455,"lng":-74.00714,"type":"point"},{"name":"China","count":1,"lat":39.90657,"lng":116.38765,"type":"country"},{"name":"Los Angeles","count":1,"lat":34.05357,"lng":-118.24545,"type":"point"},{"name":"N.Y.","count":2,"lat":40.71455,"lng":-74.00714,"type":"point"},{"name":"Ky","count":1,"lat":19.29657,"lng":-81.38175,"type":"country"},{"name":"Gastonia","count":2,"lat":35.26221,"lng":-81.18702,"type":"point"},{"name":"N.C.","count":1,"lat":-22.24292,"lng":166.46133,"type":"country"}],"source":"Los Angeles Times"},{"feed_name":"World","feed_url":"https://www.theguardian.com/world/rss","title":"The Guardian in 2020","summary":"<p>Our report helps our readers, supporters and others better understand our mission and the impact of our journalism. It gives an insight into the workings of the organisation that produces the Guardian, the Observer and the Guardian’s editions in the US and Australia, over the last year</p> <a href=\"https://www.theguardian.com/info/ng-interactive/2020/dec/21/the-guardian-in-2020\">Continue reading...</a>","link":"https://www.theguardian.com/info/ng-interactive/2020/dec/21/the-guardian-in-2020","published":"Mon, 21 Dec 2020 10:00:44 GMT","geolocations":[{"name":"Us","count":41,"lat":38.89037,"lng":-77.03196,"type":"country"},{"name":"Australia","count":29,"lat":-35.30654,"lng":149.12655,"type":"country"},{"name":"Hong Kong","count":4,"lat":22.2783,"lng":114.16039,"type":"point"},{"name":"London","count":4,"lat":51.50643,"lng":-0.12719,"type":"point"},{"name":"Durham","count":1,"lat":54.77757,"lng":-1.57475,"type":"point"},{"name":"Africa","count":1,"lat":43.10832,"lng":12.77534,"type":"point"},{"name":"The East Coast","count":2,"lat":12.97218,"lng":80.25807,"type":"point"},{"name":"Focus","count":2,"lat":37.13218,"lng":-94.41899,"type":"point"},{"name":"Washington","count":2,"lat":38.89037,"lng":-77.03196,"type":"point"},{"name":"Westminster","count":2,"lat":33.75931,"lng":-117.98576,"type":"point"},{"name":"Brexit","count":2,"lat":49.77585,"lng":6.90681,"type":"point"},{"name":"Europe","count":5,"lat":-33.98201,"lng":18.58413,"type":"point"},{"name":"Melrose","count":1,"lat":55.59853,"lng":-2.72211,"type":"point"},{"name":"Scotland","count":1,"lat":55.95438,"lng":-3.20144,"type":"country"},{"name":"Newton","count":1,"lat":42.33855,"lng":-71.2071,"type":"point"},{"name":"Massachusetts","count":1,"lat":42.35866,"lng":-71.05674,"type":"point"},{"name":"Cardiff","count":1,"lat":51.48127,"lng":-3.18072,"type":"point"},{"name":"Iran","count":1,"lat":35.68877,"lng":51.41503,"type":"country"},{"name":"Venezuela","count":1,"lat":10.50526,"lng":-66.91776,"type":"country"},{"name":"Tenerife","count":1,"lat":9.89941,"lng":-74.86015,"type":"point"},{"name":"Milan","count":1,"lat":45.46796,"lng":9.18178,"type":"point"},{"name":"Beijing","count":1,"lat":39.90657,"lng":116.38765,"type":"point"},{"name":"The Ruby Princess","count":1,"lat":39.34902,"lng":-86.11677,"type":"point"},{"name":"Melbourne","count":2,"lat":-37.81739,"lng":144.96751,"type":"point"},{"name":"Minneapolis","count":1,"lat":44.97902,"lng":-93.26494,"type":"point"},{"name":"South","count":2,"lat":33.56253,"lng":35.36757,"type":"point"},{"name":"Bristol","count":2,"lat":51.45379,"lng":-2.59168,"type":"point"},{"name":"America","count":10,"lat":51.43739,"lng":5.98176,"type":"point"},{"name":"United Kingdom","count":2,"lat":38.95953,"lng":-91.92768,"type":"point"},{"name":"West Yorkshire","count":1,"lat":53.76812,"lng":-1.64064,"type":"point"},{"name":"Dubai","count":1,"lat":25.26951,"lng":55.30884,"type":"point"},{"name":"Commonwealth","count":1,"lat":45.91361,"lng":-88.25218,"type":"point"},{"name":"Caribbean","count":1,"lat":30.47333,"lng":-86.42132,"type":"point"},{"name":"New York","count":3,"lat":40.71455,"lng":-74.00714,"type":"point"},{"name":"Florida","count":2,"lat":30.43977,"lng":-84.28065,"type":"point"},{"name":"Arizona","count":2,"lat":33.44825,"lng":-112.0758,"type":"point"},{"name":"Pennsylvania","count":2,"lat":40.25986,"lng":-76.88223,"type":"point"},{"name":"San Francisco","count":1,"lat":37.77712,"lng":-122.41964,"type":"point"},{"name":"Metoo","count":1,"lat":4.12858,"lng":12.60302,"type":"point"},{"name":"Mallacoota Beach","count":1,"lat":-37.55776,"lng":149.75752,"type":"point"},{"name":"Bairnsdale","count":1,"lat":-37.8273,"lng":147.62161,"type":"point"},{"name":"Queensland","count":1,"lat":-22.5681,"lng":144.54768,"type":"point"},{"name":"New South Wales","count":2,"lat":-32.16736,"lng":147.01315,"type":"point"},{"name":"Batemans Bay","count":1,"lat":-35.70844,"lng":150.17733,"type":"point"},{"name":"Adani","count":1,"lat":6.7378,"lng":7.00763,"type":"point"},{"name":"Afghanistan","count":1,"lat":34.53313,"lng":69.10223,"type":"country"},{"name":"Indonesia","count":1,"lat":-6.17148,"lng":106.82649,"type":"country"},{"name":"New Zealand","count":1,"lat":-41.28949,"lng":174.77694,"type":"country"},{"name":"Germany","count":1,"lat":52.51604,"lng":13.37691,"type":"country"},{"name":"Spain","count":1,"lat":40.41955,"lng":-3.69196,"type":"country"},{"name":"China","count":1,"lat":39.90657,"lng":116.38765,"type":"country"},{"name":"Beirut","count":1,"lat":33.89607,"lng":35.50678,"type":"point"},{"name":"Belarus","count":1,"lat":53.90374,"lng":27.56546,"type":"country"},{"name":"Argentina","count":1,"lat":-34.60849,"lng":-58.37344,"type":"country"},{"name":"Manchester City’S","count":1,"lat":53.46674,"lng":-2.26255,"type":"point"},{"name":"Newcastle","count":1,"lat":54.97789,"lng":-1.61162,"type":"point"},{"name":"Liverpool","count":3,"lat":53.41005,"lng":-2.9784,"type":"point"},{"name":"Klopp","count":1,"lat":60.99474,"lng":9.60578,"type":"point"},{"name":"Arctic Sea","count":1,"lat":42.18723,"lng":-75.41355,"type":"point"},{"name":"Malaysia","count":1,"lat":3.14789,"lng":101.69405,"type":"country"},{"name":"Sarawak","count":1,"lat":1.5202,"lng":110.35363,"type":"point"},{"name":"California","count":2,"lat":38.57944,"lng":-121.49085,"type":"point"},{"name":"Earth","count":1,"lat":38.76564,"lng":-90.46003,"type":"point"},{"name":"Paris","count":1,"lat":48.85717,"lng":2.3414,"type":"point"},{"name":"Gatwick","count":1,"lat":51.16345,"lng":-0.17476,"type":"point"},{"name":"Alabama","count":1,"lat":32.38015,"lng":-86.30008,"type":"point"},{"name":"Washington Dc","count":2,"lat":38.89037,"lng":-77.03196,"type":"point"},{"name":"The West Coast","count":1,"lat":-41.40428,"lng":145.0225,"type":"point"},{"name":"Seattle","count":1,"lat":47.60357,"lng":-122.32945,"type":"point"},{"name":"Bloomington","count":1,"lat":39.1666,"lng":-86.5348,"type":"point"},{"name":"Indiana","count":1,"lat":39.76691,"lng":-86.15012,"type":"point"},{"name":"Michigan","count":1,"lat":42.73194,"lng":-84.55225,"type":"point"},{"name":"Wisconsin","count":1,"lat":43.07313,"lng":-89.38644,"type":"point"},{"name":"Iowa","count":1,"lat":41.58981,"lng":-93.61538,"type":"point"},{"name":"Texas","count":1,"lat":30.26759,"lng":-97.74299,"type":"point"},{"name":"Ohio","count":1,"lat":39.96199,"lng":-83.00275,"type":"point"},{"name":"North Carolina","count":1,"lat":35.78547,"lng":-78.6427,"type":"point"},{"name":"County Down","count":1,"lat":54.36146,"lng":-6.01628,"type":"point"},{"name":"Northern Ireland","count":1,"lat":54.59534,"lng":-5.93455,"type":"country"},{"name":"Victoria","count":1,"lat":48.42855,"lng":-123.36445,"type":"point"},{"name":"Juukan Gorge","count":1,"lat":-32.4598,"lng":118.00208,"type":"point"},{"name":"Western Australia","count":1,"lat":-25.46329,"lng":122.18471,"type":"point"},{"name":"Sheffield","count":1,"lat":53.38311,"lng":-1.46454,"type":"point"},{"name":"United Ireland","count":1,"lat":38.79413,"lng":-80.51431,"type":"point"},{"name":"Turkey","count":1,"lat":39.92109,"lng":32.85391,"type":"country"}],"source":"The Guardian"},{"feed_name":"World - Europe","feed_url":"http://feeds.bbci.co.uk/news/world/rss.xml","title":"Covid-19: Thailand tests thousands after virus outbreak in seafood market","summary":"Tens of thousands will be tested after hundreds of cases linked to Thailand's biggest seafood market.","link":"https://www.bbc.co.uk/news/world-asia-55391417","published":"Mon, 21 Dec 2020 06:52:46 GMT","geolocations":[{"name":"Thailand","count":1,"lat":13.75336,"lng":100.50483,"type":"country"},{"name":"China","count":1,"lat":39.90657,"lng":116.38765,"type":"country"}],"source":"BBC"},{"feed_name":"World","feed_url":"https://www.aljazeera.com/xml/rss/all.xml","title":"China aircraft carrier sails through Taiwan Strait raising alarm","summary":"The Shandong was accompanied by four other ships and led Taiwan to deploy aircraft and vessels to monitor the convoy.","link":"https://www.aljazeera.com/news/2020/12/21/alarm-in-taiwan-as-china-aircraft-carriers-sail-through-strait","published":"Mon, 21 Dec 2020 04:28:14 +0000","geolocations":[{"name":"Shandong","count":7,"lat":25.0176,"lng":121.17151,"type":"point"},{"name":"Taiwan","count":6,"lat":25.03737,"lng":121.56355,"type":"country"},{"name":"China","count":7,"lat":39.90657,"lng":116.38765,"type":"country"},{"name":"The South China Sea","count":2,"lat":26.07722,"lng":-97.16543,"type":"point"},{"name":"Us","count":1,"lat":38.89037,"lng":-77.03196,"type":"country"},{"name":"Taiwan Strait","count":1,"lat":25.03737,"lng":121.56355,"type":"country"},{"name":"Beijing","count":1,"lat":39.90657,"lng":116.38765,"type":"point"},{"name":"Dalian","count":1,"lat":31.00411,"lng":76.90846,"type":"point"},{"name":"The United States","count":1,"lat":38.89037,"lng":-77.03196,"type":"country"}],"source":"Aljazeera"},{"feed_name":"World","feed_url":"https://rss.nytimes.com/services/xml/rss/nyt/World.xml","title":"E.U. to Embark on a High-Stakes Coronavirus Vaccine Rollout","summary":"In a landmark collective undertaking, the bloc is poised to start distributing shots to all 27 member nations and their 410 million citizens.","link":"https://www.nytimes.com/2020/12/21/world/europe/eu-coronavirus-vaccine.html","published":"Mon, 21 Dec 2020 07:46:13 +0000","geolocations":[{"name":"Brussels","count":1,"lat":50.84439,"lng":4.35609,"type":"point"},{"name":"Stockholm","count":1,"lat":59.33257,"lng":18.06683,"type":"point"},{"name":"Athens","count":1,"lat":37.97614,"lng":23.7364,"type":"point"},{"name":"Lisbon","count":1,"lat":38.72639,"lng":-9.14948,"type":"point"},{"name":"Warsaw","count":1,"lat":52.2356,"lng":21.01037,"type":"point"},{"name":"England","count":1,"lat":51.50643,"lng":-0.12719,"type":"country"},{"name":"United Kingdom","count":1,"lat":38.95953,"lng":-91.92768,"type":"point"}],"source":"The New York Times"},{"feed_name":"World","feed_url":"https://www.theguardian.com/world/rss","title":"'The coughing would not stop': MP talks of 'unbearable pain' of Covid","summary":"<p>Labour shadow minister Yasmin Qureshi speaks of slow recovery after hospital admission</p><ul><li><a href=\"https://www.theguardian.com/world/series/coronavirus-live/latest\">Coronavirus – latest updates</a></li><li><a href=\"https://www.theguardian.com/world/coronavirus-outbreak\">See all our coronavirus coverage</a></li></ul><p>A shadow minister who became the first female MP to be admitted to hospital with Covid-19 has described the “unbearable pain” caused by coughing fits and pneumonia as the disease took hold.</p><p>Yasmin Qureshi, the Labour MP for Bolton South East and a shadow minister for international development, said she was left “anxious and concerned” after being taken by ambulance to her local hospital in October.</p> <a href=\"https://www.theguardian.com/world/2020/dec/21/the-coughing-would-not-stop-mp-yasmin-qureshi-talks-of-unbearable-pain-of-covid\">Continue reading...</a>","link":"https://www.theguardian.com/world/2020/dec/21/the-coughing-would-not-stop-mp-yasmin-qureshi-talks-of-unbearable-pain-of-covid","published":"Mon, 21 Dec 2020 12:04:56 GMT","geolocations":[{"name":"Bolton South East","count":1,"lat":42.30397,"lng":-71.05204,"type":"point"},{"name":"Rochdale","count":1,"lat":53.61906,"lng":-2.16294,"type":"point"}],"source":"The Guardian"},{"feed_name":"World","feed_url":"https://www.latimes.com/world/rss2.0.xml","title":"Tyson Foods fires 7 managers accused of betting on employee COVID-19 infections at Iowa plant","summary":"<p>Seven Tyson Foods plant managers who were accused of betting on how many employees would get coronavirus were fired Wednesday, the company said.</p>","link":"https://www.latimes.com/world-nation/story/2020-12-17/tyson-foods-fires-7-managers-accused-of-betting-on-employee-covid-19-infections-at-io","published":"Thu, 17 Dec 2020 04:19:06 -0500","geolocations":[{"name":"Tyson","count":1,"lat":28.23991,"lng":-81.19455,"type":"point"},{"name":"Waterloo","count":1,"lat":43.46339,"lng":-80.52075,"type":"point"},{"name":"Iowa","count":3,"lat":41.58981,"lng":-93.61538,"type":"point"},{"name":"U.S.","count":3,"lat":38.89037,"lng":-77.03196,"type":"country"}],"source":"Los Angeles Times"},{"feed_name":"World - Europe","feed_url":"http://feeds.bbci.co.uk/news/world/rss.xml","title":"Iceland: Town of Seydisfjordur evacuated after mudslide hits","summary":"An 11-year-old boy had no time to dress as he and his father were forced to run from their home.","link":"https://www.bbc.co.uk/news/world-europe-55389821","published":"Sun, 20 Dec 2020 21:17:35 GMT","geolocations":[{"name":"Iceland","count":1,"lat":64.14746,"lng":-21.93422,"type":"country"}],"source":"BBC"},{"feed_name":"World","feed_url":"https://www.theguardian.com/world/rss","title":"Progressives are a minority in America. To win, they need to compromise | Michael Lind","summary":"<p>Rebuilding something like the New Deal coalition may require winning back socially moderate and conservative voters</p><p>“If we are victorious in one more battle with the Romans, we shall be utterly ruined,” lamented King Pyrrhus of Epirus, whose costly triumph in 279 BC inspired the phrase “Pyrrhic victory”. In 2020, the Democratic party learned what King Pyrrhus was talking about. They recaptured the White House and narrowly held on to the House of Representatives. And if the Democrats win both Senate runoffs in Georgia, they may yet capture the Senate. But Republicans increased their share of the House, making it easier for them to recapture it in 2022, and they control a majority of state legislatures whose redistricting plans for the US Congress can help the Republican party.</p><p>Perhaps the greatest blow has been to the progressive interpretation of American politics. Most progressives have understood Trumpism as the last gasp of a dwindling, reactionary white male population. The future of the Democrats, it was said, lay with women and minorities. And yet in 2020 white men shifted more toward Biden than white women did. Black and brown Americans still voted mostly for Democrats, but there were significant shifts toward the Republicans among black and Hispanic voters and all of the Republicans who took contested seats from the Democrats were minority group members or women.</p> <a href=\"https://www.theguardian.com/us-news/commentisfree/2020/dec/19/progressives-us-democrats-power-new-deal\">Continue reading...</a>","link":"https://www.theguardian.com/us-news/commentisfree/2020/dec/19/progressives-us-democrats-power-new-deal","published":"Sat, 19 Dec 2020 11:21:47 GMT","geolocations":[{"name":"Us","count":1,"lat":38.89037,"lng":-77.03196,"type":"country"}],"source":"The Guardian"},{"feed_name":"World","feed_url":"https://www.theguardian.com/world/rss","title":"Kilauea volcano erupts after earthquake on Hawaii's Big Island","summary":"<p>During previous eruption in 2018 Kilauea spewed lava for four months, destroying 700 homes</p><p>The Kilauea volcano on Hawaii’s Big Island has erupted.</p><p>The eruption began late on Sunday in the Halema’uma’u crater, according to the US Geological Survey. Kilauea is in the Hawaii Volcanoes national park.</p> <a href=\"https://www.theguardian.com/us-news/2020/dec/21/kilauea-volcano-erupts-after-earthquake-on-hawaii-big-island\">Continue reading...</a>","link":"https://www.theguardian.com/us-news/2020/dec/21/kilauea-volcano-erupts-after-earthquake-on-hawaii-big-island","published":"Mon, 21 Dec 2020 11:28:53 GMT","geolocations":[{"name":"Kilauea","count":3,"lat":22.2126,"lng":-159.40902,"type":"point"},{"name":"Hawaii","count":1,"lat":21.30493,"lng":-157.85788,"type":"point"},{"name":"Big Island","count":1,"lat":37.53657,"lng":-79.36491,"type":"point"},{"name":"Halema’Uma’U","count":1,"lat":21.64767,"lng":-158.06143,"type":"point"},{"name":"Honolulu","count":1,"lat":21.30493,"lng":-157.85788,"type":"point"}],"source":"The Guardian"},{"feed_name":"World","feed_url":"https://www.latimes.com/world/rss2.0.xml","title":"British scientists find changes in coronavirus that may make it more infectious","summary":"<p>British scientists have found a version of the coronavirus with a cluster of genetic changes that make it more transmissible and perhaps more dangerous.</p>","link":"https://www.latimes.com/science/story/2020-12-20/changes-in-the-coronavirus-raise-alarm-bells-cancel-christmas-in-britain","published":"Sun, 20 Dec 2020 23:43:56 -0500","geolocations":[{"name":"The United Kingdom","count":2,"lat":38.95953,"lng":-91.92768,"type":"point"},{"name":"United Kingdom","count":2,"lat":38.95953,"lng":-91.92768,"type":"point"},{"name":"Britons","count":2,"lat":52.92891,"lng":1.22465,"type":"point"},{"name":"U.S.","count":1,"lat":38.89037,"lng":-77.03196,"type":"country"},{"name":"England","count":2,"lat":51.50643,"lng":-0.12719,"type":"country"},{"name":"France","count":1,"lat":48.85717,"lng":2.3414,"type":"country"},{"name":"Germany","count":1,"lat":52.51604,"lng":13.37691,"type":"country"},{"name":"Italy","count":2,"lat":41.90322,"lng":12.49565,"type":"country"},{"name":"The Netherlands","count":1,"lat":51.305,"lng":-0.14561,"type":"point"},{"name":"Belgium","count":2,"lat":50.84439,"lng":4.35609,"type":"country"},{"name":"Austria","count":1,"lat":48.20263,"lng":16.36842,"type":"country"},{"name":"Ireland","count":1,"lat":53.34807,"lng":-6.24827,"type":"country"},{"name":"Bulgaria","count":1,"lat":42.69718,"lng":23.32433,"type":"country"},{"name":"U.K.","count":2,"lat":29.93186,"lng":77.81922,"type":"point"},{"name":"Kent","count":2,"lat":47.3807,"lng":-122.23741,"type":"point"},{"name":"London","count":2,"lat":51.50643,"lng":-0.12719,"type":"point"},{"name":"Nextstrain","count":1,"lat":48.69134,"lng":10.92015,"type":"point"},{"name":"Denmark","count":1,"lat":55.67567,"lng":12.56756,"type":"country"},{"name":"Australia","count":1,"lat":-35.30654,"lng":149.12655,"type":"country"},{"name":"South Africa","count":1,"lat":-25.74587,"lng":28.18764,"type":"country"}],"source":"Los Angeles Times"},{"feed_name":"World - Europe","feed_url":"http://feeds.bbci.co.uk/news/world/rss.xml","title":"Covid: Flights shut down as EU discusses UK virus threat","summary":"European officials are hammering out a joint response to stem the spread of a new Covid-19 variant.","link":"https://www.bbc.co.uk/news/world-europe-55391257","published":"Mon, 21 Dec 2020 12:48:04 GMT","geolocations":[{"name":"Canada","count":4,"lat":45.42178,"lng":-75.69116,"type":"country"},{"name":"India","count":2,"lat":28.63095,"lng":77.21721,"type":"country"},{"name":"Europe","count":1,"lat":-33.98201,"lng":18.58413,"type":"point"},{"name":"Brussels","count":1,"lat":50.84439,"lng":4.35609,"type":"point"},{"name":"Denmark","count":2,"lat":55.67567,"lng":12.56756,"type":"country"},{"name":"Italy","count":2,"lat":41.90322,"lng":12.49565,"type":"country"},{"name":"Netherlands","count":4,"lat":52.36993,"lng":4.90788,"type":"country"},{"name":"Us","count":1,"lat":38.89037,"lng":-77.03196,"type":"country"},{"name":"France","count":1,"lat":48.85717,"lng":2.3414,"type":"country"},{"name":"Folkestone","count":2,"lat":51.08447,"lng":1.17794,"type":"point"},{"name":"Germany","count":1,"lat":52.51604,"lng":13.37691,"type":"country"},{"name":"Poland","count":1,"lat":52.2356,"lng":21.01037,"type":"country"},{"name":"Sweden","count":1,"lat":59.33257,"lng":18.06683,"type":"country"},{"name":"Finland","count":1,"lat":60.17116,"lng":24.93265,"type":"country"},{"name":"Austria","count":1,"lat":48.20263,"lng":16.36842,"type":"country"},{"name":"Bulgaria","count":1,"lat":42.69718,"lng":23.32433,"type":"country"},{"name":"Romania","count":1,"lat":44.43429,"lng":26.10298,"type":"country"},{"name":"Malta","count":1,"lat":35.89353,"lng":14.5118,"type":"country"},{"name":"Croatia","count":2,"lat":45.80724,"lng":15.96757,"type":"country"},{"name":"Lithuania","count":1,"lat":54.69062,"lng":25.2698,"type":"country"},{"name":"Latvia","count":1,"lat":56.94598,"lng":24.11487,"type":"country"},{"name":"Estonia","count":1,"lat":59.43642,"lng":24.75258,"type":"country"},{"name":"Belgium","count":1,"lat":50.84439,"lng":4.35609,"type":"country"},{"name":"Greece","count":1,"lat":37.97614,"lng":23.7364,"type":"country"},{"name":"The Republic Of Ireland","count":1,"lat":28.63095,"lng":77.21721,"type":"country"},{"name":"United Kingdom","count":1,"lat":38.95953,"lng":-91.92768,"type":"point"},{"name":"Ireland","count":1,"lat":53.34807,"lng":-6.24827,"type":"country"},{"name":"Turkey","count":1,"lat":39.92109,"lng":32.85391,"type":"country"},{"name":"Norway","count":1,"lat":59.91234,"lng":10.75,"type":"country"},{"name":"Switzerland","count":1,"lat":46.94843,"lng":7.44046,"type":"country"},{"name":"Russia","count":1,"lat":55.75696,"lng":37.61502,"type":"country"},{"name":"Hong Kong","count":1,"lat":22.2783,"lng":114.16039,"type":"point"},{"name":"Israel","count":1,"lat":31.78003,"lng":35.21873,"type":"country"},{"name":"Iran","count":1,"lat":35.68877,"lng":51.41503,"type":"country"},{"name":"Morocco","count":1,"lat":34.01791,"lng":-6.83612,"type":"country"},{"name":"Kuwait","count":1,"lat":29.37321,"lng":47.97142,"type":"country"},{"name":"Latin America","count":1,"lat":41.62788,"lng":13.34278,"type":"point"},{"name":"Argentina","count":1,"lat":-34.60849,"lng":-58.37344,"type":"country"},{"name":"Chile","count":1,"lat":-33.43722,"lng":-70.65002,"type":"country"},{"name":"Colombia","count":1,"lat":4.61496,"lng":-74.06941,"type":"country"},{"name":"Ecuador","count":1,"lat":-0.20565,"lng":-78.50888,"type":"country"},{"name":"El Salvador","count":1,"lat":13.69967,"lng":-89.2068,"type":"country"},{"name":"Peru","count":1,"lat":-12.05613,"lng":-77.02679,"type":"country"},{"name":"Saudi Arabia","count":1,"lat":24.68211,"lng":46.68722,"type":"country"},{"name":"Spain","count":1,"lat":40.41955,"lng":-3.69196,"type":"country"},{"name":"Britons","count":1,"lat":52.92891,"lng":1.22465,"type":"point"},{"name":"London","count":2,"lat":51.50643,"lng":-0.12719,"type":"point"},{"name":"Middle East","count":1,"lat":39.29996,"lng":-76.58967,"type":"point"},{"name":"Bethlehem","count":1,"lat":40.6266,"lng":-75.36798,"type":"point"}],"source":"BBC"},{"feed_name":"World","feed_url":"https://rss.nytimes.com/services/xml/rss/nyt/World.xml","title":"Sesame Street Creates New Muppets for Rohingya Refugees","summary":"Noor and Aziz are Rohingya Muppets who will feature in educational programming that will be shown in refugee camps.","link":"https://www.nytimes.com/2020/12/19/world/asia/sesame-street-rohingya-muppets.html","published":"Sun, 20 Dec 2020 02:17:47 +0000","geolocations":[{"name":"Bangkok","count":1,"lat":13.75336,"lng":100.50483,"type":"point"},{"name":"Myanmar","count":2,"lat":21.11892,"lng":96.51169,"type":"country"},{"name":"Bangladesh","count":2,"lat":23.71325,"lng":90.39959,"type":"country"},{"name":"Brac","count":1,"lat":43.97783,"lng":-0.41678,"type":"point"}],"source":"The New York Times"},{"feed_name":"World","feed_url":"https://www.theguardian.com/world/rss","title":"Essex lorry deaths: two found guilty over manslaughter of 39 Vietnamese people","summary":"<p>People-smugglers convicted of manslaughter and of conspiring to transport migrants</p><p>Two people-smugglers have been found guilty of 39 counts of manslaughter for the suffocation of 39 Vietnamese people as they were being shipped in a sealed refrigeration trailer across the Channel in October last year.</p><p>Gheorghe Nica, 43, and Eamonn Harrison, 24, have been found guilty at the Old<br />Bailey of the manslaughter of 39 Vietnamese men, women and children who<br />suffocated as they were smuggled into Britain in a lorry trailer.</p> <a href=\"https://www.theguardian.com/uk-news/2020/dec/21/essex-lorry-trial-two-found-guilty-over-deaths-of-39-vietnamese-people\">Continue reading...</a>","link":"https://www.theguardian.com/uk-news/2020/dec/21/essex-lorry-trial-two-found-guilty-over-deaths-of-39-vietnamese-people","published":"Mon, 21 Dec 2020 13:19:06 GMT","geolocations":[{"name":"Gheorghe Nica","count":1,"lat":45.85649,"lng":25.80577,"type":"point"},{"name":"United Kingdom","count":1,"lat":38.95953,"lng":-91.92768,"type":"point"},{"name":"Vietnam","count":1,"lat":21.02888,"lng":105.85464,"type":"country"}],"source":"The Guardian"},{"feed_name":"World","feed_url":"https://www.aljazeera.com/xml/rss/all.xml","title":"Ten days until Brexit transition ends: What to know in 500 words","summary":"The UK and the EU are yet to compromise and reach a trade deal, with less than two weeks until the agreed deadline.","link":"https://www.aljazeera.com/news/2020/12/21/10-days-until-brexit-transition-ends-what-to-know-in-500-words","published":"Mon, 21 Dec 2020 13:52:32 +0000","geolocations":[{"name":"The United Kingdom","count":1,"lat":38.95953,"lng":-91.92768,"type":"point"},{"name":"London","count":1,"lat":51.50643,"lng":-0.12719,"type":"point"}],"source":"Aljazeera"},{"feed_name":"World","feed_url":"https://www.latimes.com/world/rss2.0.xml","title":"Congressional leaders close in on coronavirus aid deal","summary":"<p>Leaders in Congress are said to be near a deal on COVID-19 aid that includes direct payments to Americans but no help for state and local governments.</p>","link":"https://www.latimes.com/politics/story/2020-12-16/congressional-leaders-close-in-on-covid-relief-package","published":"Wed, 16 Dec 2020 10:39:13 -0500","geolocations":[{"name":"Ky","count":1,"lat":19.29657,"lng":-81.38175,"type":"country"},