[{"feed_name":"World","feed_url":"https://www.latimes.com/world/rss2.0.xml","title":"In Georgia Senate runoffs, faith emerges front and center","summary":"<p>Religion has taken on new meaning in this heated political season amid the Georgia Senate runoff races, where a Black pastor from Martin Luther King Jr.'s church is on the ballot.</p>","link":"https://www.latimes.com/world-nation/story/2020-12-21/georgia-warnock-senate-pastors-faith","published":"Mon, 21 Dec 2020 13:19:52 -0500","geolocations":[{"name":"Atlanta","count":4,"lat":33.74831,"lng":-84.39111,"type":"point"},{"name":"Fayetteville","count":4,"lat":35.05534,"lng":-78.87727,"type":"point"},{"name":"Ga.","count":4,"lat":0.39324,"lng":9.44633,"type":"country"},{"name":"Columbus","count":6,"lat":39.96199,"lng":-83.00275,"type":"point"},{"name":"South","count":1,"lat":33.56253,"lng":35.36757,"type":"point"},{"name":"The Deep South","count":1,"lat":-34.99193,"lng":147.20553,"type":"point"},{"name":"Augusta","count":1,"lat":48.37034,"lng":10.89788,"type":"point"},{"name":"Clarkston","count":1,"lat":42.73484,"lng":-83.41939,"type":"point"},{"name":"Texas","count":1,"lat":30.26759,"lng":-97.74299,"type":"point"},{"name":"Ohio","count":1,"lat":39.96199,"lng":-83.00275,"type":"point"},{"name":"St. James Missionary Baptist’S","count":1,"lat":38.00051,"lng":-91.6165,"type":"point"},{"name":"St. James","count":1,"lat":40.8763,"lng":-73.15637,"type":"point"},{"name":"U.S.","count":2,"lat":38.89037,"lng":-77.03196,"type":"country"},{"name":"America","count":3,"lat":51.43739,"lng":5.98176,"type":"point"}],"source":"Los Angeles Times"},{"feed_name":"World","feed_url":"https://www.theguardian.com/world/rss","title":"Fire burns through temporary migrant camp in Bosnia – video","summary":"<p>A huge fire has destroyed the main tents in what was designed to be a temporary migrant camp to stop the spread of Covid-19 in northern Bosnia.&nbsp;</p><p>Thick black smoke rose from the Lipa camp near the Croatian border on Wednesday, where about 1,200 people had been staying since the summer&nbsp;</p> <a href=\"https://www.theguardian.com/world/video/2020/dec/23/fire-burns-through-temporary-migrant-camp-bosnia-video\">Continue reading...</a>","link":"https://www.theguardian.com/world/video/2020/dec/23/fire-burns-through-temporary-migrant-camp-bosnia-video","published":"Wed, 23 Dec 2020 15:26:27 GMT","geolocations":[{"name":"Bosnia","count":1,"lat":43.85946,"lng":18.43582,"type":"country"}],"source":"The Guardian"},{"feed_name":"World - Europe","feed_url":"http://feeds.bbci.co.uk/news/world/rss.xml","title":"Octopuses filmed punching fish in the Red Sea","summary":"Scientists have filmed octopuses in the Red Sea lashing out at fish during a group hunt.","link":"https://www.bbc.co.uk/news/science-environment-55426583","published":"Wed, 23 Dec 2020 12:59:40 GMT","geolocations":[{"name":"The Red Sea","count":1,"lat":25.30473,"lng":55.41072,"type":"point"}],"source":"BBC"},{"feed_name":"World","feed_url":"https://rss.nytimes.com/services/xml/rss/nyt/World.xml","title":"Why Covid Antibody Drugs Go Unused as Need Soars","summary":"While such treatments are promising, their use has been slowed by testing lags, overwhelmed hospitals and a perception the therapies are only for well-connected people.","link":"https://www.nytimes.com/2020/12/23/health/covid-antibody-treatment.html","published":"Wed, 23 Dec 2020 15:49:49 +0000","geolocations":[{"name":"New Jersey","count":1,"lat":40.21788,"lng":-74.7594,"type":"point"}],"source":"The New York Times"},{"feed_name":"World","feed_url":"https://rss.nytimes.com/services/xml/rss/nyt/World.xml","title":"Adapting to a Holiday Season Stripped of Its Essence","summary":"Pandemic restrictions mean friends and families will not be gathering this year, but Canadians are coming together in other ways.","link":"https://www.nytimes.com/2020/12/25/world/canada/adapting-to-a-holiday-season-stripped-of-its-essence.html","published":"Fri, 25 Dec 2020 10:00:06 +0000","geolocations":[{"name":"Canada","count":1,"lat":45.42178,"lng":-75.69116,"type":"country"},{"name":"Ontario","count":2,"lat":43.64869,"lng":-79.38544,"type":"point"},{"name":"Quebec","count":2,"lat":46.81273,"lng":-71.2193,"type":"point"},{"name":"Edmonton","count":1,"lat":53.54624,"lng":-113.49037,"type":"point"},{"name":"Tehran","count":1,"lat":35.68877,"lng":51.41503,"type":"point"},{"name":"Ukraine","count":1,"lat":50.45056,"lng":30.52428,"type":"country"},{"name":"Manitoba","count":1,"lat":49.89953,"lng":-97.14113,"type":"point"}],"source":"The New York Times"},{"feed_name":"World","feed_url":"https://rss.nytimes.com/services/xml/rss/nyt/World.xml","title":"Israeli Election, Take Four: Conservatives vs. Conservatives","summary":"After the center-left failed in three elections to oust Prime Minister Benjamin Netanyahu, the fourth one is shaping up into a contest among right-wing leaders.","link":"https://www.nytimes.com/2020/12/23/world/middleeast/23israel-netanyahu-election.html","published":"Thu, 24 Dec 2020 10:09:59 +0000","geolocations":[{"name":"Israel","count":4,"lat":31.78003,"lng":35.21873,"type":"country"}],"source":"The New York Times"},{"feed_name":"World","feed_url":"https://www.theguardian.com/world/rss","title":"Global report: South Korea at Covid 'crossroads' as global concern mounts over variants","summary":"<p>Norway extends UK travel ban; Japan refuses arrivals from South Africa; Turkey requires all arrivals to provide proof of negative test </p><ul><li><a href=\"https://www.theguardian.com/world/2020/dec/25/japan-reports-cases-coronavirus-variant-spreading-across-uk\">Japan and France report cases of coronavirus variant found in UK</a></li><li><a href=\"https://www.theguardian.com/world/coronavirus-outbreak\">See all our coronavirus coverage</a></li></ul><p><strong>South Korea </strong>has posted its second-highest daily number of coronavirus cases, as outbreaks at a prison, nursing homes and churches continued to grow, prompting the health minister to say the country was at a “crossroads of the third wave”. It comes as more countries restricted entry from the UK and South Africa amid fears about new Covid variants.</p><p>The Korea Disease Control and Prevention Agency said there were 1,132 new coronavirus cases on Friday, not too far off the record of 1,241 logged on Christmas Eve.</p> <a href=\"https://www.theguardian.com/world/2020/dec/26/global-report-south-korea-at-covid-crossroads-as-global-concern-mounts-over-variants\">Continue reading...</a>","link":"https://www.theguardian.com/world/2020/dec/26/global-report-south-korea-at-covid-crossroads-as-global-concern-mounts-over-variants","published":"Sat, 26 Dec 2020 07:09:35 GMT","geolocations":[{"name":"South Korea","count":2,"lat":37.55886,"lng":126.99989,"type":"country"},{"name":"South Africa","count":3,"lat":-25.74587,"lng":28.18764,"type":"country"},{"name":"Seoul","count":2,"lat":37.55886,"lng":126.99989,"type":"point"},{"name":"Japan","count":3,"lat":35.68408,"lng":139.80885,"type":"country"},{"name":"Tokyo","count":1,"lat":35.68408,"lng":139.80885,"type":"point"},{"name":"England","count":1,"lat":51.50643,"lng":-0.12719,"type":"country"},{"name":"Scotland","count":1,"lat":55.95438,"lng":-3.20144,"type":"country"},{"name":"Northern Ireland","count":1,"lat":54.59534,"lng":-5.93455,"type":"country"},{"name":"Wales","count":1,"lat":51.48127,"lng":-3.18072,"type":"country"},{"name":"Norway","count":1,"lat":59.91234,"lng":10.75,"type":"country"},{"name":"United Kingdom","count":2,"lat":38.95953,"lng":-91.92768,"type":"point"},{"name":"France","count":2,"lat":48.85717,"lng":2.3414,"type":"country"},{"name":"Tours","count":1,"lat":47.38846,"lng":0.68957,"type":"point"},{"name":"Rome","count":1,"lat":41.90322,"lng":12.49565,"type":"point"},{"name":"Italy","count":1,"lat":41.90322,"lng":12.49565,"type":"country"},{"name":"Denmark","count":2,"lat":55.67567,"lng":12.56756,"type":"country"},{"name":"Netherlands","count":1,"lat":52.36993,"lng":4.90788,"type":"country"},{"name":"Australia","count":2,"lat":-35.30654,"lng":149.12655,"type":"country"},{"name":"Turkey","count":2,"lat":39.92109,"lng":32.85391,"type":"country"},{"name":"Thailand","count":1,"lat":13.75336,"lng":100.50483,"type":"country"}],"source":"The Guardian"},{"feed_name":"World","feed_url":"https://www.latimes.com/world/rss2.0.xml","title":"Trump finds himself isolated in refusal to blame Russia for big cyberattack","summary":"<p>Some lawmakers want the Kremlin punished over the suspected hack, but Trump refuses to point fingers.</p>","link":"https://www.latimes.com/world-nation/story/2020-12-20/lawmakers-experts-baffled-trump-brushes-off-suspected-russian-hack","published":"Sun, 20 Dec 2020 16:10:25 -0500","geolocations":[{"name":"U.S.","count":7,"lat":38.89037,"lng":-77.03196,"type":"country"},{"name":"Russia","count":7,"lat":55.75696,"lng":37.61502,"type":"country"},{"name":"The United States","count":3,"lat":38.89037,"lng":-77.03196,"type":"country"},{"name":"Utah","count":1,"lat":40.76031,"lng":-111.88822,"type":"point"},{"name":"China","count":1,"lat":39.90657,"lng":116.38765,"type":"country"},{"name":"Virginia","count":1,"lat":37.54068,"lng":-77.43367,"type":"point"},{"name":"Austin","count":1,"lat":30.26759,"lng":-97.74299,"type":"point"},{"name":"Wyo","count":1,"lat":39.78186,"lng":-122.19752,"type":"point"},{"name":"Moscow","count":1,"lat":55.75696,"lng":37.61502,"type":"point"},{"name":"Washington","count":1,"lat":38.89037,"lng":-77.03196,"type":"point"}],"source":"Los Angeles Times"},{"feed_name":"World","feed_url":"https://www.latimes.com/world/rss2.0.xml","title":"Biden's Cabinet: Expertise, diversity and an Obama class reunion","summary":"<p>As a candidate, Joe Biden promised to restore \"normal\" government and transform America. To help, his Cabinet will be historically diverse but heavy on Obama alumni.</p>","link":"https://www.latimes.com/politics/story/2020-12-19/bidens-cabinet-expertise-diversity-and-an-obama-class-reunion","published":"Sat, 19 Dec 2020 06:00:13 -0500","geolocations":[{"name":"America","count":3,"lat":51.43739,"lng":5.98176,"type":"point"},{"name":"New Mexico","count":1,"lat":35.69177,"lng":-105.93824,"type":"point"},{"name":"Haaland","count":1,"lat":60.67418,"lng":4.95931,"type":"point"},{"name":"Massachusetts","count":1,"lat":42.35866,"lng":-71.05674,"type":"point"},{"name":"California","count":1,"lat":38.57944,"lng":-121.49085,"type":"point"},{"name":"North Carolina","count":1,"lat":35.78547,"lng":-78.6427,"type":"point"},{"name":"Rhode Island","count":1,"lat":41.82387,"lng":-71.41199,"type":"point"},{"name":"U.S.","count":1,"lat":38.89037,"lng":-77.03196,"type":"country"},{"name":"Washington","count":1,"lat":38.89037,"lng":-77.03196,"type":"point"},{"name":"Vermont","count":1,"lat":44.26029,"lng":-72.57626,"type":"point"},{"name":"Ohio","count":1,"lat":39.96199,"lng":-83.00275,"type":"point"},{"name":"Chicago","count":1,"lat":41.88425,"lng":-87.63245,"type":"point"}],"source":"Los Angeles Times"},{"feed_name":"World","feed_url":"https://www.aljazeera.com/xml/rss/all.xml","title":"Brexit deal: What happens next and what will change on January 1?","summary":"The UK and the EU&#039;s newly-minted trade pact will shape their relationship for years, if not generations, to come.","link":"https://www.aljazeera.com/news/2020/12/25/brexit-deal-what-happens-next-and-what-will-change-on-january-1","published":"Fri, 25 Dec 2020 17:50:55 +0000","geolocations":[{"name":"London","count":1,"lat":51.50643,"lng":-0.12719,"type":"point"},{"name":"United Kingdom","count":1,"lat":38.95953,"lng":-91.92768,"type":"point"},{"name":"The United Kingdom","count":1,"lat":38.95953,"lng":-91.92768,"type":"point"},{"name":"Britons","count":1,"lat":52.92891,"lng":1.22465,"type":"point"},{"name":"Europe","count":2,"lat":-33.98201,"lng":18.58413,"type":"point"},{"name":"Northern Ireland","count":2,"lat":54.59534,"lng":-5.93455,"type":"country"},{"name":"Brexit","count":1,"lat":49.77585,"lng":6.90681,"type":"point"},{"name":"Republic Of Ireland","count":1,"lat":28.63095,"lng":77.21721,"type":"country"}],"source":"Aljazeera"},{"feed_name":"World","feed_url":"https://rss.nytimes.com/services/xml/rss/nyt/World.xml","title":"Blackwater, Iraq and President Trump's Pardon","summary":"Iraqi witnesses against Blackwater guards were promised justice after a mass killing in Baghdad in 2007. ‘Today,’ one said, the bullets still in his leg, ‘they proved to me it was just theater.’","link":"https://www.nytimes.com/2020/12/23/world/middleeast/blackwater-trump-pardon.html","published":"Thu, 24 Dec 2020 14:49:42 +0000","geolocations":[{"name":"The United States","count":4,"lat":38.89037,"lng":-77.03196,"type":"country"},{"name":"The District Of Columbia","count":1,"lat":44.63305,"lng":-67.85116,"type":"point"},{"name":"Baghdad","count":1,"lat":33.3421,"lng":44.39307,"type":"point"},{"name":"Blackwater","count":2,"lat":-23.58569,"lng":148.88012,"type":"point"},{"name":"U.S.","count":2,"lat":38.89037,"lng":-77.03196,"type":"country"}],"source":"The New York Times"},{"feed_name":"World","feed_url":"https://rss.nytimes.com/services/xml/rss/nyt/World.xml","title":"For the E.U., Brexit Deal Is a Pretty Good One","summary":"The Brexit pact preserves crucial E.U. principles like the single market, and lets the bloc look ahead to its future without Britain.","link":"https://www.nytimes.com/2020/12/24/world/europe/european-union-brexit-britain.html","published":"Fri, 25 Dec 2020 14:58:37 +0000","geolocations":[{"name":"Brussels","count":1,"lat":50.84439,"lng":4.35609,"type":"point"},{"name":"United Kingdom","count":2,"lat":38.95953,"lng":-91.92768,"type":"point"}],"source":"The New York Times"},{"feed_name":"World","feed_url":"https://www.latimes.com/world/rss2.0.xml","title":"COVID-19 is crushing Native American reservations. But distrust of the government makes vaccines a hard sell","summary":"<p>Skepticism about the newly authorized coronavirus vaccines pervades Native American communities even as the death toll mounts. </p>","link":"https://www.latimes.com/world-nation/story/2020-12-20/native-american-coronavirus-vaccine","published":"Sun, 20 Dec 2020 06:00:58 -0500","geolocations":[{"name":"Oregon","count":1,"lat":44.93326,"lng":-123.04381,"type":"point"},{"name":"Pechanga Casino","count":1,"lat":33.45855,"lng":-117.10645,"type":"point"},{"name":"Temecula","count":1,"lat":33.50299,"lng":-117.16247,"type":"point"},{"name":"Calif.","count":1,"lat":3.43402,"lng":-76.52645,"type":"point"},{"name":"North Dakota","count":1,"lat":46.80536,"lng":-100.77969,"type":"point"},{"name":"Alaska","count":1,"lat":58.29973,"lng":-134.40679,"type":"point"},{"name":"Tuba City","count":1,"lat":36.1257,"lng":-111.23689,"type":"point"},{"name":"Ariz.","count":1,"lat":40.2535,"lng":28.22813,"type":"point"},{"name":"The Havasupai Tribe","count":1,"lat":34.55524,"lng":-112.27152,"type":"point"},{"name":"Washington","count":1,"lat":38.89037,"lng":-77.03196,"type":"point"},{"name":"Great Plains","count":1,"lat":50.44726,"lng":-104.39528,"type":"point"},{"name":"Arizona","count":2,"lat":33.44825,"lng":-112.0758,"type":"point"},{"name":"U.S.","count":1,"lat":38.89037,"lng":-77.03196,"type":"country"},{"name":"Seattle","count":2,"lat":47.60357,"lng":-122.32945,"type":"point"},{"name":"South Dakota","count":1,"lat":44.36905,"lng":-100.35,"type":"point"},{"name":"New Mexico","count":1,"lat":35.69177,"lng":-105.93824,"type":"point"},{"name":"Utah","count":1,"lat":40.76031,"lng":-111.88822,"type":"point"},{"name":"Diné","count":1,"lat":59.2349,"lng":17.97859,"type":"point"},{"name":"Navajo","count":1,"lat":35.90181,"lng":-109.03041,"type":"point"},{"name":"Warm Springs","count":1,"lat":32.89048,"lng":-84.67992,"type":"point"},{"name":"Lee","count":1,"lat":-12.01032,"lng":-77.08539,"type":"point"},{"name":"Los Angeles","count":1,"lat":34.05357,"lng":-118.24545,"type":"point"}],"source":"Los Angeles Times"},{"feed_name":"World","feed_url":"https://www.theguardian.com/world/rss","title":"'It's as if we've learned nothing': alarm over Amazon road project","summary":"<p>Memories of Brazil’s dictatorship as plan threatens biodiverse home of three indigenous communities</p><p>Brazilian activists have voiced alarm over their government’s plans to bulldoze a 94-mile highway through a biodiverse corner of the Amazon along the border with Peru that is home to at least three indigenous communities.</p><p>The planned road is an extension of <a href=\"https://www.latimes.com/archives/la-xpm-1989-06-05-mn-1309-story.html\">the BR-364</a>, a 2,700-mile highway that links São Paulo with the Amazon state of Acre, and would connect the town of Cruzeiro do Sul with the Peruvian border town of Pucallpa.</p> <a href=\"https://www.theguardian.com/environment/2020/dec/26/alarm-over-amazon-road-project-brazil-bolsonaro-biodoverse-indigenous-communities\">Continue reading...</a>","link":"https://www.theguardian.com/environment/2020/dec/26/alarm-over-amazon-road-project-brazil-bolsonaro-biodoverse-indigenous-communities","published":"Sat, 26 Dec 2020 06:00:07 GMT","geolocations":[{"name":"Peru","count":4,"lat":-12.05613,"lng":-77.02679,"type":"country"},{"name":"São Paulo","count":1,"lat":-23.56287,"lng":-46.65468,"type":"point"},{"name":"Acre","count":1,"lat":32.92343,"lng":35.08587,"type":"point"},{"name":"Cruzeiro","count":1,"lat":-15.78927,"lng":-47.93256,"type":"point"},{"name":"Pucallpa","count":1,"lat":-8.38973,"lng":-74.57088,"type":"point"},{"name":"Brazil","count":7,"lat":-15.77829,"lng":-47.92909,"type":"country"},{"name":"Pacific","count":2,"lat":38.48359,"lng":-90.74141,"type":"point"},{"name":"China","count":1,"lat":39.90657,"lng":116.38765,"type":"country"},{"name":"Serra","count":1,"lat":-20.18503,"lng":-40.24066,"type":"point"},{"name":"Campo Novo","count":1,"lat":-27.67712,"lng":-53.80719,"type":"point"},{"name":"The Amazon Basin","count":1,"lat":28.16172,"lng":-82.42391,"type":"point"},{"name":"Germany","count":1,"lat":52.51604,"lng":13.37691,"type":"country"},{"name":"Bolsonaro","count":1,"lat":-22.26763,"lng":-50.54285,"type":"point"},{"name":"Manaus","count":1,"lat":-3.10847,"lng":-60.05228,"type":"point"},{"name":"Porto Velho","count":1,"lat":-8.76167,"lng":-63.90199,"type":"point"}],"source":"The Guardian"},{"feed_name":"World","feed_url":"https://www.latimes.com/world/rss2.0.xml","title":"Decades later, Congress restores Medicaid for Marshallese and other Pacific Islanders","summary":"<p>Nearly 25 years ago, Congress went back on its promise to give the Marshallese medical coverage. This weekend, lawmakers voted to reinstate it.</p>","link":"https://www.latimes.com/world-nation/story/2020-12-21/congress-approves-medicaid-for-marshallese","published":"Mon, 21 Dec 2020 16:30:31 -0500","geolocations":[{"name":"The United States","count":7,"lat":38.89037,"lng":-77.03196,"type":"country"},{"name":"Marshall Islands","count":1,"lat":7.10941,"lng":171.37138,"type":"country"},{"name":"Pacific Island","count":2,"lat":34.12861,"lng":-117.25738,"type":"point"},{"name":"Northwest Center","count":1,"lat":35.19898,"lng":-78.06416,"type":"point"},{"name":"Marshallese","count":4,"lat":42.41121,"lng":-77.34561,"type":"point"},{"name":"Washington","count":2,"lat":38.89037,"lng":-77.03196,"type":"point"},{"name":"Arkansas","count":2,"lat":34.7487,"lng":-92.27485,"type":"point"},{"name":"U.S.","count":6,"lat":38.89037,"lng":-77.03196,"type":"country"},{"name":"Palau","count":1,"lat":7.50137,"lng":134.62193,"type":"country"},{"name":"The Federated States Of Micronesia","count":1,"lat":6.91773,"lng":158.15775,"type":"country"},{"name":"Hawaii","count":2,"lat":21.30493,"lng":-157.85788,"type":"point"},{"name":"Medicaid","count":1,"lat":48.43291,"lng":-3.14127,"type":"point"},{"name":"Oregon","count":1,"lat":44.93326,"lng":-123.04381,"type":"point"},{"name":"The Marshall Islands","count":1,"lat":7.10941,"lng":171.37138,"type":"country"},{"name":"Kwajalein","count":1,"lat":38.72518,"lng":-104.7953,"type":"point"},{"name":"California","count":1,"lat":38.57944,"lng":-121.49085,"type":"point"}],"source":"Los Angeles Times"},{"feed_name":"World","feed_url":"https://www.theguardian.com/world/rss","title":"The best songs of 2020 ... that you didn't hear","summary":"<p>In an unusual year that’s kept us most of us away from live music venues, Guardian writers pick the songs that deserve to have made more impact</p> <a href=\"https://www.theguardian.com/music/2020/dec/26/best-songs-of-2020-that-you-didnt-hear\">Continue reading...</a>","link":"https://www.theguardian.com/music/2020/dec/26/best-songs-of-2020-that-you-didnt-hear","published":"Sat, 26 Dec 2020 07:16:09 GMT","geolocations":[{"name":"La","count":1,"lat":17.9518,"lng":102.61892,"type":"country"},{"name":"Ukg","count":1,"lat":50.45056,"lng":30.52428,"type":"country"},{"name":"Parx","count":1,"lat":23.59885,"lng":86.47098,"type":"point"},{"name":"Us","count":1,"lat":38.89037,"lng":-77.03196,"type":"country"},{"name":"Montreal","count":1,"lat":45.5124,"lng":-73.55469,"type":"point"},{"name":"Kraut-Rock","count":1,"lat":42.6281,"lng":-89.09022,"type":"point"},{"name":"Los Angeles","count":1,"lat":34.05357,"lng":-118.24545,"type":"point"},{"name":"Baja","count":1,"lat":46.1772,"lng":18.95194,"type":"point"},{"name":"California","count":1,"lat":38.57944,"lng":-121.49085,"type":"point"},{"name":"Ecuador","count":1,"lat":-0.20565,"lng":-78.50888,"type":"country"},{"name":"Nairobi","count":1,"lat":-1.28352,"lng":36.82379,"type":"point"},{"name":"Kenya","count":1,"lat":-1.28352,"lng":36.82379,"type":"country"}],"source":"The Guardian"},{"feed_name":"World","feed_url":"https://rss.nytimes.com/services/xml/rss/nyt/World.xml","title":"She Chronicled China’s Crisis. Now She Is Accused of Spreading Lies","summary":"Zhang Zhan, who reported about the coronavirus from Wuhan during the lockdown, will face trial next week, in the first known case against a citizen journalist from the crisis.","link":"https://www.nytimes.com/2020/12/25/world/asia/china-coronavirus-citizen-journalist.html","published":"Sat, 26 Dec 2020 02:33:15 +0000","geolocations":[{"name":"Wuhan","count":1,"lat":30.64353,"lng":114.32472,"type":"point"},{"name":"China","count":1,"lat":39.90657,"lng":116.38765,"type":"country"}],"source":"The New York Times"},{"feed_name":"World","feed_url":"https://www.aljazeera.com/xml/rss/all.xml","title":"Two Afghan police killed as Kabul hit by bomb blasts","summary":"In recent months, Afghanistan has been rocked by bombings, rocket attacks and targeted killings.","link":"https://www.aljazeera.com/news/2020/12/26/two-afghan-police-killed-as-kabul-hit-by-bomb-blasts","published":"Sat, 26 Dec 2020 07:30:59 +0000","geolocations":[{"name":"Afghanistan","count":4,"lat":34.53313,"lng":69.10223,"type":"country"},{"name":"Kabul","count":7,"lat":34.53313,"lng":69.10223,"type":"point"},{"name":"Qatar","count":1,"lat":25.29424,"lng":51.51967,"type":"country"},{"name":"Us","count":2,"lat":38.89037,"lng":-77.03196,"type":"country"}],"source":"Aljazeera"},{"feed_name":"World - Europe","feed_url":"http://feeds.bbci.co.uk/news/world/rss.xml","title":"Georgia climbers who risk their lives for Christmas trees","summary":"In the Republic of Georgia, workers harvest the seeds of Nordmann firs for export to Europe.","link":"https://www.bbc.co.uk/news/world-europe-55398420","published":"Fri, 25 Dec 2020 00:13:51 GMT","geolocations":[{"name":"The Caucasus Mountains","count":1,"lat":-29.58744,"lng":30.40498,"type":"point"},{"name":"The Republic Of Georgia","count":1,"lat":-4.27934,"lng":15.26039,"type":"country"},{"name":"Europe","count":1,"lat":-33.98201,"lng":18.58413,"type":"point"}],"source":"BBC"},{"feed_name":"World","feed_url":"https://www.theguardian.com/world/rss","title":"'Darkest days ahead': Joe Biden gives sobering message on Covid – video","summary":"<p>Biden said the US would have dark days ahead in tackling the coronavirus pandemic and things would get worse before they improved.</p><p>Monday saw the Covid-19 cases pass 18 million in the US according to&nbsp;<a href=\"https://www.theguardian.com/world/ng-interactive/2020/sep/21/coronavirus-covid-19-map-us-cases-deaths-state-by-state\">data</a>&nbsp;from&nbsp;Johns Hopkins University, and Biden said the vaccine rollout would not change trends quickly</p><ul><li><a href=\"https://www.theguardian.com/world/live/2020/dec/22/coronavirus-live-news-biden-receives-vaccine-as-global-death-toll-passes-17m?page=with:block-5fe24fe48f08da4121f4bb18#block-5fe24fe48f08da4121f4bb18\">Coronavirus: latest updates</a></li></ul> <a href=\"https://www.theguardian.com/us-news/video/2020/dec/22/darkest-days-ahead-joe-biden-gives-sobering-message-on-covid-video\">Continue reading...</a>","link":"https://www.theguardian.com/us-news/video/2020/dec/22/darkest-days-ahead-joe-biden-gives-sobering-message-on-covid-video","published":"Tue, 22 Dec 2020 20:58:15 GMT","geolocations":[{"name":"Us","count":2,"lat":38.89037,"lng":-77.03196,"type":"country"}],"source":"The Guardian"},{"feed_name":"World","feed_url":"https://www.aljazeera.com/xml/rss/all.xml","title":"Camper van explodes in Nashville, possible human remains found","summary":"Police say three people were hurt in the &#039;intentional&#039; blast early on Christmas morning.","link":"https://www.aljazeera.com/news/2020/12/25/explosion-in-nashville-may-have-been-intentional-act-police","published":"Fri, 25 Dec 2020 16:20:44 +0000","geolocations":[{"name":"Us","count":4,"lat":38.89037,"lng":-77.03196,"type":"country"},{"name":"Nashville","count":11,"lat":36.16784,"lng":-86.77816,"type":"point"},{"name":"Tennessee","count":3,"lat":36.16784,"lng":-86.77816,"type":"point"},{"name":"2Nd Ave North","count":1,"lat":52.13455,"lng":-106.66104,"type":"point"},{"name":"Rv","count":1,"lat":-30.90501,"lng":-55.54352,"type":"point"},{"name":"New York","count":1,"lat":40.71455,"lng":-74.00714,"type":"point"}],"source":"Aljazeera"},{"feed_name":"World","feed_url":"https://rss.nytimes.com/services/xml/rss/nyt/World.xml","title":"U.K. Tightens Restrictions as Alarm About Coronavirus Variant Grows","summary":"British officials said severely curtailing human contact was the only way to protect people. Efforts to restart trade stalled, with more than 5,000 trucks stuck at English ports.","link":"https://www.nytimes.com/2020/12/23/world/europe/coronavirus-variant-uk-ports.html","published":"Thu, 24 Dec 2020 16:08:02 +0000","geolocations":[{"name":"England","count":4,"lat":51.50643,"lng":-0.12719,"type":"country"},{"name":"Cambridgeshire","count":1,"lat":52.38033,"lng":-0.06823,"type":"point"},{"name":"Norfolk","count":1,"lat":42.87221,"lng":-80.31663,"type":"point"},{"name":"Oxfordshire","count":1,"lat":51.81809,"lng":-1.28991,"type":"point"},{"name":"Suffolk","count":1,"lat":36.73115,"lng":-76.58895,"type":"point"},{"name":"Sussex","count":1,"lat":45.72357,"lng":-65.51184,"type":"point"},{"name":"London","count":1,"lat":51.50643,"lng":-0.12719,"type":"point"},{"name":"South Africa","count":4,"lat":-25.74587,"lng":28.18764,"type":"country"},{"name":"United Kingdom","count":2,"lat":38.95953,"lng":-91.92768,"type":"point"}],"source":"The New York Times"},{"feed_name":"World","feed_url":"https://www.theguardian.com/world/rss","title":"Boeing 737-8 Max: Air Canada jet shuts down an engine and diverts after mechanical issue","summary":"<p>Emergency signal sent from Montreal-bound plane carrying three crew before the plane was rerouted to Arizona</p><p>An Air Canada Boeing Co 737-8 Max en route between Arizona and Montreal with three crew members onboard suffered an engine issue that forced the crew to divert the aircraft to Tucson, Arizona, the airline says.</p><p>Shortly after the take-off, the pilots received an “engine indication” and “decided to shut down one engine”, an Air Canada spokesman said on Friday.</p> <a href=\"https://www.theguardian.com/us-news/2020/dec/26/boeing-737-max-air-canada-jet-shuts-down-an-engine-and-diverts-after-mechanical-issue\">Continue reading...</a>","link":"https://www.theguardian.com/us-news/2020/dec/26/boeing-737-max-air-canada-jet-shuts-down-an-engine-and-diverts-after-mechanical-issue","published":"Sat, 26 Dec 2020 04:20:17 GMT","geolocations":[{"name":"Arizona","count":2,"lat":33.44825,"lng":-112.0758,"type":"point"},{"name":"Montreal","count":1,"lat":45.5124,"lng":-73.55469,"type":"point"},{"name":"Tucson","count":2,"lat":32.22177,"lng":-110.96977,"type":"point"},{"name":"The United States","count":1,"lat":38.89037,"lng":-77.03196,"type":"country"},{"name":"Jakarta","count":1,"lat":-6.17148,"lng":106.82649,"type":"point"},{"name":"Addis Ababa","count":1,"lat":9.01358,"lng":38.76286,"type":"point"},{"name":"Nairobi","count":1,"lat":-1.28352,"lng":36.82379,"type":"point"},{"name":"Us","count":1,"lat":38.89037,"lng":-77.03196,"type":"country"}],"source":"The Guardian"},{"feed_name":"World","feed_url":"https://www.theguardian.com/world/rss","title":"Millions wake up to tougher restrictions as UK Covid deaths pass 70,000","summary":"<p>Six million more people in England enter tier-4 restrictions as new measures come into force in Scotland, Northern Ireland and Wales </p><ul><li><a href=\"https://www.theguardian.com/world/coronavirus-outbreak\">See all our coronavirus coverage</a></li></ul><p>Millions more people will be waking to harsher coronavirus restrictions on Boxing Day when <a href=\"https://www.theguardian.com/uk-news/2020/dec/24/covid-tier-4-rules-in-england-latest-restrictions-explained\">new tier changes come into force in England.</a></p><p>New lockdowns are set to be introduced in Scotland and Northern Ireland, while restrictions that were eased for Christmas Day in Wales will be reimposed on Saturday.</p> <a href=\"https://www.theguardian.com/world/2020/dec/26/millions-wake-up-to-tougher-restrictions-as-uk-covid-deaths-pass-70000\">Continue reading...</a>","link":"https://www.theguardian.com/world/2020/dec/26/millions-wake-up-to-tougher-restrictions-as-uk-covid-deaths-pass-70000","published":"Sat, 26 Dec 2020 05:15:40 GMT","geolocations":[{"name":"England","count":2,"lat":51.50643,"lng":-0.12719,"type":"country"},{"name":"Scotland","count":2,"lat":55.95438,"lng":-3.20144,"type":"country"},{"name":"Northern Ireland","count":2,"lat":54.59534,"lng":-5.93455,"type":"country"},{"name":"Wales","count":1,"lat":51.48127,"lng":-3.18072,"type":"country"},{"name":"Sussex","count":1,"lat":45.72357,"lng":-65.51184,"type":"point"},{"name":"Oxfordshire","count":1,"lat":51.81809,"lng":-1.28991,"type":"point"},{"name":"Suffolk","count":1,"lat":36.73115,"lng":-76.58895,"type":"point"},{"name":"Norfolk","count":1,"lat":42.87221,"lng":-80.31663,"type":"point"},{"name":"Cambridgeshire","count":1,"lat":52.38033,"lng":-0.06823,"type":"point"},{"name":"Essex","count":1,"lat":42.17282,"lng":-82.81968,"type":"point"},{"name":"Waverley","count":1,"lat":-26.13717,"lng":28.07654,"type":"point"},{"name":"Surrey","count":1,"lat":49.19165,"lng":-122.84964,"type":"point"},{"name":"Hampshire","count":1,"lat":42.09762,"lng":-88.53014,"type":"point"},{"name":"Bristol","count":1,"lat":51.45379,"lng":-2.59168,"type":"point"},{"name":"Gloucestershire","count":1,"lat":51.8481,"lng":-2.1359,"type":"point"},{"name":"Somerset","count":1,"lat":40.49862,"lng":-74.52246,"type":"point"},{"name":"North Somerset","count":1,"lat":51.23329,"lng":-2.31826,"type":"point"},{"name":"Swindon","count":1,"lat":51.56176,"lng":-1.78181,"type":"point"},{"name":"The Isle Of Wight","count":1,"lat":50.68045,"lng":-1.33632,"type":"point"},{"name":"New Forest","count":1,"lat":-24.74642,"lng":31.12957,"type":"point"},{"name":"Northamptonshire","count":1,"lat":52.27924,"lng":-0.87237,"type":"point"},{"name":"Cheshire","count":1,"lat":41.51169,"lng":-72.89911,"type":"point"},{"name":"Warrington","count":1,"lat":53.39387,"lng":-2.58935,"type":"point"},{"name":"Cornwall","count":1,"lat":45.02842,"lng":-74.73569,"type":"point"},{"name":"Herefordshire","count":1,"lat":52.08313,"lng":-2.8092,"type":"point"}],"source":"The Guardian"},{"feed_name":"World","feed_url":"https://www.theguardian.com/world/rss","title":"Ex-England cricketer and commentator Robin Jackman dies aged 75","summary":"<ul><li>Former seamer played four Tests and 15 ODIs</li><li><a href=\"https://www.theguardian.com/sport/2020/dec/25/john-edrich-obituary\">Follows death of old Surrey teammate Edrich</a></li></ul><p>Former England and Surrey bowler Robin Jackman has died at the age of 75.</p><p>Jackman played in four Tests and 15 one-day internationals for his country, while he took 1,402 wickets in a 399-game first-class career between 1966 and 1982.</p> <a href=\"https://www.theguardian.com/sport/2020/dec/26/ex-england-cricketer-and-commentator-robin-jackman-dies-aged-75\">Continue reading...</a>","link":"https://www.theguardian.com/sport/2020/dec/26/ex-england-cricketer-and-commentator-robin-jackman-dies-aged-75","published":"Sat, 26 Dec 2020 00:42:10 GMT","geolocations":[{"name":"England","count":4,"lat":51.50643,"lng":-0.12719,"type":"country"},{"name":"Surrey","count":4,"lat":49.19165,"lng":-122.84964,"type":"point"},{"name":"South Africa","count":4,"lat":-25.74587,"lng":28.18764,"type":"country"},{"name":"Icc","count":1,"lat":39.13646,"lng":-77.14311,"type":"point"},{"name":"New Zealand","count":1,"lat":-41.28949,"lng":174.77694,"type":"country"},{"name":"India","count":1,"lat":28.63095,"lng":77.21721,"type":"country"},{"name":"West","count":1,"lat":-14.3239,"lng":-170.76852,"type":"point"},{"name":"Bridgetown","count":1,"lat":13.112,"lng":-59.61269,"type":"point"},{"name":"England Test","count":1,"lat":51.50643,"lng":-0.12719,"type":"country"},{"name":"Pakistan","count":1,"lat":33.70964,"lng":73.07545,"type":"point"},{"name":"Headingley","count":1,"lat":49.87464,"lng":-97.40473,"type":"point"}],"source":"The Guardian"},{"feed_name":"World","feed_url":"https://www.latimes.com/world/rss2.0.xml","title":"In the year of the coronavirus, families across the U.S. reflect on the bright spots","summary":"<p>Families are using end-of-year newsletters as a form of retrospection, showing gratitude for the things they may have taken for granted in the past.</p>","link":"https://www.latimes.com/world-nation/story/2020-12-24/in-the-year-of-the-coronavirus-families-across-the-u-s-reflect-on-the-bright-spots","published":"Thu, 24 Dec 2020 16:11:23 -0500","geolocations":[{"name":"Portland","count":1,"lat":45.51179,"lng":-122.67563,"type":"point"},{"name":"Ore.","count":1,"lat":6.76139,"lng":4.8762,"type":"point"},{"name":"The United States","count":2,"lat":38.89037,"lng":-77.03196,"type":"country"},{"name":"Phoneix","count":1,"lat":53.36776,"lng":-6.32594,"type":"point"},{"name":"Cambridge","count":1,"lat":52.20992,"lng":0.11161,"type":"point"},{"name":"Mass.","count":1,"lat":46.76209,"lng":-89.07818,"type":"point"},{"name":"Honduras","count":1,"lat":14.08192,"lng":-87.20547,"type":"country"},{"name":"Rockbridge County","count":1,"lat":39.27647,"lng":-90.23197,"type":"point"},{"name":"Va.","count":1,"lat":41.9024,"lng":12.45843,"type":"country"},{"name":"Washington","count":1,"lat":38.89037,"lng":-77.03196,"type":"point"},{"name":"Rogers","count":1,"lat":36.33349,"lng":-94.12494,"type":"point"},{"name":"Chicago","count":1,"lat":41.88425,"lng":-87.63245,"type":"point"},{"name":"San Luis","count":1,"lat":-33.3022,"lng":-66.33759,"type":"point"}],"source":"Los Angeles Times"},{"feed_name":"World","feed_url":"https://rss.nytimes.com/services/xml/rss/nyt/World.xml","title":"Isolation appears to have helped homeless populations avoid the worst of the pandemic.","summary":"","link":"https://www.nytimes.com/2020/12/23/world/isolation-appears-to-have-helped-homeless-populations-avoid-the-worst-of-the-pandemic.html","published":"Wed, 23 Dec 2020 11:25:45 +0000","geolocations":[{"name":"America","count":1,"lat":51.43739,"lng":5.98176,"type":"point"},{"name":"San Diego","count":1,"lat":32.71568,"lng":-117.16171,"type":"point"}],"source":"The New York Times"},{"feed_name":"World","feed_url":"https://www.theguardian.com/world/rss","title":"Keir Starmer faces Labour frontbench revolt over Brexit deal","summary":"<p>Shadow ministers poised to resign and defy three-line whip when MPs vote on trade deal on Wednesday<br /></p><p>Keir Starmer is facing a revolt from Labour frontbenchers over his decision <a href=\"https://www.theguardian.com/politics/2020/dec/24/keir-starmer-to-whip-his-mps-to-support-thin-brexit-deal\">to back the government’s Brexit trade deal</a>.</p><p> <span>Related: </span><a href=\"https://www.theguardian.com/commentisfree/2020/dec/24/at-long-last-we-have-a-brexit-deal-and-its-as-bad-as-you-thought\">At long last we have a Brexit deal – and it's as bad as you thought | Tom Kibasi</a> </p> <a href=\"https://www.theguardian.com/politics/2020/dec/25/keir-starmer-faces-labour-frontbench-revolt-brexit-deal\">Continue reading...</a>","link":"https://www.theguardian.com/politics/2020/dec/25/keir-starmer-faces-labour-frontbench-revolt-brexit-deal","published":"Fri, 25 Dec 2020 18:51:33 GMT","geolocations":[{"name":"London","count":1,"lat":51.50643,"lng":-0.12719,"type":"point"}],"source":"The Guardian"},{"feed_name":"World","feed_url":"https://www.theguardian.com/world/rss","title":"'I feel betrayed': Britons celebrate a very different Christmas","summary":"<p>How Britons celebrated during the pandemic while unable to meet loved ones</p><ul><li><a href=\"https://www.theguardian.com/world/coronavirus-outbreak\">See all our coronavirus coverage</a></li></ul><p>Britons across the country celebrated a very different Christmas on Friday, with many unable to gather with loved ones or take part in some of their festive traditions.</p><p>Dozens of residents at a Leeds care home were able to embrace friends and family members on Christmas Day after a rapid results trial allowed for visitors.</p> <a href=\"https://www.theguardian.com/world/2020/dec/25/i-feel-betrayed-britons-celebrate-a-very-different-christmas\">Continue reading...</a>","link":"https://www.theguardian.com/world/2020/dec/25/i-feel-betrayed-britons-celebrate-a-very-different-christmas","published":"Fri, 25 Dec 2020 15:05:53 GMT","geolocations":[{"name":"Leeds","count":3,"lat":53.7948,"lng":-1.54655,"type":"point"},{"name":"Aspen Hill Village","count":2,"lat":41.92954,"lng":-73.31164,"type":"point"},{"name":"Hunslet","count":2,"lat":53.78226,"lng":-1.5285,"type":"point"},{"name":"Turkey","count":3,"lat":39.92109,"lng":32.85391,"type":"country"},{"name":"Surrey","count":1,"lat":49.19165,"lng":-122.84964,"type":"point"},{"name":"Powys","count":1,"lat":52.30173,"lng":-3.46879,"type":"point"},{"name":"Wales","count":2,"lat":51.48127,"lng":-3.18072,"type":"country"},{"name":"Glasgow","count":1,"lat":55.85783,"lng":-4.24251,"type":"point"},{"name":"Hay","count":1,"lat":52.08409,"lng":4.31732,"type":"point"},{"name":"Scotland","count":3,"lat":55.95438,"lng":-3.20144,"type":"country"},{"name":"London","count":2,"lat":51.50643,"lng":-0.12719,"type":"point"},{"name":"Battersea","count":2,"lat":51.4676,"lng":-0.1629,"type":"point"},{"name":"Dunbar","count":1,"lat":56.00191,"lng":-2.51581,"type":"point"}],"source":"The Guardian"},{"feed_name":"World","feed_url":"https://www.latimes.com/world/rss2.0.xml","title":"As vaccine rollout nears, many concerns raised in Latin America, hard hit by COVID-19","summary":"<p>Mexico and Chile are among the Latin American nations planning to roll out COVID-19 vaccines this month. But concerns are mounting about availability. </p>","link":"https://www.latimes.com/world-nation/story/2020-12-20/vaccine-rollout-mexico-chile-latin-america-covid-19","published":"Sun, 20 Dec 2020 15:00:15 -0500","geolocations":[{"name":"Latin America","count":3,"lat":41.62788,"lng":13.34278,"type":"point"},{"name":"Caribbean","count":1,"lat":30.47333,"lng":-86.42132,"type":"point"},{"name":"Mexico","count":10,"lat":23.94757,"lng":-102.5411,"type":"country"},{"name":"Chile","count":2,"lat":-33.43722,"lng":-70.65002,"type":"country"},{"name":"The United States","count":3,"lat":38.89037,"lng":-77.03196,"type":"country"},{"name":"United Kingdom","count":1,"lat":38.95953,"lng":-91.92768,"type":"point"},{"name":"Europe","count":1,"lat":-33.98201,"lng":18.58413,"type":"point"},{"name":"Asia","count":1,"lat":-12.76551,"lng":-76.61171,"type":"point"},{"name":"Mexico City’S","count":2,"lat":25.91513,"lng":-112.06282,"type":"country"},{"name":"Iztapalapa","count":1,"lat":19.35921,"lng":-99.09133,"type":"point"},{"name":"Mexico City","count":9,"lat":19.27691,"lng":-99.13939,"type":"point"},{"name":"Washington","count":1,"lat":38.89037,"lng":-77.03196,"type":"point"},{"name":"Paris","count":1,"lat":48.85717,"lng":2.3414,"type":"point"},{"name":"Zocalo","count":1,"lat":52.4842,"lng":4.76125,"type":"point"},{"name":"Central Square","count":1,"lat":43.28554,"lng":-76.14581,"type":"point"},{"name":"Brazil","count":4,"lat":-15.77829,"lng":-47.92909,"type":"country"},{"name":"Bolivia","count":1,"lat":-16.49908,"lng":-68.13378,"type":"country"},{"name":"El Salvador","count":1,"lat":13.69967,"lng":-89.2068,"type":"country"},{"name":"Honduras","count":2,"lat":14.08192,"lng":-87.20547,"type":"country"},{"name":"Nicaragua","count":1,"lat":12.1172,"lng":-86.24081,"type":"country"},{"name":"Argentina","count":1,"lat":-34.60849,"lng":-58.37344,"type":"country"},{"name":"Russia","count":1,"lat":55.75696,"lng":37.61502,"type":"country"},{"name":"Sputnik","count":1,"lat":53.26467,"lng":50.41254,"type":"point"},{"name":"Ixtapalapa","count":1,"lat":21.4287,"lng":-104.86007,"type":"point"},{"name":"The Ixtapalapa District","count":1,"lat":19.35921,"lng":-99.09133,"type":"point"},{"name":"Chalco","count":1,"lat":19.26142,"lng":-98.89096,"type":"point"},{"name":"Rubí","count":1,"lat":41.49248,"lng":2.02951,"type":"point"},{"name":"Oaxaca","count":1,"lat":17.06173,"lng":-96.7261,"type":"point"},{"name":"Tegucigalpa","count":1,"lat":14.08192,"lng":-87.20547,"type":"point"},{"name":"Aires","count":1,"lat":43.58301,"lng":3.10586,"type":"point"}],"source":"Los Angeles Times"},{"feed_name":"World - Europe","feed_url":"http://feeds.bbci.co.uk/news/world/rss.xml","title":"Alexei Navalny ally Lyubov Sobol 'held after raid'","summary":"Lyubov Sobol had earlier turned up at the home of an agent Alexei Navalny says helped poison him.","link":"https://www.bbc.co.uk/news/world-europe-55445780","published":"Fri, 25 Dec 2020 10:24:14 GMT","geolocations":[{"name":"Russia","count":1,"lat":55.75696,"lng":37.61502,"type":"country"}],"source":"BBC"},{"feed_name":"World","feed_url":"https://www.theguardian.com/world/rss","title":"Dr Fauci feels 'extreme confidence' in Covid vaccine as he gets jab – video","summary":"<p>Dr Anthony Fauci was injected with his first dose of the Moderna Covid-19 vaccine and he said he hoped it would encourage millions of other Americans to do the same.</p><p>The top US infectious diseases expert said he felt 'extreme confidence of the safety and efficacy of this vaccine'</p><ul><li><a href=\"https://www.theguardian.com/world/live/2020/dec/22/coronavirus-live-news-biden-receives-vaccine-as-global-death-toll-passes-17m\">Coronavirus – live coverage&nbsp;</a></li><li><a href=\"https://www.theguardian.com/us-news/2020/dec/21/joe-biden-coronavirus-vaccine-covid-public\">Biden receives vaccine live on TV</a></li></ul> <a href=\"https://www.theguardian.com/world/video/2020/dec/22/dr-fauci-feels-extreme-confidence-in-covid-vaccine-as-he-gets-jab-video\">Continue reading...</a>","link":"https://www.theguardian.com/world/video/2020/dec/22/dr-fauci-feels-extreme-confidence-in-covid-vaccine-as-he-gets-jab-video","published":"Tue, 22 Dec 2020 17:05:25 GMT","geolocations":[{"name":"Us","count":1,"lat":38.89037,"lng":-77.03196,"type":"country"}],"source":"The Guardian"},{"feed_name":"World","feed_url":"https://www.theguardian.com/world/rss","title":"Covid rules out Boxing Day hunts and parades amid uncertain future","summary":"<p>Cancellations across large swaths of UK add to controversy over hunting governing body’s webinars<br /></p><p>Traditional Boxing Day hunts across large parts of the UK <a href=\"https://www.countryside-alliance.org/news/2020/12/guidance-on-tiered-restrictions-for-hunting-21st\">have been cancelled</a> due to coronavirus restrictions, with those going ahead elsewhere not parading through town centres prior to their yuletide meet this year for the first time in recent history.</p><p>The centuries-old activity faces an uncertain future after a number of landowners suspended hunting with hounds on their property amid controversy over private video seminars held this summer by hunting’s executive body, which were infiltrated by activist group the Hunt Saboteurs who claimed they discussed how to create a “smokescreen” for illegal hunting.</p> <a href=\"https://www.theguardian.com/uk-news/2020/dec/26/covid-rules-out-boxing-day-hunts-and-parades-amid-uncertain-future\">Continue reading...</a>","link":"https://www.theguardian.com/uk-news/2020/dec/26/covid-rules-out-boxing-day-hunts-and-parades-amid-uncertain-future","published":"Sat, 26 Dec 2020 07:00:09 GMT","geolocations":[{"name":"Lake District","count":1,"lat":53.64046,"lng":-113.45621,"type":"point"},{"name":"Peterborough","count":1,"lat":52.57346,"lng":-0.2481,"type":"point"},{"name":"Nottingham","count":1,"lat":52.94798,"lng":-1.15156,"type":"point"},{"name":"Cheshire West","count":1,"lat":53.10237,"lng":-2.45855,"type":"point"},{"name":"Chester","count":1,"lat":53.18813,"lng":-2.89435,"type":"point"},{"name":"Wiltshire","count":1,"lat":-40.83543,"lng":145.27792,"type":"point"},{"name":"Berkshire","count":1,"lat":42.30405,"lng":-76.18676,"type":"point"},{"name":"Hampshire","count":1,"lat":42.09762,"lng":-88.53014,"type":"point"},{"name":"Cornwall","count":1,"lat":45.02842,"lng":-74.73569,"type":"point"},{"name":"England","count":3,"lat":51.50643,"lng":-0.12719,"type":"country"},{"name":"Scotland","count":1,"lat":55.95438,"lng":-3.20144,"type":"country"},{"name":"Wales","count":1,"lat":51.48127,"lng":-3.18072,"type":"country"},{"name":"Essex","count":1,"lat":42.17282,"lng":-82.81968,"type":"point"}],"source":"The Guardian"},{"feed_name":"World","feed_url":"https://rss.nytimes.com/services/xml/rss/nyt/World.xml","title":"Trump Warns Iran of Retaliation After Attacks on U.S. Embassy in Baghdad","summary":"The administration and military officials blame Tehran for recent rocket attacks in Iraq, adding to the growing tensions between the United States and Iran.","link":"https://www.nytimes.com/2020/12/23/us/politics/trump-iran.html","published":"Thu, 24 Dec 2020 02:05:24 +0000","geolocations":[{"name":"Iran","count":6,"lat":35.68877,"lng":51.41503,"type":"country"},{"name":"Tehran","count":1,"lat":35.68877,"lng":51.41503,"type":"point"},{"name":"Iraq","count":2,"lat":33.3421,"lng":44.39307,"type":"country"},{"name":"The United States","count":2,"lat":38.89037,"lng":-77.03196,"type":"country"}],"source":"The New York Times"},{"feed_name":"World","feed_url":"https://www.aljazeera.com/xml/rss/all.xml","title":"Netanyahu speaks with Morocco’s king, invites him to Israel","summary":"While welcoming the renewal of ties, King Mohammed VI said his country&#039;s position on Palestine remains unchanged.","link":"https://www.aljazeera.com/news/2020/12/25/netanyahu-speaks-with-moroccos-king-invites-him-to-israel","published":"Fri, 25 Dec 2020 20:58:19 +0000","geolocations":[{"name":"Palestine","count":3,"lat":31.7617,"lng":-95.632,"type":"point"},{"name":"Israel","count":9,"lat":31.78003,"lng":35.21873,"type":"country"},{"name":"Morocco","count":8,"lat":34.01791,"lng":-6.83612,"type":"country"},{"name":"United States","count":1,"lat":38.89037,"lng":-77.03196,"type":"country"},{"name":"Us","count":3,"lat":38.89037,"lng":-77.03196,"type":"country"},{"name":"North Africa’S","count":1,"lat":-33.8894,"lng":18.58485,"type":"point"},{"name":"Rabat","count":2,"lat":34.01791,"lng":-6.83612,"type":"point"},{"name":"Jerusalem","count":1,"lat":31.7801,"lng":35.20882,"type":"point"},{"name":"Tel Aviv","count":1,"lat":32.08556,"lng":34.78953,"type":"point"},{"name":"The United Arab Emirates","count":1,"lat":24.46918,"lng":54.37173,"type":"country"},{"name":"Bahrain","count":1,"lat":26.22952,"lng":50.57604,"type":"country"},{"name":"Sudan","count":1,"lat":15.58651,"lng":32.52318,"type":"point"},{"name":"Iran","count":1,"lat":35.68877,"lng":51.41503,"type":"country"},{"name":"Washington","count":1,"lat":38.89037,"lng":-77.03196,"type":"point"},{"name":"Western Sahara","count":1,"lat":24.6585,"lng":-13.13949,"type":"country"}],"source":"Aljazeera"},{"feed_name":"World","feed_url":"https://www.aljazeera.com/xml/rss/all.xml","title":"Russia opens criminal case against Kremlin critic Navalny’s ally","summary":"Lyubov Sobol is accused of violently trespassing when she tried to doorstep an alleged secret agent in Moscow this week.","link":"https://www.aljazeera.com/news/2020/12/25/russia-opens-criminal-case-against-ally-of-kremlin-critic-navalny","published":"Fri, 25 Dec 2020 16:55:33 +0000","geolocations":[{"name":"Moscow","count":7,"lat":55.75696,"lng":37.61502,"type":"point"},{"name":"Russia","count":5,"lat":55.75696,"lng":37.61502,"type":"country"},{"name":"Novichok","count":1,"lat":48.98116,"lng":24.0199,"type":"point"},{"name":"Tomsk","count":1,"lat":56.49337,"lng":84.94819,"type":"point"},{"name":"Omsk","count":1,"lat":54.99471,"lng":73.36476,"type":"point"},{"name":"Berlin","count":1,"lat":52.51604,"lng":13.37691,"type":"point"},{"name":"Germany","count":1,"lat":52.51604,"lng":13.37691,"type":"country"},{"name":"France","count":1,"lat":48.85717,"lng":2.3414,"type":"country"},{"name":"Sweden","count":1,"lat":59.33257,"lng":18.06683,"type":"country"}],"source":"Aljazeera"},{"feed_name":"World - Europe","feed_url":"http://feeds.bbci.co.uk/news/world/rss.xml","title":"Uganda Lake Albert boat accident leaves many dead","summary":"Strong winds caused the boat to sink on the lake, which has a history of incidents, officials said.","link":"https://www.bbc.co.uk/news/world-africa-55449328","published":"Fri, 25 Dec 2020 22:03:48 GMT","geolocations":[{"name":"The Democratic Republic Congo","count":1,"lat":9.00933,"lng":38.77049,"type":"point"},{"name":"Drc","count":2,"lat":-22.64404,"lng":14.56601,"type":"point"},{"name":"Uganda","count":1,"lat":0.31589,"lng":32.57501,"type":"country"}],"source":"BBC"},{"feed_name":"World","feed_url":"https://www.latimes.com/world/rss2.0.xml","title":"Biden takes stage to get vaccine as Trump hedges on it","summary":"<p>As Biden gets his shot on TV, Trump is largely ceding the spotlight on the rapid vaccine rollout, one of the biggest triumphs of his White House. Why?</p>","link":"https://www.latimes.com/world-nation/story/2020-12-21/biden-receive-covid-19-vaccine","published":"Mon, 21 Dec 2020 04:42:49 -0500","geolocations":[{"name":"U.S.","count":1,"lat":38.89037,"lng":-77.03196,"type":"country"},{"name":"Newark","count":1,"lat":53.07428,"lng":-0.80972,"type":"point"},{"name":"Ky","count":1,"lat":19.29657,"lng":-81.38175,"type":"country"}],"source":"Los Angeles Times"},{"feed_name":"World","feed_url":"https://www.theguardian.com/world/rss","title":"Large 'bomb' blast wrecks buildings in downtown Nashville","summary":"<ul><li>Explosion linked to parked RV occurred after warning call</li><li>Three suffer non-critical injuries as structural damage reported</li><li>Potential human remains also found</li></ul><p>Downtown Nashville was sealed off on Friday, after a large explosion destroyed several buildings on Christmas morning in what local police said was an “intentional act”.</p> <a href=\"https://www.theguardian.com/us-news/2020/dec/25/explosion-nashville-intentional-act-police-say\">Continue reading...</a>","link":"https://www.theguardian.com/us-news/2020/dec/25/explosion-nashville-intentional-act-police-say","published":"Fri, 25 Dec 2020 23:26:55 GMT","geolocations":[{"name":"Nashville","count":9,"lat":36.16784,"lng":-86.77816,"type":"point"},{"name":"Tennessee","count":2,"lat":36.16784,"lng":-86.77816,"type":"point"},{"name":"Rv","count":3,"lat":-30.90501,"lng":-55.54352,"type":"point"},{"name":"Us","count":2,"lat":38.89037,"lng":-77.03196,"type":"country"},{"name":"Florida","count":1,"lat":30.43977,"lng":-84.28065,"type":"point"}],"source":"The Guardian"},{"feed_name":"World","feed_url":"https://www.aljazeera.com/xml/rss/all.xml","title":"Mali opposition leader Soumaila Cisse dies of coronavirus: Family","summary":"Cisse, who was held hostage for six months earlier this year by an armed group, died in France aged 71, his family says.","link":"https://www.aljazeera.com/news/2020/12/25/malis-opposition-leader-soumaila-cisse-dies-of-coronavirus","published":"Fri, 25 Dec 2020 19:30:57 +0000","geolocations":[{"name":"Paris","count":1,"lat":48.85717,"lng":2.3414,"type":"point"},{"name":"Niafunke","count":1,"lat":15.93096,"lng":-3.98694,"type":"point"},{"name":"France","count":2,"lat":48.85717,"lng":2.3414,"type":"country"},{"name":"Senegal","count":1,"lat":14.66927,"lng":-17.43661,"type":"country"},{"name":"Mali","count":1,"lat":12.65039,"lng":-8.00004,"type":"country"}],"source":"Aljazeera"},{"feed_name":"World","feed_url":"https://www.aljazeera.com/xml/rss/all.xml","title":"France, Lebanon confirm first cases of new coronavirus variant","summary":"France and Lebanon report cases of new COVID variant in passengers arriving from the UK.","link":"https://www.aljazeera.com/news/2020/12/26/france-confirms-first-case-of-new-coronavirus-variant","published":"Sat, 26 Dec 2020 01:57:27 +0000","geolocations":[{"name":"France","count":9,"lat":48.85717,"lng":2.3414,"type":"country"},{"name":"Lebanon","count":4,"lat":33.89607,"lng":35.50678,"type":"country"},{"name":"The United Kingdom","count":1,"lat":38.95953,"lng":-91.92768,"type":"point"},{"name":"London","count":3,"lat":51.50643,"lng":-0.12719,"type":"point"},{"name":"Tours","count":1,"lat":47.38846,"lng":0.68957,"type":"point"},{"name":"Rome","count":1,"lat":41.90322,"lng":12.49565,"type":"point"},{"name":"Japan","count":1,"lat":35.68408,"lng":139.80885,"type":"country"},{"name":"Singapore","count":1,"lat":1.29041,"lng":103.85211,"type":"country"},{"name":"Denmark","count":1,"lat":55.67567,"lng":12.56756,"type":"country"},{"name":"Netherlands","count":1,"lat":52.36993,"lng":4.90788,"type":"country"},{"name":"Australia","count":1,"lat":-35.30654,"lng":149.12655,"type":"country"},{"name":"The United States","count":1,"lat":38.89037,"lng":-77.03196,"type":"country"},{"name":"China","count":1,"lat":39.90657,"lng":116.38765,"type":"country"},{"name":"United Kingdom","count":1,"lat":38.95953,"lng":-91.92768,"type":"point"},{"name":"Britons","count":1,"lat":52.92891,"lng":1.22465,"type":"point"},{"name":"Germany","count":1,"lat":52.51604,"lng":13.37691,"type":"country"},{"name":"Italy","count":1,"lat":41.90322,"lng":12.49565,"type":"country"},{"name":"The Netherlands","count":1,"lat":51.305,"lng":-0.14561,"type":"point"},{"name":"Austria","count":1,"lat":48.20263,"lng":16.36842,"type":"country"},{"name":"Ireland","count":1,"lat":53.34807,"lng":-6.24827,"type":"country"},{"name":"Belgium","count":1,"lat":50.84439,"lng":4.35609,"type":"country"},{"name":"Canada","count":1,"lat":45.42178,"lng":-75.69116,"type":"country"},{"name":"India","count":1,"lat":28.63095,"lng":77.21721,"type":"country"},{"name":"Pakistan","count":1,"lat":33.70964,"lng":73.07545,"type":"point"},{"name":"Poland","count":1,"lat":52.2356,"lng":21.01037,"type":"country"},{"name":"Spain","count":1,"lat":40.41955,"lng":-3.69196,"type":"country"},{"name":"Switzerland","count":1,"lat":46.94843,"lng":7.44046,"type":"country"},{"name":"Sweden","count":1,"lat":59.33257,"lng":18.06683,"type":"country"},{"name":"Russia","count":1,"lat":55.75696,"lng":37.61502,"type":"country"},{"name":"Jordan","count":1,"lat":31.9518,"lng":35.94042,"type":"country"},{"name":"Gulf","count":1,"lat":-30.07321,"lng":152.15272,"type":"point"},{"name":"Saudi Arabia","count":1,"lat":24.68211,"lng":46.68722,"type":"country"},{"name":"Kuwait","count":1,"lat":29.37321,"lng":47.97142,"type":"country"},{"name":"Oman","count":1,"lat":23.61523,"lng":58.59126,"type":"country"},{"name":"England","count":2,"lat":51.50643,"lng":-0.12719,"type":"country"},{"name":"Europe","count":1,"lat":-33.98201,"lng":18.58413,"type":"point"},{"name":"South Africa","count":1,"lat":-25.74587,"lng":28.18764,"type":"country"}],"source":"Aljazeera"},{"feed_name":"World","feed_url":"https://www.latimes.com/world/rss2.0.xml","title":"Trump gives Congress chaos for Christmas, with aid to millions up in the air","summary":"<p>With a veto of a massive defense bill and threatening the spending bill that includes COVID relief, Trump leaves for Mar-a-Lago, chaos in his wake.</p>","link":"https://www.latimes.com/politics/story/2020-12-23/trump-gives-congress-chaos-for-christmas-with-aid-to-millions-up-in-the-air","published":"Wed, 23 Dec 2020 18:45:35 -0500","geolocations":[{"name":"Washington","count":3,"lat":38.89037,"lng":-77.03196,"type":"point"},{"name":"Okla","count":1,"lat":51.99817,"lng":-103.22328,"type":"point"},{"name":"Missouri","count":1,"lat":38.57751,"lng":-92.17784,"type":"point"},{"name":"Vermont","count":1,"lat":44.26029,"lng":-72.57626,"type":"point"},{"name":"Ky","count":1,"lat":19.29657,"lng":-81.38175,"type":"country"},{"name":"Kentucky","count":1,"lat":38.19507,"lng":-84.87869,"type":"point"},{"name":"Egypt","count":1,"lat":30.04427,"lng":31.23525,"type":"country"},{"name":"Bakersfield","count":1,"lat":35.36723,"lng":-119.01886,"type":"point"}],"source":"Los Angeles Times"},{"feed_name":"World","feed_url":"https://www.latimes.com/world/rss2.0.xml","title":"A new strain of coronavirus and looming Brexit chaos make the Yuletide gray in Britain","summary":"<p>In beleaguered Britain, Brexit is coming, Christmas is pretty much canceled and a new strain of the coronavirus brings near-pariah status. What next?</p>","link":"https://www.latimes.com/world-nation/story/2020-12-21/britain-christmas-brexit-new-strain-coronavirus-pariah","published":"Mon, 21 Dec 2020 15:40:51 -0500","geolocations":[{"name":"United Kingdom","count":13,"lat":38.95953,"lng":-91.92768,"type":"point"},{"name":"England","count":3,"lat":51.50643,"lng":-0.12719,"type":"country"},{"name":"London","count":2,"lat":51.50643,"lng":-0.12719,"type":"point"},{"name":"France","count":1,"lat":48.85717,"lng":2.3414,"type":"country"},{"name":"Europe","count":2,"lat":-33.98201,"lng":18.58413,"type":"point"},{"name":"Italy","count":1,"lat":41.90322,"lng":12.49565,"type":"country"},{"name":"The United Kingdom’S","count":1,"lat":38.95953,"lng":-91.92768,"type":"point"},{"name":"U.K.","count":1,"lat":29.93186,"lng":77.81922,"type":"point"}],"source":"Los Angeles Times"},{"feed_name":"World","feed_url":"https://www.aljazeera.com/xml/rss/all.xml","title":"COVID: In Italy, the second wave is now as deadly as the first","summary":"Second wave&#039;s daily death toll reaches record high, with total fatalities reaching grim first-wave milestone.","link":"https://www.aljazeera.com/news/2020/12/25/why-is-italy-going-thought-a-deadly-wave-again","published":"Fri, 25 Dec 2020 12:12:41 +0000","geolocations":[{"name":"Italy","count":7,"lat":41.90322,"lng":12.49565,"type":"country"},{"name":"Europe","count":2,"lat":-33.98201,"lng":18.58413,"type":"point"},{"name":"Milan","count":1,"lat":45.46796,"lng":9.18178,"type":"point"},{"name":"Sweden","count":1,"lat":59.33257,"lng":18.06683,"type":"country"},{"name":"Turin","count":1,"lat":45.06235,"lng":7.67993,"type":"point"},{"name":"Germany","count":1,"lat":52.51604,"lng":13.37691,"type":"country"},{"name":"France","count":1,"lat":48.85717,"lng":2.3414,"type":"country"}],"source":"Aljazeera"},{"feed_name":"World","feed_url":"https://www.theguardian.com/world/rss","title":"Uganda charges leading lawyer for LGBT rights with money laundering","summary":"<p>Human rights organisation says allegations that Nicholas Opiyo withdrew over $300,000 in funds are ‘frivolous’ and ‘fabricated’</p><p>Nicholas Opiyo, one of Uganda’s most prominent human rights lawyers, has been charged with money laundering.</p><p>Opiyo, known for representing LGBTQ+ people, appeared before magistrates in Kampala on Thursday and was remanded in custody until 28 December.</p> <a href=\"https://www.theguardian.com/global-development/2020/dec/24/uganda-charges-leading-lawyer-for-lgbt-rights-with-money-laundering-nicholas-opiyo\">Continue reading...</a>","link":"https://www.theguardian.com/global-development/2020/dec/24/uganda-charges-leading-lawyer-for-lgbt-rights-with-money-laundering-nicholas-opiyo","published":"Thu, 24 Dec 2020 15:18:41 GMT","geolocations":[{"name":"Uganda","count":4,"lat":0.31589,"lng":32.57501,"type":"country"},{"name":"Kampala","count":3,"lat":0.31589,"lng":32.57501,"type":"point"},{"name":"Us","count":1,"lat":38.89037,"lng":-77.03196,"type":"country"},{"name":"Eu","count":1,"lat":50.04903,"lng":1.42014,"type":"point"}],"source":"The Guardian"},{"feed_name":"World","feed_url":"https://www.aljazeera.com/xml/rss/all.xml","title":"Death toll in western Ethiopia ‘massacre’ reaches 207: Red Cross","summary":"PM Abiy Ahmed described Wednesday&#039;s attack on a village in western Benishangul-Gumuz region as a &#039;massacre&#039;.","link":"https://www.aljazeera.com/news/2020/12/25/death-toll-from-attack-in-western-ethiopia-reaches-222-red-cross","published":"Fri, 25 Dec 2020 19:08:45 +0000","geolocations":[{"name":"Ethiopia","count":5,"lat":9.01358,"lng":38.76286,"type":"country"},{"name":"Bekoji","count":1,"lat":7.33753,"lng":39.26829,"type":"point"},{"name":"Bulen County","count":2,"lat":56.27963,"lng":15.19879,"type":"point"},{"name":"The Metekel Zone","count":1,"lat":11.06945,"lng":36.88861,"type":"point"},{"name":"Amhara","count":1,"lat":26.28764,"lng":87.32393,"type":"point"},{"name":"Oromo","count":1,"lat":-40.90497,"lng":-73.16633,"type":"point"},{"name":"Tigray","count":1,"lat":10.34021,"lng":-84.58133,"type":"point"},{"name":"Oromia","count":1,"lat":40.70324,"lng":-112.06181,"type":"point"}],"source":"Aljazeera"},{"feed_name":"World","feed_url":"https://rss.nytimes.com/services/xml/rss/nyt/World.xml","title":"Switzerland begins Covid-19 vaccinations.","summary":"","link":"https://www.nytimes.com/2020/12/23/world/switzerland-begins-covid-19-vaccinations.html","published":"Thu, 24 Dec 2020 15:13:01 +0000","geolocations":[{"name":"Geneva","count":1,"lat":46.20833,"lng":6.14275,"type":"point"},{"name":"Switzerland","count":2,"lat":46.94843,"lng":7.44046,"type":"country"},{"name":"United Kingdom","count":1,"lat":38.95953,"lng":-91.92768,"type":"point"},{"name":"The United States","count":1,"lat":38.89037,"lng":-77.03196,"type":"country"},{"name":"Lucerne","count":1,"lat":47.04954,"lng":8.30437,"type":"point"}],"source":"The New York Times"},{"feed_name":"World","feed_url":"https://rss.nytimes.com/services/xml/rss/nyt/World.xml","title":"Brexit Is Finally Done, but U.K. Ambitions Already Seems Outdated","summary":"The idea of an agile “Global Britain” was an effective sales pitch. But that was before President Trump and other populists began erecting barriers to trade.","link":"https://www.nytimes.com/2020/12/24/world/europe/brexit-deal-boris-johnson.html","published":"Thu, 24 Dec 2020 23:03:10 +0000","geolocations":[{"name":"London","count":1,"lat":51.50643,"lng":-0.12719,"type":"point"},{"name":"United Kingdom","count":3,"lat":38.95953,"lng":-91.92768,"type":"point"},{"name":"Brussels","count":1,"lat":50.84439,"lng":4.35609,"type":"point"},{"name":"The United States","count":1,"lat":38.89037,"lng":-77.03196,"type":"country"},{"name":"China","count":1,"lat":39.90657,"lng":116.38765,"type":"country"}],"source":"The New York Times"},{"feed_name":"World","feed_url":"https://www.theguardian.com/world/rss","title":"Discovery of 'cryptic species' shows Earth is even more biologically diverse","summary":"<p>Excitement as DNA barcoding technique leads to unmasking of new species tempered with fear that some are already at risk of extinction</p><ul><li><a href=\"https://www.theguardian.com/environment/2020/oct/07/counting-the-species-how-dna-barcoding-is-rewriting-the-book-of-life-aoe\">Counting the species: how DNA barcoding is rewriting the book of life</a></li><li><a href=\"https://www.theguardian.com/environment/series/biodiversity--what-happened-next-\">Read more in our series Biodiversity: what happened next?</a></li></ul><p>A growing number of “cryptic species” hiding in plain sight have been unmasked in the past year, driven in part by the rise of <a href=\"https://www.theguardian.com/environment/2020/oct/07/counting-the-species-how-dna-barcoding-is-rewriting-the-book-of-life-aoe\">DNA barcoding</a>, a technique that can identify and differentiate between animal and plant species using their genetic divergence.</p><p>The discovery of new species of <a href=\"https://www.sciencedirect.com/science/article/pii/S2287884X20300303\">aloe</a>, <a href=\"https://www.sciencedaily.com/releases/2020/04/200422091212.htm\">African leaf-nosed bats</a> and <a href=\"http://www.markscherz.com/wp-content/uploads/Pro%CC%88tzel-et-al.-2020-Untangling-the-trees-Revision-of-the-Calumma-nasutum-complex-Squamata-Chamaeleonidae-1.pdf\">chameleons</a> that appear similar to the human eye but are in fact many and separate have thrilled and worried conservationists. Scientists say our planet might be more biologically diverse than previously thought, and estimates for the total number of species could be far higher than the current best guess of <a href=\"https://science.sciencemag.org/content/333/6046/1083\">8.7 million</a>. But cryptic discoveries often mean that species once considered common and widespread are actually several, some of which may be endangered and require immediate protection.</p> <a href=\"https://www.theguardian.com/environment/2020/dec/25/discovery-of-cryptic-species-shows-earth-is-even-more-biologically-diverse-aoe\">Continue reading...</a>","link":"https://www.theguardian.com/environment/2020/dec/25/discovery-of-cryptic-species-shows-earth-is-even-more-biologically-diverse-aoe","published":"Fri, 25 Dec 2020 11:30:45 GMT","geolocations":[{"name":"Myanmar","count":1,"lat":21.11892,"lng":96.51169,"type":"country"},{"name":"Marina Blanco","count":1,"lat":36.67687,"lng":-121.74811,"type":"point"},{"name":"Guanacaste","count":1,"lat":10.44615,"lng":-85.39157,"type":"point"},{"name":"Costa Rica","count":1,"lat":9.92975,"lng":-84.08569,"type":"country"},{"name":"Earth","count":2,"lat":38.76564,"lng":-90.46003,"type":"point"},{"name":"Texas","count":1,"lat":30.26759,"lng":-97.74299,"type":"point"},{"name":"Argentina","count":1,"lat":-34.60849,"lng":-58.37344,"type":"country"},{"name":"Latin America","count":2,"lat":41.62788,"lng":13.34278,"type":"point"},{"name":"Montreal","count":1,"lat":45.5124,"lng":-73.55469,"type":"point"},{"name":"Quebec","count":1,"lat":46.81273,"lng":-71.2193,"type":"point"},{"name":"Canada","count":1,"lat":45.42178,"lng":-75.69116,"type":"country"}],"source":"The Guardian"},{"feed_name":"World","feed_url":"https://www.latimes.com/world/rss2.0.xml","title":"Congress approves hospice care reforms to improve oversight, transparency","summary":"<p>Fines and other penalties are set for bad actors in an industry marked by weak regulation.</p>","link":"https://www.latimes.com/california/story/2020-12-23/hospice-terminally-ill-fraud-care-reforms-transparency-oversight-spending-bill","published":"Wed, 23 Dec 2020 06:00:03 -0500","geolocations":[{"name":"U.S.","count":1,"lat":38.89037,"lng":-77.03196,"type":"country"},{"name":"N.Y.","count":1,"lat":40.71455,"lng":-74.00714,"type":"point"},{"name":"California","count":3,"lat":38.57944,"lng":-121.49085,"type":"point"},{"name":"Los Angeles County","count":1,"lat":34.28089,"lng":-119.14472,"type":"point"}],"source":"Los Angeles Times"},{"feed_name":"World","feed_url":"https://www.aljazeera.com/xml/rss/all.xml","title":"Erdogan says Turkey wants better ties with Israel, talks continue","summary":"Turkish president wants to bring ties to a &#039;better point&#039; but says Israeli policy towards Palestinians is unacceptable.","link":"https://www.aljazeera.com/news/2020/12/25/erdogan-says-turkey-wants-better-ties-with-israel-talks-continue","published":"Fri, 25 Dec 2020 13:31:43 +0000","geolocations":[{"name":"Israel","count":14,"lat":31.78003,"lng":35.21873,"type":"country"},{"name":"Turkey","count":6,"lat":39.92109,"lng":32.85391,"type":"country"},{"name":"Istanbul","count":2,"lat":41.06201,"lng":28.98877,"type":"point"},{"name":"Palestine","count":3,"lat":31.7617,"lng":-95.632,"type":"point"},{"name":"Ankara","count":3,"lat":39.92109,"lng":32.85391,"type":"point"},{"name":"The West Bank","count":1,"lat":-33.0312,"lng":27.90943,"type":"point"},{"name":"Gaza","count":2,"lat":-25.04706,"lng":33.64469,"type":"point"},{"name":"Gaza Strip","count":3,"lat":31.40584,"lng":34.37689,"type":"country"},{"name":"Us","count":2,"lat":38.89037,"lng":-77.03196,"type":"country"},{"name":"United States","count":1,"lat":38.89037,"lng":-77.03196,"type":"country"},{"name":"Tel Aviv","count":1,"lat":32.08556,"lng":34.78953,"type":"point"},{"name":"Jerusalem","count":1,"lat":31.7801,"lng":35.20882,"type":"point"},{"name":"Bahrain","count":1,"lat":26.22952,"lng":50.57604,"type":"country"},{"name":"Morocco","count":1,"lat":34.01791,"lng":-6.83612,"type":"country"},{"name":"Sudan","count":1,"lat":15.58651,"lng":32.52318,"type":"point"},{"name":"The United Arab Emirates","count":1,"lat":24.46918,"lng":54.37173,"type":"country"}],"source":"Aljazeera"},{"feed_name":"World - Europe","feed_url":"http://feeds.bbci.co.uk/news/world/rss.xml","title":"Michael Jackson: Neverland Ranch 'sold to billionaire for $22m'","summary":"Billionaire Ron Burkle reportedly buys the estate for a quarter of its initial asking price.","link":"https://www.bbc.co.uk/news/world-us-canada-55442750","published":"Thu, 24 Dec 2020 23:23:44 GMT","geolocations":[{"name":"Neverland","count":1,"lat":40.15844,"lng":-83.02021,"type":"point"},{"name":"Santa Barbara City","count":1,"lat":34.41921,"lng":-119.69884,"type":"point"}],"source":"BBC"},{"feed_name":"World","feed_url":"https://www.theguardian.com/world/rss","title":"Tunisia minister sacked and arrested in scandal over illegal waste from Italy","summary":"<p>Mustapha Aroui held along with 22 others after 200 containers of decaying household and medical waste discovered in July</p><p>Tunisia’s environment minister has been arrested following the attempted importation of household and hospital waste from Italy.</p><p>Mustapha Aroui was dismissed from his post and <a href=\"https://www.voaafrique.com/a/controverse-autour-des-centaines-de-conteneurs-de-d%C3%A9chets-d-italie/5707396.html\">subsequently arrested</a> on Sunday, along with several other people, <a href=\"https://www.france24.com/fr/afrique/20201221-d%C3%A9chets-italiens-ill%C3%A9gaux-en-tunisie-plusieurs-hauts-responsables-interpell%C3%A9s\">including</a> senior customs officials, members of its waste management agency, Agence Nationale de Gestion des Déchets (<a href=\"http://www.anged.nat.tn/\">ANGed</a>) and a Tunisian diplomat based in Naples.</p> <a href=\"https://www.theguardian.com/global-development/2020/dec/24/tunisia-minister-sacked-and-arrested-in-scandal-over-waste-from-italy-mustapha-aroui\">Continue reading...</a>","link":"https://www.theguardian.com/global-development/2020/dec/24/tunisia-minister-sacked-and-arrested-in-scandal-over-waste-from-italy-mustapha-aroui","published":"Thu, 24 Dec 2020 10:46:37 GMT","geolocations":[{"name":"Tunisia","count":6,"lat":36.80001,"lng":10.1827,"type":"country"},{"name":"Italy","count":3,"lat":41.90322,"lng":12.49565,"type":"country"},{"name":"Naples","count":1,"lat":40.84016,"lng":14.25222,"type":"point"},{"name":"Sousse","count":1,"lat":35.82903,"lng":10.63778,"type":"point"}],"source":"The Guardian"},{"feed_name":"World","feed_url":"https://rss.nytimes.com/services/xml/rss/nyt/World.xml","title":"US Will Require UK Travelers to Have a Negative Coronavirus Test","summary":"The new rule, which takes effect on Monday, will apply to Americans as well as foreign nationals.","link":"https://www.nytimes.com/2020/12/24/us/travel-restriction-uk.html","published":"Fri, 25 Dec 2020 14:20:40 +0000","geolocations":[{"name":"Gatwick","count":1,"lat":51.16345,"lng":-0.17476,"type":"point"},{"name":"London","count":2,"lat":51.50643,"lng":-0.12719,"type":"point"},{"name":"The United States","count":1,"lat":38.89037,"lng":-77.03196,"type":"country"},{"name":"New York","count":1,"lat":40.71455,"lng":-74.00714,"type":"point"},{"name":"New Jersey","count":1,"lat":40.21788,"lng":-74.7594,"type":"point"},{"name":"Europe","count":1,"lat":-33.98201,"lng":18.58413,"type":"point"},{"name":"Asia","count":1,"lat":-12.76551,"lng":-76.61171,"type":"point"},{"name":"United Kingdom","count":1,"lat":38.95953,"lng":-91.92768,"type":"point"},{"name":"U.S.","count":1,"lat":38.89037,"lng":-77.03196,"type":"country"}],"source":"The New York Times"},{"feed_name":"World","feed_url":"https://www.theguardian.com/world/rss","title":"Thousands apply to be a Finn for 90 days in migration scheme","summary":"<p>Americans, Canadians and Britons among those lured by campaign to attract foreign tech workers</p><p>Finland has received more than 5,300 applications in a month for a groundbreaking scheme offering foreign tech workers and their families the chance to relocate to the Nordic country for 90 days to see if they want to make the move permanent.</p><p>“We’re not top of many relocation lists, but we know once people do come, they tend to stay,” said Johanna Huurre, of Helsinki Business Hub which devised the campaign. “There’s huge competition globally for talent, so we had to think creatively.”</p> <a href=\"https://www.theguardian.com/world/2020/dec/25/thousands-apply-to-be-a-finn-for-90-days-in-migration-scheme\">Continue reading...</a>","link":"https://www.theguardian.com/world/2020/dec/25/thousands-apply-to-be-a-finn-for-90-days-in-migration-scheme","published":"Fri, 25 Dec 2020 14:00:48 GMT","geolocations":[{"name":"Finland","count":4,"lat":60.17116,"lng":24.93265,"type":"country"},{"name":"Us","count":2,"lat":38.89037,"lng":-77.03196,"type":"country"},{"name":"Canada","count":1,"lat":45.42178,"lng":-75.69116,"type":"country"},{"name":"Pacific","count":1,"lat":38.48359,"lng":-90.74141,"type":"point"},{"name":"Vanuatu","count":1,"lat":-17.73312,"lng":168.32084,"type":"country"}],"source":"The Guardian"},{"feed_name":"World","feed_url":"https://rss.nytimes.com/services/xml/rss/nyt/World.xml","title":"Your Thursday Briefing","summary":"More areas in England lock down over new variant.","link":"https://www.nytimes.com/2020/12/23/briefing/virus-restrictions-christmas-eu-china-deal.html","published":"Wed, 23 Dec 2020 19:02:06 +0000","geolocations":[{"name":"United Kingdom","count":2,"lat":38.95953,"lng":-91.92768,"type":"point"},{"name":"England","count":2,"lat":51.50643,"lng":-0.12719,"type":"country"}],"source":"The New York Times"},{"feed_name":"World","feed_url":"https://rss.nytimes.com/services/xml/rss/nyt/World.xml","title":"With Pandemic Raging, London Homeless Shelter in Hotels for Awhile","summary":"Many homeless people in London will stay in hotels over the Christmas and New Year holidays, if not longer, through funding from charities and the government.","link":"https://www.nytimes.com/2020/12/25/world/europe/homeless-coronavirus-christmas.html","published":"Fri, 25 Dec 2020 21:06:25 +0000","geolocations":[{"name":"U.K.","count":1,"lat":29.93186,"lng":77.81922,"type":"point"}],"source":"The New York Times"},{"feed_name":"World","feed_url":"https://rss.nytimes.com/services/xml/rss/nyt/World.xml","title":"2020 in Animal News","summary":"These are the stories about birds, bugs, fish and mammals that surprised and delighted readers the most this year.","link":"https://www.nytimes.com/2020/12/23/science/wildest-animal-news-2020.html","published":"Wed, 23 Dec 2020 20:15:49 +0000","geolocations":[{"name":"The United States","count":1,"lat":38.89037,"lng":-77.03196,"type":"country"}],"source":"The New York Times"},{"feed_name":"World","feed_url":"https://rss.nytimes.com/services/xml/rss/nyt/World.xml","title":"An Irish boy writes to Pfizer requesting a vaccination for Santa, and receives a reply from its C.E.O.","summary":"","link":"https://www.nytimes.com/2020/12/24/world/an-irish-boy-writes-to-pfizer-requesting-a-vaccination-for-santa-and-receives-a-reply-from-its-ceo.html","published":"Thu, 24 Dec 2020 15:48:53 +0000","geolocations":[{"name":"The North Pole","count":1,"lat":-20.60773,"lng":27.55545,"type":"point"},{"name":"Santa","count":1,"lat":35.69177,"lng":-105.93824,"type":"point"}],"source":"The New York Times"},{"feed_name":"World","feed_url":"https://rss.nytimes.com/services/xml/rss/nyt/World.xml","title":"Russian Police Arrest a Top Navalny Ally, Lyubov Sobol","summary":"The police detained Lyubov Sobol amid a crackdown on activists seeking to draw attention to the nerve-agent poisoning of the opposition leader Aleksei A. Navalny.","link":"https://www.nytimes.com/2020/12/25/world/europe/navalny-lyubov-sobol.html","published":"Fri, 25 Dec 2020 16:17:05 +0000","geolocations":[{"name":"Moscow","count":1,"lat":55.75696,"lng":37.61502,"type":"point"},{"name":"Russia","count":1,"lat":55.75696,"lng":37.61502,"type":"country"},{"name":"Siberia","count":1,"lat":-30.42356,"lng":28.74034,"type":"point"}],"source":"The New York Times"},{"feed_name":"World","feed_url":"https://rss.nytimes.com/services/xml/rss/nyt/World.xml","title":"How Covid-19 Vaccine Launch Evokes Memories of Polio Era","summary":"Many older Americans, shut in during this year’s pandemic, share haunting recollections from the polio era of their childhood.","link":"https://www.nytimes.com/2020/12/25/health/covid-vaccine-polio.html","published":"Fri, 25 Dec 2020 10:00:18 +0000","geolocations":[{"name":"Berkeley","count":1,"lat":37.86988,"lng":-122.27054,"type":"point"},{"name":"Boston","count":1,"lat":42.35866,"lng":-71.05674,"type":"point"},{"name":"U.S.","count":1,"lat":38.89037,"lng":-77.03196,"type":"country"},{"name":"Afghanistan","count":1,"lat":34.53313,"lng":69.10223,"type":"country"},{"name":"Pakistan","count":1,"lat":33.70964,"lng":73.07545,"type":"point"}],"source":"The New York Times"},{"feed_name":"World","feed_url":"https://www.theguardian.com/world/rss","title":"Panic, paucity and pessimism: life on Plague Island UK | Zoe Williams","summary":"<p>With a mutant Covid variant out of control and lorries piling up in Kent, Britain feels like a country adrift and rudderless</p><p>The rest of the world is calling the UK Plague Island because it’s true: a mutant strain of the coronavirus is out of control, laying waste to fantasies that any region is out of the woods, or that the November lockdown had its desired effect, or that we might manage a “merry little Christmas”, in the words of the prime minister.</p><p>The plague phrase carries a lot of resonance, beyond being a reference to the high prevalence of infectious disease: it casts us as a far-flung place, isolated, chaotic, uncivilised, a place that wise and/or decent people stay well away from. But is that how it feels from the inside?</p> <a href=\"https://www.theguardian.com/world/2020/dec/23/people-seem-more-afraid-life-on-plague-island-uk\">Continue reading...</a>","link":"https://www.theguardian.com/world/2020/dec/23/people-seem-more-afraid-life-on-plague-island-uk","published":"Wed, 23 Dec 2020 17:30:36 GMT","geolocations":[{"name":"Kent","count":2,"lat":47.3807,"lng":-122.23741,"type":"point"},{"name":"Europe","count":1,"lat":-33.98201,"lng":18.58413,"type":"point"},{"name":"Saigon","count":1,"lat":14.26977,"lng":21.14308,"type":"point"}],"source":"The Guardian"},{"feed_name":"World","feed_url":"https://rss.nytimes.com/services/xml/rss/nyt/World.xml","title":"‘Box’ or Gem? A Scramble to Save Asia’s Modernist Buildings","summary":"Groups across the region are rallying to save buildings that officials consider too new, too ugly or too unimportant to protect from demolition.","link":"https://www.nytimes.com/2020/12/25/world/asia/modernist-buildings.html","published":"Fri, 25 Dec 2020 18:10:04 +0000","geolocations":[{"name":"Hong Kong’S","count":1,"lat":22.2783,"lng":114.16039,"type":"point"},{"name":"Hong Kong","count":1,"lat":22.2783,"lng":114.16039,"type":"point"}],"source":"The New York Times"},{"feed_name":"World","feed_url":"https://rss.nytimes.com/services/xml/rss/nyt/World.xml","title":"UK Increasingly Isolated as US Restricts Travel Due to Coronavirus","summary":"America’s requirement that passengers coming from Britain provide negative coronavirus tests is just the latest woe to strike the country this Christmas period.","link":"https://www.nytimes.com/2020/12/25/world/europe/covid-19-uk-travel-us.html","published":"Fri, 25 Dec 2020 22:11:18 +0000","geolocations":[{"name":"United Kingdom","count":3,"lat":38.95953,"lng":-91.92768,"type":"point"},{"name":"Germany","count":1,"lat":52.51604,"lng":13.37691,"type":"country"},{"name":"Singapore","count":1,"lat":1.29041,"lng":103.85211,"type":"country"},{"name":"Denmark","count":1,"lat":55.67567,"lng":12.56756,"type":"country"},{"name":"France","count":2,"lat":48.85717,"lng":2.3414,"type":"country"}],"source":"The New York Times"},{"feed_name":"World","feed_url":"https://www.aljazeera.com/xml/rss/all.xml","title":"Daniel Pearl’s family condemns release of accused in Pakistan","summary":"Family hopes men involved in 2002 killing will remain in jail, calling decision to release them &#039;travesty of justice&#039;.","link":"https://www.aljazeera.com/news/2020/12/25/daniel-pearls-family-protests-travesty-of-pakistani-justice","published":"Fri, 25 Dec 2020 16:28:20 +0000","geolocations":[{"name":"Pakistan","count":3,"lat":33.70964,"lng":73.07545,"type":"point"},{"name":"Judea","count":1,"lat":-37.69504,"lng":176.14124,"type":"point"},{"name":"Encino","count":1,"lat":34.16538,"lng":-118.52711,"type":"point"},{"name":"California","count":1,"lat":38.57944,"lng":-121.49085,"type":"point"},{"name":"Karachi","count":1,"lat":57.71375,"lng":50.09435,"type":"point"},{"name":"Los Angeles","count":1,"lat":34.05357,"lng":-118.24545,"type":"point"}],"source":"Aljazeera"},{"feed_name":"World","feed_url":"https://www.aljazeera.com/xml/rss/all.xml","title":"New COVID-19 variants: What we know so far, in 500 words","summary":"At least three new coronavirus strains have been detected in recent weeks, in the UK, South Africa and Nigeria.","link":"https://www.aljazeera.com/news/2020/12/25/new-covid-19-variants-what-we-know-so-far-in-500-words","published":"Fri, 25 Dec 2020 11:00:12 +0000","geolocations":[{"name":"South Africa","count":4,"lat":-25.74587,"lng":28.18764,"type":"country"},{"name":"Nigeria","count":2,"lat":9.06344,"lng":7.46228,"type":"country"},{"name":"The United Kingdom’S","count":1,"lat":38.95953,"lng":-91.92768,"type":"point"},{"name":"London","count":1,"lat":51.50643,"lng":-0.12719,"type":"point"},{"name":"Kent","count":1,"lat":47.3807,"lng":-122.23741,"type":"point"},{"name":"Europe","count":1,"lat":-33.98201,"lng":18.58413,"type":"point"},{"name":"Italy","count":1,"lat":41.90322,"lng":12.49565,"type":"country"},{"name":"Denmark","count":1,"lat":55.67567,"lng":12.56756,"type":"country"},{"name":"Netherlands","count":1,"lat":52.36993,"lng":4.90788,"type":"country"},{"name":"Australia","count":1,"lat":-35.30654,"lng":149.12655,"type":"country"},{"name":"Singapore","count":1,"lat":1.29041,"lng":103.85211,"type":"country"},{"name":"The United States","count":1,"lat":38.89037,"lng":-77.03196,"type":"country"}],"source":"Aljazeera"},{"feed_name":"World - Europe","feed_url":"http://feeds.bbci.co.uk/news/world/rss.xml","title":"The refugees feeding a nation","summary":"How did French Guiana come to rely on its Hmong citizens for food?","link":"https://www.bbc.co.uk/news/world-55412180","published":"Fri, 25 Dec 2020 00:07:39 GMT","geolocations":[{"name":"France","count":2,"lat":48.85717,"lng":2.3414,"type":"country"},{"name":"Laos","count":1,"lat":17.9518,"lng":102.61892,"type":"country"},{"name":"South America","count":1,"lat":44.76704,"lng":-93.92739,"type":"point"},{"name":"Us","count":1,"lat":38.89037,"lng":-77.03196,"type":"country"}],"source":"BBC"},{"feed_name":"World","feed_url":"https://www.latimes.com/world/rss2.0.xml","title":"Pandemic closures alter the rhythm of life in towns on both sides of the U.S.-Mexico border","summary":"<p>Scaled-back hours at the border add difficulty for those who travel between countries for work, shopping and school.</p>","link":"https://www.latimes.com/world-nation/story/2020-12-22/bisbee-arizona-coronavirus-covid-19-mexico-border","published":"Tue, 22 Dec 2020 07:00:20 -0500","geolocations":[{"name":"U.S.","count":12,"lat":38.89037,"lng":-77.03196,"type":"country"},{"name":"Mexico","count":17,"lat":23.94757,"lng":-102.5411,"type":"country"},{"name":"Arizona","count":4,"lat":33.44825,"lng":-112.0758,"type":"point"},{"name":"Bisbee","count":17,"lat":31.44185,"lng":-109.91478,"type":"point"},{"name":"Naco","count":10,"lat":31.32692,"lng":-109.94841,"type":"point"},{"name":"Ariz.","count":3,"lat":40.2535,"lng":28.22813,"type":"point"},{"name":"Canada","count":1,"lat":45.42178,"lng":-75.69116,"type":"country"},{"name":"Sonora","count":6,"lat":37.98329,"lng":-120.38219,"type":"point"},{"name":"Texas","count":2,"lat":30.26759,"lng":-97.74299,"type":"point"},{"name":"Nogales","count":1,"lat":18.82165,"lng":-97.16297,"type":"point"},{"name":"Cochise County","count":1,"lat":31.96812,"lng":-110.28625,"type":"point"},{"name":"Laredo","count":1,"lat":27.53092,"lng":-99.50223,"type":"point"},{"name":"El Paso","count":1,"lat":31.75916,"lng":-106.48749,"type":"point"},{"name":"Tarazon","count":1,"lat":41.90457,"lng":-1.72321,"type":"point"},{"name":"Borrajo","count":1,"lat":39.96746,"lng":-4.81228,"type":"point"}],"source":"Los Angeles Times"},{"feed_name":"World","feed_url":"https://www.theguardian.com/world/rss","title":"China to overtake US as world's biggest economy by 2028, report predicts","summary":"<p>Centre for Economics and Business Research says it expects this to happen half a decade sooner than it forecast a year ago</p><p>China will overtake the US as the <a href=\"https://www.theguardian.com/business/2020/may/29/is-china-overtaking-the-us-as-a-financial-and-economic-power\">world’s biggest economy</a> before the end of the decade after outperforming its rival during the global Covid-19 pandemic, according to a report.</p><p>The Centre for Economics and Business Research said that it nowexpected the value of China’s economy when measured in dollars to exceed that of the US by 2028, half a decade sooner than it expected a year ago.</p> <a href=\"https://www.theguardian.com/world/2020/dec/26/china-to-overtake-us-as-worlds-biggest-economy-by-2028-report-predicts\">Continue reading...</a>","link":"https://www.theguardian.com/world/2020/dec/26/china-to-overtake-us-as-worlds-biggest-economy-by-2028-report-predicts","published":"Sat, 26 Dec 2020 00:01:01 GMT","geolocations":[{"name":"China","count":6,"lat":39.90657,"lng":116.38765,"type":"country"},{"name":"Us","count":6,"lat":38.89037,"lng":-77.03196,"type":"country"},{"name":"Asia","count":1,"lat":-12.76551,"lng":-76.61171,"type":"point"},{"name":"India","count":2,"lat":28.63095,"lng":77.21721,"type":"country"},{"name":"France","count":2,"lat":48.85717,"lng":2.3414,"type":"country"}],"source":"The Guardian"},{"feed_name":"World","feed_url":"https://rss.nytimes.com/services/xml/rss/nyt/World.xml","title":"Coronavirus Briefing: What Happened Today","summary":"In a disrupted holiday season, even Bethlehem is quieter than usual.","link":"https://www.nytimes.com/2020/12/24/us/coronavirus-today.html","published":"Thu, 24 Dec 2020 23:22:29 +0000","geolocations":[{"name":"Norad","count":1,"lat":34.43734,"lng":35.84711,"type":"point"},{"name":"Rome","count":1,"lat":41.90322,"lng":12.49565,"type":"point"},{"name":"Italy","count":1,"lat":41.90322,"lng":12.49565,"type":"country"},{"name":"U.S.","count":1,"lat":38.89037,"lng":-77.03196,"type":"country"}],"source":"The New York Times"},{"feed_name":"World","feed_url":"https://www.latimes.com/world/rss2.0.xml","title":"Under Trump, America's nuclear weapons industry has boomed","summary":"<p>Expansion could be scaled back as President-elect Joe Biden and Congress prioritize pandemic and recession problems.</p>","link":"https://www.latimes.com/world-nation/story/2020-12-23/under-trump-americas-nuclear-weapons-industry-has-boomed","published":"Wed, 23 Dec 2020 19:01:50 -0500","geolocations":[{"name":"America","count":4,"lat":51.43739,"lng":5.98176,"type":"point"},{"name":"Texas","count":3,"lat":30.26759,"lng":-97.74299,"type":"point"},{"name":"South Carolina","count":2,"lat":33.99882,"lng":-81.04537,"type":"point"},{"name":"Tennessee","count":1,"lat":36.16784,"lng":-86.77816,"type":"point"},{"name":"New Mexico","count":1,"lat":35.69177,"lng":-105.93824,"type":"point"},{"name":"U.S.","count":3,"lat":38.89037,"lng":-77.03196,"type":"country"},{"name":"Los Alamos","count":5,"lat":35.88101,"lng":-106.30522,"type":"point"},{"name":"N.M.","count":2,"lat":35.69177,"lng":-105.93824,"type":"point"},{"name":"Livermore","count":2,"lat":37.6757,"lng":-121.75856,"type":"point"},{"name":"Calif.","count":2,"lat":3.43402,"lng":-76.52645,"type":"point"},{"name":"United Kingdom","count":1,"lat":38.95953,"lng":-91.92768,"type":"point"},{"name":"Russia","count":1,"lat":55.75696,"lng":37.61502,"type":"country"},{"name":"China","count":1,"lat":39.90657,"lng":116.38765,"type":"country"},{"name":"North Korea","count":1,"lat":39.01196,"lng":125.78684,"type":"country"},{"name":"Iran","count":1,"lat":35.68877,"lng":51.41503,"type":"country"},{"name":"Hiroshima","count":2,"lat":-11.83436,"lng":-77.13986,"type":"point"},{"name":"Nevada","count":1,"lat":39.16506,"lng":-119.76697,"type":"point"},{"name":"Cheyenne","count":1,"lat":41.13481,"lng":-104.82154,"type":"point"},{"name":"Wyo.","count":1,"lat":39.78186,"lng":-122.19752,"type":"point"},{"name":"California","count":1,"lat":38.57944,"lng":-121.49085,"type":"point"},{"name":"Albuquerque","count":1,"lat":35.08423,"lng":-106.64905,"type":"point"},{"name":"Knoxville","count":1,"lat":35.96068,"lng":-83.92103,"type":"point"},{"name":"Tenn.","count":1,"lat":58.61606,"lng":16.14943,"type":"point"},{"name":"Augusta","count":1,"lat":48.37034,"lng":10.89788,"type":"point"},{"name":"Ga.","count":1,"lat":0.39324,"lng":9.44633,"type":"country"},{"name":"Manhattan","count":1,"lat":39.17881,"lng":-96.56184,"type":"point"},{"name":"The Western Hemisphere","count":1,"lat":8.34108,"lng":-13.10603,"type":"point"},{"name":"Ohio","count":1,"lat":39.96199,"lng":-83.00275,"type":"point"},{"name":"Washington","count":1,"lat":38.89037,"lng":-77.03196,"type":"point"}],"source":"Los Angeles Times"},{"feed_name":"World","feed_url":"https://www.theguardian.com/world/rss","title":"Tim Dowling: from birds on my head to the cat's miaows – my year in numbers","summary":"<p>In a year when reality has felt slippery, it’s good to pin down the key points in hard statistics. Here then, are mine</p><p>Over the course of the last year, our enforced isolation, compounded by a proliferation of disinformation, has made reality feel a bit slippery. Now more than ever, I find it helpful to conduct my annual look back using nothing but cold, hard figures. Here, then, are my personal statistics for 2020:</p><p><strong>.66666 (recurring)</strong> Percentage of my three adult children living – <a href=\"https://www.theguardian.com/lifeandstyle/2020/sep/09/ive-spent-years-working-at-home-on-my-own-now-the-whole-family-is-toiling-alongside-me-and-i-love-it\" title=\"\">and working</a> – at home since the start of lockdown. It’s not so bad – I have learned to live with the small humiliation of delivery food arriving in the middle of meals I have cooked – but over time the pressure has taken its toll on all of us. The remaining .33333 of my descendants is in the United States with my family, but we’re still sort of connected because he set up the Deliveroo account and gets a text notification whenever anybody orders anything.</p> <a href=\"https://www.theguardian.com/lifeandstyle/2020/dec/26/tim-dowling-from-birds-on-my-head-to-the-cats-miaows-my-year-in-numbers\">Continue reading...</a>","link":"https://www.theguardian.com/lifeandstyle/2020/dec/26/tim-dowling-from-birds-on-my-head-to-the-cats-miaows-my-year-in-numbers","published":"Sat, 26 Dec 2020 06:00:09 GMT","geolocations":[{"name":"The United States","count":1,"lat":38.89037,"lng":-77.03196,"type":"country"},{"name":"London","count":1,"lat":51.50643,"lng":-0.12719,"type":"point"}],"source":"The Guardian"},{"feed_name":"World - Europe","feed_url":"http://feeds.bbci.co.uk/news/world/rss.xml","title":"Boko Haram kill villagers in Christmas Eve attack","summary":"The Islamist group also burnt down the church in the Christian village in northeast Nigeria.","link":"https://www.bbc.co.uk/news/world-africa-55448105","published":"Fri, 25 Dec 2020 17:17:54 GMT","geolocations":[{"name":"Chibok","count":1,"lat":10.87173,"lng":12.84493,"type":"point"}],"source":"BBC"},{"feed_name":"World","feed_url":"https://rss.nytimes.com/services/xml/rss/nyt/World.xml","title":"Pakistani Court Orders Men Released in Daniel Pearl Case","summary":"A detention order had been applied to four men accused in the American journalist’s abduction and murder even after their convictions were overturned.","link":"https://www.nytimes.com/2020/12/24/world/asia/pakistan-daniel-pearl-release.html","published":"Thu, 24 Dec 2020 18:36:21 +0000","geolocations":[{"name":"Karachi","count":2,"lat":57.71375,"lng":50.09435,"type":"point"},{"name":"Pakistan","count":1,"lat":33.70964,"lng":73.07545,"type":"point"},{"name":"Sindh Province","count":1,"lat":43.07715,"lng":-7.66689,"type":"point"}],"source":"The New York Times"},{"feed_name":"World","feed_url":"https://rss.nytimes.com/services/xml/rss/nyt/World.xml","title":"Canada Approves the Moderna Vaccine","summary":"","link":"https://www.nytimes.com/2020/12/23/world/canada-moderna.html","published":"Wed, 23 Dec 2020 18:58:11 +0000","geolocations":[{"name":"Canada","count":1,"lat":45.42178,"lng":-75.69116,"type":"country"}],"source":"The New York Times"},{"feed_name":"World","feed_url":"https://rss.nytimes.com/services/xml/rss/nyt/World.xml","title":"Death comes in multiples in a close-knit valley on the Mexican border.","summary":"","link":"https://www.nytimes.com/2020/12/24/world/death-comes-in-multiples-in-a-close-knit-valley-on-the-mexican-border.html","published":"Thu, 24 Dec 2020 10:11:46 +0000","geolocations":[{"name":"Edinburg","count":1,"lat":55.95438,"lng":-3.20144,"type":"point"},{"name":"Texas","count":1,"lat":30.26759,"lng":-97.74299,"type":"point"},{"name":"Santa","count":1,"lat":35.69177,"lng":-105.93824,"type":"point"}],"source":"The New York Times"},{"feed_name":"World","feed_url":"https://rss.nytimes.com/services/xml/rss/nyt/World.xml","title":"A Freight Traffic Logjam Eases at Britain's Ports","summary":"","link":"https://www.nytimes.com/2020/12/24/world/ports-uk.html","published":"Fri, 25 Dec 2020 05:58:45 +0000","geolocations":[{"name":"Dover","count":1,"lat":39.15803,"lng":-75.52473,"type":"point"},{"name":"France","count":1,"lat":48.85717,"lng":2.3414,"type":"country"},{"name":"United Kingdom","count":1,"lat":38.95953,"lng":-91.92768,"type":"point"},{"name":"London","count":1,"lat":51.50643,"lng":-0.12719,"type":"point"}],"source":"The New York Times"},{"feed_name":"World","feed_url":"https://www.latimes.com/world/rss2.0.xml","title":"Despite his boasts, Trump again is no deal-maker as Congress seeks pandemic relief bill","summary":"<p>Donald Trump was elected partly on his fame for \"The Art of the Deal,\" yet he's cut no big deals in office. The relief package is the latest, perhaps final, example.</p>","link":"https://www.latimes.com/politics/story/2020-12-20/despite-his-boasts-trump-again-is-no-deal-maker-as-congress-seeks-crisis-relief-bill","published":"Sun, 20 Dec 2020 06:00:32 -0500","geolocations":[{"name":"Rose Garden","count":1,"lat":37.33473,"lng":-121.92853,"type":"point"},{"name":"Ky","count":1,"lat":19.29657,"lng":-81.38175,"type":"country"}],"source":"Los Angeles Times"},{"feed_name":"World","feed_url":"https://www.theguardian.com/world/rss","title":"Brexit trade deal to be approved by EU27 'within days'","summary":"<p>Little doubt that deal struck at 11th hour will be signed off, while British MPs are set to be recalled for 30 December vote</p><p>The 27 members of the EU are expected to approve the post-Brexit trade deal with the UK within days after a <a href=\"https://www.theguardian.com/world/2020/dec/25/brexit-deal-to-be-pored-over-by-eu-diplomats-on-christmas-day\">Christmas Day briefing of ambassadors by Michel Barnier</a>, the bloc’s chief negotiator. </p><p>Experts across Europe, from Berlin to Paris and Rome, <a href=\"https://www.theguardian.com/politics/2020/dec/24/european-capitals-welcome-brexit-deal-as-least-worst-outcome\">will now pore over the 1,246-page text</a>, although much of it is well known in the capitals and there is little doubt that the agreement will be signed off.</p> <a href=\"https://www.theguardian.com/politics/2020/dec/25/brexit-trade-deal-to-be-approved-by-eu27-within-days\">Continue reading...</a>","link":"https://www.theguardian.com/politics/2020/dec/25/brexit-trade-deal-to-be-approved-by-eu27-within-days","published":"Fri, 25 Dec 2020 22:48:00 GMT","geolocations":[{"name":"Europe","count":1,"lat":-33.98201,"lng":18.58413,"type":"point"},{"name":"Berlin","count":1,"lat":52.51604,"lng":13.37691,"type":"point"},{"name":"Paris","count":1,"lat":48.85717,"lng":2.3414,"type":"point"},{"name":"Rome","count":1,"lat":41.90322,"lng":12.49565,"type":"point"},{"name":"Brussels","count":1,"lat":50.84439,"lng":4.35609,"type":"point"}],"source":"The Guardian"},{"feed_name":"World","feed_url":"https://www.latimes.com/world/rss2.0.xml","title":"Haves vs. have-nots: Who 'deserves' to be next in line for the COVID-19 vaccine?","summary":"<p>Americans waiting their turn for a COVID-19 vaccine may not be pleased to see who's in line ahead of them. Does a prisoner or smoker deserve it more?</p>","link":"https://www.latimes.com/science/story/2020-12-19/who-deserves-to-get-covid-19-vaccine-next","published":"Sat, 19 Dec 2020 15:05:56 -0500","geolocations":[{"name":"U.S.","count":3,"lat":38.89037,"lng":-77.03196,"type":"country"},{"name":"The United States","count":1,"lat":38.89037,"lng":-77.03196,"type":"country"},{"name":"California","count":1,"lat":38.57944,"lng":-121.49085,"type":"point"},{"name":"North Carolina","count":1,"lat":35.78547,"lng":-78.6427,"type":"point"},{"name":"Maryland","count":1,"lat":38.97678,"lng":-76.49014,"type":"point"},{"name":"Delaware","count":1,"lat":39.15803,"lng":-75.52473,"type":"point"},{"name":"Utah","count":1,"lat":40.76031,"lng":-111.88822,"type":"point"},{"name":"New Mexico","count":1,"lat":35.69177,"lng":-105.93824,"type":"point"},{"name":"Nebraska","count":1,"lat":40.81362,"lng":-96.7073,"type":"point"},{"name":"Montana","count":1,"lat":46.58976,"lng":-112.02065,"type":"point"},{"name":"Massachusetts","count":1,"lat":42.35866,"lng":-71.05674,"type":"point"},{"name":"Colorado","count":1,"lat":39.74001,"lng":-104.99202,"type":"point"},{"name":"Polis","count":1,"lat":35.03688,"lng":32.40714,"type":"point"}],"source":"Los Angeles Times"},