[{"feed_name":"World - Europe","feed_url":"http://feeds.bbci.co.uk/news/world/rss.xml","title":"Blindian Project: Celebrating black and South Asian relationships","summary":"Blindian Project runs workshops to prepare couples for tricky family introductions.","link":"https://www.bbc.co.uk/news/world-us-canada-55370482","published":"Sat, 19 Dec 2020 00:00:32 GMT","geolocations":[{"name":"The United States","count":1,"lat":38.89037,"lng":-77.03196,"type":"country"},{"name":"Us","count":1,"lat":38.89037,"lng":-77.03196,"type":"country"}],"source":"BBC"},{"feed_name":"World","feed_url":"https://www.theguardian.com/world/rss","title":"Africa steps up fight against HIV with trial of new combination vaccines","summary":"<p>African-led study expected to involve 1,600 people over next three years in Uganda, Tanzania, Mozambique and South Africa<br /></p><p>The first trial in Africa to test two new vaccines to protect against HIV got under way in Uganda this week, raising hopes of an end to the epidemic that affects millions of people across the continent.</p><p>The African-led <a href=\"https://www.prepvacc.org/\">PrEPVacc study</a> will test two experimental combination vaccines to see if they can provide any protection against HIV in people most at risk of infection.</p> <a href=\"https://www.theguardian.com/global-development/2020/dec/18/africa-steps-up-fight-against-hiv-with-trial-of-new-combination-vaccines\">Continue reading...</a>","link":"https://www.theguardian.com/global-development/2020/dec/18/africa-steps-up-fight-against-hiv-with-trial-of-new-combination-vaccines","published":"Fri, 18 Dec 2020 06:45:01 GMT","geolocations":[{"name":"Uganda","count":8,"lat":0.31589,"lng":32.57501,"type":"country"},{"name":"Tanzania","count":2,"lat":-6.1735,"lng":35.74689,"type":"country"},{"name":"Mozambique","count":2,"lat":-25.97456,"lng":32.57327,"type":"country"},{"name":"South Africa","count":3,"lat":-25.74587,"lng":28.18764,"type":"country"},{"name":"Africa","count":5,"lat":43.10832,"lng":12.77534,"type":"point"},{"name":"Europe","count":1,"lat":-33.98201,"lng":18.58413,"type":"point"},{"name":"Us","count":1,"lat":38.89037,"lng":-77.03196,"type":"country"},{"name":"Masaka","count":1,"lat":-0.31706,"lng":31.74184,"type":"point"}],"source":"The Guardian"},{"feed_name":"World","feed_url":"https://www.theguardian.com/world/rss","title":"'If a smuggler says do it, you do': refugees on trying to rescue their friends from the Channel","summary":"<p>Two Kurdish asylum seekers made frantic attempts to save lives of family whose boat capsized in rough conditions </p><p>Two asylum seekers who were in the same boat as a Kurdish Iranian family who <a href=\"https://www.theguardian.com/uk-news/2020/oct/29/maybe-we-will-reach-the-uk-or-maybe-we-will-die-in-the-sea-say-asylum-seekers\">drowned</a> trying to cross the Channel have spoken out about their frantic attempts to save the family’s lives after the vessel capsized.</p><p>Rasul Iran Nezhad, his wife, Shiva Mohammad Panahi, both 35, and their children: Anita, nine, Armin, six, and 15-month-old Artin, were among 22 people who boarded the boat, a rigid polyester structure about 20ft long, in October.</p> <a href=\"https://www.theguardian.com/uk-news/2020/dec/19/if-a-smuggler-says-do-it-you-do-refugees-on-trying-to-rescue-their-friends-from-the-channel\">Continue reading...</a>","link":"https://www.theguardian.com/uk-news/2020/dec/19/if-a-smuggler-says-do-it-you-do-refugees-on-trying-to-rescue-their-friends-from-the-channel","published":"Sat, 19 Dec 2020 07:00:43 GMT","geolocations":[{"name":"Sardasht","count":1,"lat":37.18721,"lng":43.53521,"type":"point"},{"name":"Iran","count":4,"lat":35.68877,"lng":51.41503,"type":"country"},{"name":"Calais","count":1,"lat":50.95319,"lng":1.85366,"type":"point"},{"name":"Artin","count":1,"lat":45.846,"lng":1.76912,"type":"point"},{"name":"Jungle","count":1,"lat":46.04497,"lng":-0.05649,"type":"point"}],"source":"The Guardian"},{"feed_name":"World - Europe","feed_url":"http://feeds.bbci.co.uk/news/world/rss.xml","title":"François Bozizé: CAR accuses former president of 'attempted coup'","summary":"The Central African Republic says forces loyal to François Bozizé plan to march on the capital Bangui.","link":"https://www.bbc.co.uk/news/world-africa-55376322","published":"Sat, 19 Dec 2020 19:54:41 GMT","geolocations":[{"name":"Africa","count":1,"lat":43.10832,"lng":12.77534,"type":"point"}],"source":"BBC"},{"feed_name":"World - Europe","feed_url":"http://feeds.bbci.co.uk/news/world/rss.xml","title":"US cyber-attack: Russia 'clearly' behind SolarWinds operation, says Pompeo","summary":"US secretary of state says Moscow \"clearly\" responsible but President Trump says it's \"under control\".","link":"https://www.bbc.co.uk/news/world-us-canada-55374945","published":"Sat, 19 Dec 2020 17:33:36 GMT","geolocations":[{"name":"Russia","count":3,"lat":55.75696,"lng":37.61502,"type":"country"},{"name":"China","count":1,"lat":39.90657,"lng":116.38765,"type":"country"}],"source":"BBC"},{"feed_name":"World - Europe","feed_url":"http://feeds.bbci.co.uk/news/world/rss.xml","title":"Senegal's Dakar Fashion Week: The catwalk in a baobab forest","summary":"Held outside because of the pandemic, a fashion show in Senegal embraces the environmental message.","link":"https://www.bbc.co.uk/news/world-africa-55300261","published":"Tue, 15 Dec 2020 00:07:25 GMT","geolocations":[{"name":"Senegal","count":1,"lat":14.66927,"lng":-17.43661,"type":"country"}],"source":"BBC"},{"feed_name":"World","feed_url":"https://www.latimes.com/world/rss2.0.xml","title":"McManus: Trump has changed tactics in his election fight. His new approach is more dangerous","summary":"<p>Trump's challenge to vote counts has become a brazen demand to award him the election — and strengthen his control of the Republican Party.</p>","link":"https://www.latimes.com/politics/story/2020-12-13/trump-has-changed-tactics-in-his-election-fight-his-new-approach-is-more-dangerous","published":"Sun, 13 Dec 2020 07:00:58 -0500","geolocations":[{"name":"Texas","count":1,"lat":30.26759,"lng":-97.74299,"type":"point"},{"name":"Pennsylvania","count":2,"lat":40.25986,"lng":-76.88223,"type":"point"},{"name":"Wisconsin","count":1,"lat":43.07313,"lng":-89.38644,"type":"point"},{"name":"Michigan","count":1,"lat":42.73194,"lng":-84.55225,"type":"point"}],"source":"Los Angeles Times"},{"feed_name":"World - Europe","feed_url":"http://feeds.bbci.co.uk/news/world/rss.xml","title":"Lionel Messi equals Pele goalscoring record with 643rd goal for Barcelona","summary":"Lionel Messi scores his 643rd goal for Barcelona - equalling Pele's record for goals for a single club - but his side draw at home to Valencia.","link":"https://www.bbc.co.uk/sport/football/55376859","published":"Sat, 19 Dec 2020 17:58:02 GMT","geolocations":[{"name":"Barcelona","count":4,"lat":41.38804,"lng":2.17001,"type":"point"},{"name":"Brazil","count":1,"lat":-15.77829,"lng":-47.92909,"type":"country"},{"name":"Valencia","count":2,"lat":39.46894,"lng":-0.37686,"type":"point"},{"name":"Albacete","count":1,"lat":38.99793,"lng":-1.85292,"type":"point"},{"name":"La Liga","count":1,"lat":18.3945,"lng":-66.16468,"type":"point"},{"name":"Atletico","count":1,"lat":-19.8685,"lng":-43.89577,"type":"point"},{"name":"Madrid","count":1,"lat":40.41955,"lng":-3.69196,"type":"point"},{"name":"Uruguay","count":1,"lat":-34.87417,"lng":-56.16293,"type":"country"}],"source":"BBC"},{"feed_name":"World","feed_url":"https://www.theguardian.com/world/rss","title":"Charlie Hebdo: four men charged over Paris knife attack","summary":"<p>Arrest of Pakistanis held on suspicion of inciting attacker comes after court convicts 14 people linked to 2015 terrorist massacre</p><p>French authorities have charged and detained four Pakistanis suspected of links to a meat cleaver attack by a compatriot outside the former offices of the Charlie Hebdo weekly that wounded two people, the national counter-terrorism prosecutor’s office has said. </p><p>The four male suspects, aged 17 to 21, were in contact with the attacker, a source familiar with the case said on Friday.</p> <a href=\"https://www.theguardian.com/world/2020/dec/20/charlie-hebdo-four-men-charged-over-paris-knife-attack\">Continue reading...</a>","link":"https://www.theguardian.com/world/2020/dec/20/charlie-hebdo-four-men-charged-over-paris-knife-attack","published":"Sun, 20 Dec 2020 02:57:32 GMT","geolocations":[{"name":"Caen","count":1,"lat":49.18433,"lng":-0.36118,"type":"point"},{"name":"Paris","count":2,"lat":48.85717,"lng":2.3414,"type":"point"},{"name":"France","count":2,"lat":48.85717,"lng":2.3414,"type":"country"},{"name":"Pakistan","count":1,"lat":33.70964,"lng":73.07545,"type":"point"},{"name":"Europe","count":1,"lat":-33.98201,"lng":18.58413,"type":"point"},{"name":"Mediterranean","count":1,"lat":25.04446,"lng":55.13858,"type":"point"},{"name":"Nice","count":1,"lat":43.70028,"lng":7.27765,"type":"point"}],"source":"The Guardian"},{"feed_name":"World","feed_url":"https://rss.nytimes.com/services/xml/rss/nyt/World.xml","title":"‘A Social Species’: How Kangaroos Communicate With People","summary":"Researchers say that kangaroos are the first wild animals to exhibit interspecies communication that is more commonly seen in animals that have evolved alongside humans.","link":"https://www.nytimes.com/2020/12/18/world/australia/kangaroos-communicate.html","published":"Fri, 18 Dec 2020 13:45:32 +0000","geolocations":[{"name":"Melbourne","count":1,"lat":-37.81739,"lng":144.96751,"type":"point"},{"name":"Australia","count":2,"lat":-35.30654,"lng":149.12655,"type":"country"},{"name":"United Kingdom","count":1,"lat":38.95953,"lng":-91.92768,"type":"point"}],"source":"The New York Times"},{"feed_name":"World","feed_url":"https://rss.nytimes.com/services/xml/rss/nyt/World.xml","title":"California Coronavirus Cases Rise Despite Strict Measures","summary":"","link":"https://www.nytimes.com/2020/12/17/world/california-covid-cases.html","published":"Fri, 18 Dec 2020 19:26:23 +0000","geolocations":[{"name":"California","count":1,"lat":38.57944,"lng":-121.49085,"type":"point"},{"name":"Los Angeles County","count":2,"lat":34.28089,"lng":-119.14472,"type":"point"}],"source":"The New York Times"},{"feed_name":"World","feed_url":"https://www.theguardian.com/world/rss","title":"'Important and symbolic': US vice-president Mike Pence vaccinated for Covid – video","summary":"<p>The US vice-president, Mike Pence, received his Covid-19 vaccine on Friday morning. Dr Anthony Fauci, who was present for the 'symbolic' inoculation, said it should serve as an example for all Americans called to do so to get vaccinated.&nbsp;</p><p>US&nbsp;deaths from coronavirus topped 3,000 for a third straight day and the country reported a record number of new infections</p><ul><li><a href=\"https://www.theguardian.com/world/live/2020/dec/18/coronavirus-live-news-covid-updates-european-leaders-self-isolate-after-macron-tests-positive?page=with:block-5fdcaa308f08f114e00bebf9#block-5fdcaa308f08f114e00bebf9\">Coronavirus live news</a></li></ul> <a href=\"https://www.theguardian.com/us-news/video/2020/dec/18/important-and-symbolic-us-vice-president-mike-pence-vaccinated-for-covid-video\">Continue reading...</a>","link":"https://www.theguardian.com/us-news/video/2020/dec/18/important-and-symbolic-us-vice-president-mike-pence-vaccinated-for-covid-video","published":"Fri, 18 Dec 2020 14:33:06 GMT","geolocations":[{"name":"Us","count":2,"lat":38.89037,"lng":-77.03196,"type":"country"}],"source":"The Guardian"},{"feed_name":"World","feed_url":"https://www.theguardian.com/world/rss","title":"Nigerian schoolboys meet president after kidnap ordeal","summary":"<p>Some of 344 children recount their ordeal as they meet with Muhammdu Buhari in Katsina<br /></p><p>Nigeria’s president, Muhammdu Buhari, has met with more than 300 schoolboys kidnapped a week ago in the country’s restive north-west as authorities celebrated their freedom amid widespread anger in the country at deepening insecurity.</p><p>The 344 boys arrived in the city of Katsina on Friday morning, relieved to be free but exhausted from a week spent in captivity following their abduction by local bandit groups in a raid claimed by the Islamist militants Boko Haram. They were rescued on Thursday night from a forest enclave, according to the governor of Katsina state, Aminu Masari.</p> <a href=\"https://www.theguardian.com/world/2020/dec/18/hundreds-of-freed-nigerian-schoolboys-to-be-reunited-with-families\">Continue reading...</a>","link":"https://www.theguardian.com/world/2020/dec/18/hundreds-of-freed-nigerian-schoolboys-to-be-reunited-with-families","published":"Fri, 18 Dec 2020 17:12:39 GMT","geolocations":[{"name":"Nigeria","count":5,"lat":9.06344,"lng":7.46228,"type":"country"},{"name":"Katsina","count":4,"lat":12.99129,"lng":7.59995,"type":"point"},{"name":"Kankara","count":3,"lat":11.9323,"lng":7.41021,"type":"point"},{"name":"Kankara Town","count":1,"lat":11.9323,"lng":7.41021,"type":"point"},{"name":"Niger","count":1,"lat":13.51627,"lng":2.11633,"type":"country"}],"source":"The Guardian"},{"feed_name":"World","feed_url":"https://rss.nytimes.com/services/xml/rss/nyt/World.xml","title":"The New York City Sheriff’s Office has a crucial role during the pandemic.","summary":"","link":"https://www.nytimes.com/2020/12/15/world/the-new-york-city-sheriffs-office-has-a-crucial-role-during-the-pandemic.html","published":"Sat, 19 Dec 2020 14:39:03 +0000","geolocations":[{"name":"Staten Island","count":1,"lat":40.64242,"lng":-74.07527,"type":"point"},{"name":"New York City","count":1,"lat":40.71455,"lng":-74.00714,"type":"point"}],"source":"The New York Times"},{"feed_name":"World","feed_url":"https://www.theguardian.com/world/rss","title":"Father and daughter drown in Murrumbidgee River south of Canberra","summary":"<p>Police say another daughter called for help after seeing her father and sister in trouble</p><p>A man and his daughter have drowned in the Murrumbidgee River in the ACT.</p><p>Police were called to a swimming hole south of Canberra, the Tharwa Sandwash, about 2.20pm on Saturday after receiving reports that people were in difficulty.</p> <a href=\"https://www.theguardian.com/australia-news/2020/dec/20/father-and-daughter-drown-in-murrumbidgee-river-south-of-canberra\">Continue reading...</a>","link":"https://www.theguardian.com/australia-news/2020/dec/20/father-and-daughter-drown-in-murrumbidgee-river-south-of-canberra","published":"Sun, 20 Dec 2020 01:10:33 GMT","geolocations":[{"name":"The Murrumbidgee River","count":1,"lat":-34.54534,"lng":145.94892,"type":"point"},{"name":"Canberra","count":1,"lat":-35.30654,"lng":149.12655,"type":"point"}],"source":"The Guardian"},{"feed_name":"World","feed_url":"https://rss.nytimes.com/services/xml/rss/nyt/World.xml","title":"Spanish Lawmakers Pass Bill Allowing Euthanasia and Assisted Suicide","summary":"The draft law goes to the Senate, where it is likely to pass. The country would join a handful of others allowing terminally ill patients to obtain aid to end their lives.","link":"https://www.nytimes.com/2020/12/17/world/europe/spain-euthanasia-assisted-suicide.html","published":"Fri, 18 Dec 2020 09:02:08 +0000","geolocations":[{"name":"Madrid","count":1,"lat":40.41955,"lng":-3.69196,"type":"point"},{"name":"Spain","count":3,"lat":40.41955,"lng":-3.69196,"type":"country"}],"source":"The New York Times"},{"feed_name":"World","feed_url":"https://rss.nytimes.com/services/xml/rss/nyt/World.xml","title":"Pelosi receives the vaccine, to be followed by other members of Congress and Supreme Court justices.","summary":"","link":"https://www.nytimes.com/2020/12/18/world/pelosi-receives-the-vaccine-to-be-followed-by-other-members-of-congress-and-supreme-court-justices.html","published":"Fri, 18 Dec 2020 18:25:47 +0000","geolocations":[{"name":"California","count":1,"lat":38.57944,"lng":-121.49085,"type":"point"}],"source":"The New York Times"},{"feed_name":"World","feed_url":"https://rss.nytimes.com/services/xml/rss/nyt/World.xml","title":"Epstein Associate Is Charged With Rape of Minors in France","summary":"Jean-Luc Brunel, 74, is also being investigated on suspicion of human trafficking of minors for sexual exploitation, the Paris prosecutor said.","link":"https://www.nytimes.com/2020/12/19/world/europe/france-epstein-brunel.html","published":"Sat, 19 Dec 2020 15:48:49 +0000","geolocations":[{"name":"Paris","count":3,"lat":48.85717,"lng":2.3414,"type":"point"}],"source":"The New York Times"},{"feed_name":"World","feed_url":"https://www.theguardian.com/world/rss","title":"Strict Christmas travel ban for Scotland as Wales enters early lockdown","summary":"<p>Scotland and Wales also reduce five-day festive window for indoor mixing to one day</p><ul><li><a href=\"https://www.theguardian.com/world/series/coronavirus-live/latest\">Coronavirus – latest updates</a></li><li><a href=\"https://www.theguardian.com/world/coronavirus-outbreak\">See all our coronavirus coverage</a></li></ul><p>There will be a strict travel ban between Scotland and the rest of the UK throughout the festive period, and the five-day Christmas window for indoor mixing will be reduced to just Christmas Day, Nicola Sturgeon has said.</p><p>In Wales, first minister Mark Drakeford likewise scrapped festive relaxation plans for all but Christmas Day and brought forward the country’s lockdown which will now start from midnight on Saturday.</p> <a href=\"https://www.theguardian.com/uk-news/2020/dec/19/strict-christmas-travel-ban-between-scotland-and-rest-of-uk-announced\">Continue reading...</a>","link":"https://www.theguardian.com/uk-news/2020/dec/19/strict-christmas-travel-ban-between-scotland-and-rest-of-uk-announced","published":"Sat, 19 Dec 2020 18:38:37 GMT","geolocations":[{"name":"Scotland","count":8,"lat":55.95438,"lng":-3.20144,"type":"country"},{"name":"Wales","count":2,"lat":51.48127,"lng":-3.18072,"type":"country"},{"name":"England","count":2,"lat":51.50643,"lng":-0.12719,"type":"country"}],"source":"The Guardian"},{"feed_name":"World","feed_url":"https://www.theguardian.com/world/rss","title":"Tova O'Brien 2020 Politics year in review |Tova O'Brien","summary":"<p>Despite political screw-ups and scandal, New Zealand is in a relatively good place right now</p><p>Remember January 2020? We were young, carefree and full of hope. The political year in New Zealand started like any other but then the wheels came off spectacularly, and in a way none of us could have predicted.</p><p>Covid, coups, conspiracies, scandal, leaks, lies, leadership, lockdowns, misinformation, ministerial screw-ups, a sexting MP. It was immense – and that was before we hit the campaign trail.</p> <a href=\"https://www.theguardian.com/world/commentisfree/2020/dec/19/tova-obrien-2020-politics-year-in-review\">Continue reading...</a>","link":"https://www.theguardian.com/world/commentisfree/2020/dec/19/tova-obrien-2020-politics-year-in-review","published":"Fri, 18 Dec 2020 19:00:29 GMT","geolocations":[{"name":"New Zealand","count":3,"lat":-41.28949,"lng":174.77694,"type":"country"},{"name":"Beehive","count":1,"lat":32.55463,"lng":-85.57608,"type":"point"},{"name":"Auckland","count":1,"lat":-36.85232,"lng":174.76388,"type":"point"},{"name":"Whakaari","count":1,"lat":-37.9931,"lng":177.23893,"type":"point"},{"name":"White Island","count":1,"lat":51.52105,"lng":0.55613,"type":"point"},{"name":"The United States","count":1,"lat":38.89037,"lng":-77.03196,"type":"country"}],"source":"The Guardian"},{"feed_name":"World","feed_url":"https://rss.nytimes.com/services/xml/rss/nyt/World.xml","title":"California counts the dead by the hour as its I.C.U.s fill up.","summary":"","link":"https://www.nytimes.com/2020/12/18/world/covid-california-icu-capacity.html","published":"Fri, 18 Dec 2020 20:09:54 +0000","geolocations":[{"name":"California","count":1,"lat":38.57944,"lng":-121.49085,"type":"point"},{"name":"Los Angeles County","count":2,"lat":34.28089,"lng":-119.14472,"type":"point"}],"source":"The New York Times"},{"feed_name":"World","feed_url":"https://www.theguardian.com/world/rss","title":"Trump downplays government hack after Pompeo blames it on Russia","summary":"<p>Secretary of state is first in administration to point to Russia but Trump attacks media over reports</p><ul><li><a href=\"https://www.theguardian.com/technology/2020/dec/18/orion-hack-solarwinds-explainer-us-government\">What we know – and still don’t – about the cyber-attack</a></li></ul><p>Not long after Mike Pompeo became the first member of the Trump administration to blame Russia for <a href=\"https://www.theguardian.com/technology/2020/dec/18/orion-hack-solarwinds-explainer-us-government\">wide-ranging hacks</a> of US government agencies and <a href=\"https://www.theguardian.com/technology/2020/dec/18/suspected-russian-cyber-attack-growing-in-scale-microsoft-warns\">private companies</a> which have sent Washington scrambling to fill the breach, the president sought to play the hack down.</p><p> <span>Related: </span><a href=\"https://www.theguardian.com/technology/2020/dec/18/us-russia-hack-cyber-attack-federal-agencies-congress\">US scrambling to understand fallout of suspected Russia hack</a> </p> <a href=\"https://www.theguardian.com/us-news/2020/dec/19/mike-pompeo-we-can-say-pretty-clearly-russia-behind-hack-us-agencies\">Continue reading...</a>","link":"https://www.theguardian.com/us-news/2020/dec/19/mike-pompeo-we-can-say-pretty-clearly-russia-behind-hack-us-agencies","published":"Sat, 19 Dec 2020 18:35:51 GMT","geolocations":[{"name":"Russia","count":9,"lat":55.75696,"lng":37.61502,"type":"country"},{"name":"Us","count":8,"lat":38.89037,"lng":-77.03196,"type":"country"},{"name":"Washington","count":2,"lat":38.89037,"lng":-77.03196,"type":"point"},{"name":"China","count":1,"lat":39.90657,"lng":116.38765,"type":"country"},{"name":"Austin","count":1,"lat":30.26759,"lng":-97.74299,"type":"point"},{"name":"Texas","count":1,"lat":30.26759,"lng":-97.74299,"type":"point"},{"name":"Usa","count":1,"lat":38.89037,"lng":-77.03196,"type":"country"},{"name":"California","count":1,"lat":38.57944,"lng":-121.49085,"type":"point"},{"name":"Utah","count":1,"lat":40.76031,"lng":-111.88822,"type":"point"},{"name":"Syria","count":1,"lat":33.51656,"lng":36.31708,"type":"point"},{"name":"Ukraine","count":1,"lat":50.45056,"lng":30.52428,"type":"country"},{"name":"Moscow","count":3,"lat":55.75696,"lng":37.61502,"type":"point"},{"name":"Vladivostock","count":1,"lat":43.11566,"lng":131.8859,"type":"point"},{"name":"The United States","count":1,"lat":38.89037,"lng":-77.03196,"type":"country"}],"source":"The Guardian"},{"feed_name":"World","feed_url":"https://rss.nytimes.com/services/xml/rss/nyt/World.xml","title":"The pandemic pushes the start of a major 9/11 trial past the 20th anniversary of the attacks.","summary":"","link":"https://www.nytimes.com/2020/12/19/world/the-pandemic-pushes-the-start-of-a-major-9-11-trial-past-the-20th-anniversary-of-the-attacks.html","published":"Sat, 19 Dec 2020 14:39:03 +0000","geolocations":[{"name":"Cuba","count":1,"lat":23.13211,"lng":-82.36749,"type":"country"},{"name":"U.S.","count":1,"lat":38.89037,"lng":-77.03196,"type":"country"}],"source":"The New York Times"},{"feed_name":"World","feed_url":"https://www.latimes.com/world/rss2.0.xml","title":"'Will they let us live?' Inside Xinjiang, survivors of China's internment camps speak","summary":"<p>A vast system of Chinese surveillance, detention, cultural erasure and forced labor has devastated the Uighur people in Xingiang, their homeland.</p>","link":"https://www.latimes.com/world-nation/story/2020-12-17/china-xinjiang-uighurs-muslim-minority-camps","published":"Thu, 17 Dec 2020 13:42:15 -0500","geolocations":[{"name":"Xinjiang","count":19,"lat":35.61469,"lng":111.21768,"type":"point"},{"name":"China","count":5,"lat":39.90657,"lng":116.38765,"type":"country"},{"name":"Jevlan Shirmemmet","count":1,"lat":45.38941,"lng":-84.92315,"type":"point"},{"name":"Istanbul","count":1,"lat":41.06201,"lng":28.98877,"type":"point"},{"name":"Turkey","count":2,"lat":39.92109,"lng":32.85391,"type":"country"},{"name":"Kashgar","count":2,"lat":51.48714,"lng":0.09757,"type":"point"},{"name":"Korla","count":5,"lat":22.98609,"lng":85.13433,"type":"point"},{"name":"East Turkestan","count":1,"lat":43.31648,"lng":68.2409,"type":"point"},{"name":"Urumqi","count":2,"lat":43.78787,"lng":87.58627,"type":"point"},{"name":"Google Earth","count":1,"lat":38.76564,"lng":-90.46003,"type":"point"},{"name":"U.S.","count":1,"lat":38.89037,"lng":-77.03196,"type":"country"}],"source":"Los Angeles Times"},{"feed_name":"World","feed_url":"https://www.latimes.com/world/rss2.0.xml","title":"Environmental justice groups block Mary Nichols' path to EPA","summary":"<p>Mary Nichols' climate policies made her an environmental celebrity, but her support for California's cap-and-trade program drew opposition.</p>","link":"https://www.latimes.com/environment/story/2020-12-17/environmental-justice-groups-block-mary-nichols-path-to-epa","published":"Thu, 17 Dec 2020 13:06:03 -0500","geolocations":[{"name":"California","count":7,"lat":38.57944,"lng":-121.49085,"type":"point"},{"name":"North Carolina","count":1,"lat":35.78547,"lng":-78.6427,"type":"point"},{"name":"America","count":1,"lat":51.43739,"lng":5.98176,"type":"point"},{"name":"North America","count":1,"lat":36.19711,"lng":-94.52681,"type":"point"},{"name":"Nebraska","count":1,"lat":40.81362,"lng":-96.7073,"type":"point"},{"name":"Quebec","count":1,"lat":46.81273,"lng":-71.2193,"type":"point"},{"name":"South L.A.","count":1,"lat":5.71851,"lng":-0.48509,"type":"point"},{"name":"Black Communities","count":1,"lat":34.64722,"lng":-106.73226,"type":"point"},{"name":"The United States","count":1,"lat":38.89037,"lng":-77.03196,"type":"country"},{"name":"L.A.","count":1,"lat":17.9518,"lng":102.61892,"type":"country"}],"source":"Los Angeles Times"},{"feed_name":"World","feed_url":"https://www.latimes.com/world/rss2.0.xml","title":"What happens to the Space Force after the Trump administration?","summary":"<p>President Trump championed the creation of the Space Force, but he has done little to ensure it has the funding, staffing and authority to succeed.</p>","link":"https://www.latimes.com/business/story/2020-12-15/space-force-biden-trump","published":"Tue, 15 Dec 2020 08:00:14 -0500","geolocations":[{"name":"U.S.","count":6,"lat":38.89037,"lng":-77.03196,"type":"country"},{"name":"Florida","count":1,"lat":30.43977,"lng":-84.28065,"type":"point"},{"name":"China","count":2,"lat":39.90657,"lng":116.38765,"type":"country"},{"name":"Russia","count":1,"lat":55.75696,"lng":37.61502,"type":"country"},{"name":"San Diego","count":1,"lat":32.71568,"lng":-117.16171,"type":"point"}],"source":"Los Angeles Times"},{"feed_name":"World","feed_url":"https://rss.nytimes.com/services/xml/rss/nyt/World.xml","title":"Syria, Burdened by War's Destruction, Now Faces Covid","summary":"","link":"https://www.nytimes.com/2020/12/19/world/covid-syria-surge-warning.html","published":"Sat, 19 Dec 2020 15:36:56 +0000","geolocations":[{"name":"Syria","count":3,"lat":33.51656,"lng":36.31708,"type":"point"}],"source":"The New York Times"},{"feed_name":"World","feed_url":"https://rss.nytimes.com/services/xml/rss/nyt/World.xml","title":"How to reset the relationship between the U.S. and China","summary":"A group of experts gathered to debate the prospects for cooperation and competition between the world’s most powerful economies.","link":"https://www.nytimes.com/2020/12/18/business/dealbook/us-china-relations-debate.html","published":"Fri, 18 Dec 2020 11:47:52 +0000","geolocations":[{"name":"China","count":10,"lat":39.90657,"lng":116.38765,"type":"country"},{"name":"The United States","count":1,"lat":38.89037,"lng":-77.03196,"type":"country"}],"source":"The New York Times"},{"feed_name":"World","feed_url":"https://www.latimes.com/world/rss2.0.xml","title":"Yemen is collapsing. That may be its salvation","summary":"<p>Weakened by war, Yemen's government is barely functioning, but that has allowed creative local leaders to thrive — and perhaps show the way forward.</p>","link":"https://www.latimes.com/world-nation/story/2020-12-15/yemen-collapsing-may-be-its-salvation","published":"Tue, 15 Dec 2020 04:30:13 -0500","geolocations":[{"name":"Yemen","count":17,"lat":15.3667,"lng":44.21122,"type":"point"},{"name":"Shabwa Province","count":5,"lat":-21.84459,"lng":166.1412,"type":"point"},{"name":"Shabwa Bride","count":2,"lat":-17.29312,"lng":31.56674,"type":"point"},{"name":"Bir Ali Beach","count":1,"lat":34.73935,"lng":10.09291,"type":"point"},{"name":"Iran","count":2,"lat":35.68877,"lng":51.41503,"type":"country"},{"name":"Saudi Arabia","count":4,"lat":24.68211,"lng":46.68722,"type":"country"},{"name":"The United Arab Emirates","count":6,"lat":24.46918,"lng":54.37173,"type":"country"},{"name":"Shabwa","count":4,"lat":-2.5783,"lng":29.46277,"type":"point"},{"name":"Ataq","count":4,"lat":45.93736,"lng":18.2979,"type":"point"},{"name":"Sanaa","count":3,"lat":15.3667,"lng":44.21122,"type":"point"},{"name":"Mississippi","count":1,"lat":32.29887,"lng":-90.18045,"type":"point"},{"name":"Aden","count":2,"lat":49.04041,"lng":-111.31952,"type":"point"},{"name":"The Arabian Peninsula","count":1,"lat":60.52679,"lng":-150.77577,"type":"point"},{"name":"Emirates","count":2,"lat":24.46918,"lng":54.37173,"type":"country"},{"name":"Nassi","count":1,"lat":54.8945,"lng":23.90996,"type":"point"},{"name":"London","count":1,"lat":51.50643,"lng":-0.12719,"type":"point"}],"source":"Los Angeles Times"},{"feed_name":"World","feed_url":"https://www.theguardian.com/world/rss","title":"Winter in the coldest city on Earth – in pictures","summary":"<p>Located south of the Arctic Circle, in Russia’s far east, Yakutsk is known for its severe climate</p> <a href=\"https://www.theguardian.com/world/gallery/2020/dec/18/winter-in-the-coldest-city-on-earth-in-pictures\">Continue reading...</a>","link":"https://www.theguardian.com/world/gallery/2020/dec/18/winter-in-the-coldest-city-on-earth-in-pictures","published":"Fri, 18 Dec 2020 07:00:02 GMT","geolocations":[{"name":"The Yana River","count":1,"lat":-1.49136,"lng":40.03294,"type":"point"},{"name":"Antarctica","count":1,"lat":51.99164,"lng":4.23464,"type":"point"}],"source":"The Guardian"},{"feed_name":"World","feed_url":"https://www.latimes.com/world/rss2.0.xml","title":"Tyson Foods fires 7 managers accused of betting on employee COVID-19 infections at Iowa plant","summary":"<p>Seven Tyson Foods plant managers who were accused of betting on how many employees would get coronavirus were fired Wednesday, the company said.</p>","link":"https://www.latimes.com/world-nation/story/2020-12-17/tyson-foods-fires-7-managers-accused-of-betting-on-employee-covid-19-infections-at-io","published":"Thu, 17 Dec 2020 04:19:06 -0500","geolocations":[{"name":"Tyson","count":1,"lat":28.23991,"lng":-81.19455,"type":"point"},{"name":"Waterloo","count":1,"lat":43.46339,"lng":-80.52075,"type":"point"},{"name":"Iowa","count":3,"lat":41.58981,"lng":-93.61538,"type":"point"},{"name":"U.S.","count":3,"lat":38.89037,"lng":-77.03196,"type":"country"}],"source":"Los Angeles Times"},{"feed_name":"World","feed_url":"https://rss.nytimes.com/services/xml/rss/nyt/World.xml","title":"Once a Slogan of Unity, ‘Je Suis Charlie’ Now Divides France","summary":"After the 2015 terrorist attack on Charlie Hebdo, “I am Charlie” became a unifying slogan of free speech. Now it fuels divisions in an increasingly polarized country.","link":"https://www.nytimes.com/2020/12/19/world/europe/france-charlie-hebdo-slogan.html","published":"Sat, 19 Dec 2020 11:18:09 +0000","geolocations":[{"name":"Paris","count":1,"lat":48.85717,"lng":2.3414,"type":"point"},{"name":"France","count":4,"lat":48.85717,"lng":2.3414,"type":"country"},{"name":"Hollywood","count":1,"lat":26.01067,"lng":-80.16026,"type":"point"}],"source":"The New York Times"},{"feed_name":"World","feed_url":"https://www.latimes.com/world/rss2.0.xml","title":"Column: Why the U.S. still hasn't solved its mask and glove shortages","summary":"<p>How can it be that we helped develop a vaccine against COVID-19, but front-line healthcare workers still face shortages of simple protective equipment?</p>","link":"https://www.latimes.com/politics/story/2020-12-16/column-why-the-u-s-still-hasnt-solved-its-mask-and-glove-shortages","published":"Wed, 16 Dec 2020 07:00:30 -0500","geolocations":[{"name":"U.S.","count":1,"lat":38.89037,"lng":-77.03196,"type":"country"},{"name":"The United States","count":2,"lat":38.89037,"lng":-77.03196,"type":"country"}],"source":"Los Angeles Times"},{"feed_name":"World","feed_url":"https://rss.nytimes.com/services/xml/rss/nyt/World.xml","title":"Lebanese Officials Try to Limit Inquiry Into Deadly Beirut Blast","summary":"Months after a huge explosion in Beirut’s port, the investigation has become mired in politics as powerful forces band together to block efforts to hold leaders accountable.","link":"https://www.nytimes.com/2020/12/19/world/middleeast/beirut-explosion-investigation-arrests.html","published":"Sat, 19 Dec 2020 16:52:09 +0000","geolocations":[{"name":"Beirut","count":3,"lat":33.89607,"lng":35.50678,"type":"point"},{"name":"Lebanon","count":3,"lat":33.89607,"lng":35.50678,"type":"country"}],"source":"The New York Times"},{"feed_name":"World","feed_url":"https://www.latimes.com/world/rss2.0.xml","title":"A talk with France's ambassador: On Biden, climate accord and restoring allies' trust","summary":"<p>The Times speaks with Philippe Etienne, France's envoy to the U.S., on Biden's promise to rejoin the five-year-old Paris Accord that Trump disavowed.</p>","link":"https://www.latimes.com/politics/story/2020-12-14/a-talk-with-frances-ambassador-on-biden-climate-accord-and-restoring-allies-trust","published":"Mon, 14 Dec 2020 13:56:44 -0500","geolocations":[{"name":"Paris","count":2,"lat":48.85717,"lng":2.3414,"type":"point"},{"name":"France","count":1,"lat":48.85717,"lng":2.3414,"type":"country"},{"name":"The United States","count":6,"lat":38.89037,"lng":-77.03196,"type":"country"},{"name":"United States","count":1,"lat":38.89037,"lng":-77.03196,"type":"country"},{"name":"U.S.","count":10,"lat":38.89037,"lng":-77.03196,"type":"country"},{"name":"Europe","count":1,"lat":-33.98201,"lng":18.58413,"type":"point"},{"name":"Planet","count":1,"lat":44.77373,"lng":5.64697,"type":"point"}],"source":"Los Angeles Times"},{"feed_name":"World","feed_url":"https://rss.nytimes.com/services/xml/rss/nyt/World.xml","title":"Former Governor of Jalisco, Mexico, Is Killed in Puerto Vallarta","summary":"Aristóteles Sandoval was shot in the back inside a restaurant restroom in one of the highest-profile political killings in Mexico in recent memory.","link":"https://www.nytimes.com/2020/12/18/world/americas/mexico-governor-killed.html","published":"Fri, 18 Dec 2020 23:33:32 +0000","geolocations":[{"name":"Mexico City","count":1,"lat":19.27691,"lng":-99.13939,"type":"point"},{"name":"Jalisco","count":1,"lat":20.58078,"lng":-103.61323,"type":"point"},{"name":"Puerto Vallarta","count":1,"lat":20.60841,"lng":-105.23525,"type":"point"},{"name":"Mexico","count":3,"lat":23.94757,"lng":-102.5411,"type":"country"}],"source":"The New York Times"},{"feed_name":"World","feed_url":"https://www.latimes.com/world/rss2.0.xml","title":"Unwelcome in other countries, Americans are fleeing lockdowns and flocking to Mexico","summary":"<p>Tourism is quickly recovering in Mexico, as Americans flock south for an easy escape. But it's also bringing an uptick in COVID-19 cases.</p>","link":"https://www.latimes.com/world-nation/story/2020-12-13/unwelcome-in-other-countries-and-amid-lockdowns-at-home-americans-are-flocking-to-mexico","published":"Sun, 13 Dec 2020 06:00:37 -0500","geolocations":[{"name":"Cabo San Lucas","count":5,"lat":22.89406,"lng":-109.92628,"type":"point"},{"name":"Houston","count":2,"lat":29.76078,"lng":-95.36952,"type":"point"},{"name":"U.S.","count":1,"lat":38.89037,"lng":-77.03196,"type":"country"},{"name":"Mexico","count":8,"lat":23.94757,"lng":-102.5411,"type":"country"},{"name":"Pacific","count":2,"lat":38.48359,"lng":-90.74141,"type":"point"},{"name":"Caribbean","count":2,"lat":30.47333,"lng":-86.42132,"type":"point"},{"name":"Canada","count":3,"lat":45.42178,"lng":-75.69116,"type":"country"},{"name":"Europe","count":1,"lat":-33.98201,"lng":18.58413,"type":"point"},{"name":"The United States","count":3,"lat":38.89037,"lng":-77.03196,"type":"country"},{"name":"San Jose","count":3,"lat":37.33865,"lng":-121.88542,"type":"point"},{"name":"Cabo","count":3,"lat":42.23805,"lng":1.24898,"type":"point"},{"name":"California","count":2,"lat":38.57944,"lng":-121.49085,"type":"point"},{"name":"Carpinteria","count":1,"lat":34.39152,"lng":-119.50831,"type":"point"},{"name":"Los Cabos","count":7,"lat":23.06158,"lng":-109.69529,"type":"point"},{"name":"Cancun","count":1,"lat":21.12741,"lng":-86.83753,"type":"point"},{"name":"Puerto Vallarta","count":1,"lat":20.60841,"lng":-105.23525,"type":"point"},{"name":"Tulum","count":1,"lat":20.21087,"lng":-87.46322,"type":"point"},{"name":"New York","count":1,"lat":40.71455,"lng":-74.00714,"type":"point"},{"name":"Miami","count":1,"lat":25.77481,"lng":-80.19773,"type":"point"},{"name":"Orange Villas","count":1,"lat":29.10582,"lng":-80.99153,"type":"point"},{"name":"Wisconsin","count":1,"lat":43.07313,"lng":-89.38644,"type":"point"},{"name":"Gulf","count":1,"lat":35.18009,"lng":-119.17264,"type":"point"},{"name":"Austin","count":1,"lat":30.26759,"lng":-97.74299,"type":"point"},{"name":"Texas","count":1,"lat":30.26759,"lng":-97.74299,"type":"point"}],"source":"Los Angeles Times"},{"feed_name":"World","feed_url":"https://rss.nytimes.com/services/xml/rss/nyt/World.xml","title":"The C.D.C. advisory panel has endorsed the Moderna vaccine.","summary":"","link":"https://www.nytimes.com/2020/12/19/world/the-cdc-advisory-panel-has-endorsed-the-moderna-vaccine.html","published":"Sat, 19 Dec 2020 22:53:04 +0000","geolocations":[{"name":"The United States","count":1,"lat":38.89037,"lng":-77.03196,"type":"country"},{"name":"United Kingdom","count":1,"lat":38.95953,"lng":-91.92768,"type":"point"}],"source":"The New York Times"},{"feed_name":"World","feed_url":"https://www.theguardian.com/world/rss","title":"How we stay together: 'I believe in some sort of brain waves that connect'","summary":"<p>Cecil and Stella Renfield met serving in the navy during the second world war, and after 75 years their adventurous spirit keeps them young </p><p><strong>Names:</strong> Cecil and Stella Renfield<br /><strong>Years together: </strong>75<br /><strong>Occupations:</strong> retired</p><p>If you ask Cecil Renfield for the secret to an enduring relationship, he has a simple answer: “Single beds.”</p> <a href=\"https://www.theguardian.com/lifeandstyle/2020/dec/20/how-we-stay-together-i-believe-in-some-sort-of-brain-waves-that-connect\">Continue reading...</a>","link":"https://www.theguardian.com/lifeandstyle/2020/dec/20/how-we-stay-together-i-believe-in-some-sort-of-brain-waves-that-connect","published":"Sat, 19 Dec 2020 19:00:58 GMT","geolocations":[{"name":"South Parade","count":1,"lat":51.77812,"lng":-1.26774,"type":"point"},{"name":"Southsea","count":1,"lat":50.78466,"lng":-1.08817,"type":"point"},{"name":"Portsmouth","count":2,"lat":50.80401,"lng":-1.08728,"type":"point"},{"name":"Manchester","count":1,"lat":53.47959,"lng":-2.24874,"type":"point"},{"name":"South Africa","count":5,"lat":-25.74587,"lng":28.18764,"type":"country"},{"name":"Edinburgh","count":1,"lat":55.95438,"lng":-3.20144,"type":"point"},{"name":"Northampton","count":1,"lat":52.23401,"lng":-0.89491,"type":"point"},{"name":"Johannesburg","count":2,"lat":-26.20491,"lng":28.04006,"type":"point"},{"name":"Cape Town","count":1,"lat":-33.91909,"lng":18.42198,"type":"point"},{"name":"Australia","count":3,"lat":-35.30654,"lng":149.12655,"type":"country"},{"name":"Shellharbour","count":1,"lat":-34.57586,"lng":150.86417,"type":"point"},{"name":"Sydney","count":2,"lat":-33.8696,"lng":151.20691,"type":"point"},{"name":"Wollongong","count":1,"lat":-34.42485,"lng":150.89303,"type":"point"},{"name":"Nowra","count":1,"lat":-34.87332,"lng":150.60083,"type":"point"}],"source":"The Guardian"},{"feed_name":"World","feed_url":"https://www.theguardian.com/world/rss","title":"South Sudan faces 'catastrophic' famine unless conflict ended","summary":"<p>UN agencies say millions at risk if aid can’t reach areas of country stricken by floods, violence and Covid-19</p><p>Parts of South Sudan are facing a “catastrophic” conflict-fuelled famine, humanitarian groups warned on Friday.</p><p>Three UN agencies have called for a halt to violence to allow urgent access to parts of Jonglei state, where they said people have already run out of food because of insecurity, flooding and the coronavirus pandemic.</p> <a href=\"https://www.theguardian.com/global-development/2020/dec/18/south-sudan-faces-catastrophic-famine-unless-conflict-ended\">Continue reading...</a>","link":"https://www.theguardian.com/global-development/2020/dec/18/south-sudan-faces-catastrophic-famine-unless-conflict-ended","published":"Fri, 18 Dec 2020 15:55:34 GMT","geolocations":[{"name":"Sudan","count":2,"lat":15.58651,"lng":32.52318,"type":"point"},{"name":"South Sudan","count":7,"lat":4.83975,"lng":31.59758,"type":"country"},{"name":"Unicef","count":1,"lat":9.01528,"lng":38.76898,"type":"point"},{"name":"Pibor County","count":1,"lat":59.35756,"lng":14.9719,"type":"point"},{"name":"Warrap","count":1,"lat":18.61606,"lng":73.12697,"type":"point"},{"name":"United Kingdom","count":1,"lat":38.95953,"lng":-91.92768,"type":"point"},{"name":"South Sudan’S","count":1,"lat":4.83975,"lng":31.59758,"type":"country"}],"source":"The Guardian"},{"feed_name":"World","feed_url":"https://www.theguardian.com/world/rss","title":"'Folks, we're in crisis': Joe Biden introduces environmental advisers","summary":"<p>President-elect announces racially diverse team to face ‘existential threat of our time’</p><p>President-elect Joe Biden announced a racially diverse slate of environmental advisers on Saturday, to help his administration confront what he called “the existential threat of our time, climate change”.</p><p> <span>Related: </span><a href=\"https://www.theguardian.com/environment/2020/dec/14/us-to-hold-world-climate-summit-early-next-year-and-seek-to-rejoin-paris-accord\">US to hold world climate summit early next year and seek to rejoin Paris accord</a> </p> <a href=\"https://www.theguardian.com/us-news/2020/dec/19/folks-crisis-joe-biden-environmental-advisers-haaland-kerry-granholm\">Continue reading...</a>","link":"https://www.theguardian.com/us-news/2020/dec/19/folks-crisis-joe-biden-environmental-advisers-haaland-kerry-granholm","published":"Sat, 19 Dec 2020 22:32:19 GMT","geolocations":[{"name":"North Carolina","count":1,"lat":35.78547,"lng":-78.6427,"type":"point"},{"name":"Wilmington","count":1,"lat":39.74023,"lng":-75.55084,"type":"point"},{"name":"Delaware","count":1,"lat":39.15803,"lng":-75.52473,"type":"point"},{"name":"Midwest","count":1,"lat":43.41272,"lng":-106.27664,"type":"point"},{"name":"Us","count":1,"lat":38.89037,"lng":-77.03196,"type":"country"},{"name":"Paris","count":1,"lat":48.85717,"lng":2.3414,"type":"point"},{"name":"Michigan","count":1,"lat":42.73194,"lng":-84.55225,"type":"point"}],"source":"The Guardian"},{"feed_name":"World","feed_url":"https://rss.nytimes.com/services/xml/rss/nyt/World.xml","title":"Trump Contradicts Pompeo Over Russia’s Role in Hack","summary":"Hours after the secretary of state said that Moscow was behind the vast cybersecurity breach, the president suggested it might have been China and downplayed the severity of the attack.","link":"https://www.nytimes.com/2020/12/19/us/trump-contradicts-pompeo-over-russias-role-in-hack.html","published":"Sat, 19 Dec 2020 20:54:32 +0000","geolocations":[{"name":"America","count":1,"lat":51.43739,"lng":5.98176,"type":"point"},{"name":"Fort Meade","count":1,"lat":39.10788,"lng":-76.73504,"type":"point"},{"name":"Md.","count":1,"lat":47.02459,"lng":28.83242,"type":"country"}],"source":"The New York Times"},{"feed_name":"World - Europe","feed_url":"http://feeds.bbci.co.uk/news/world/rss.xml","title":"Christmas celebrations to go ahead in Bethlehem","summary":"BBC Middle East correspondent Yolande Knell joins the rehearsals for the festive processions.","link":"https://www.bbc.co.uk/news/world-middle-east-55370593","published":"Sun, 20 Dec 2020 00:03:46 GMT","geolocations":[{"name":"Bethlehem","count":1,"lat":40.6266,"lng":-75.36798,"type":"point"},{"name":"The West Bank","count":1,"lat":-33.0312,"lng":27.90943,"type":"point"},{"name":"Middle East","count":1,"lat":39.29996,"lng":-76.58967,"type":"point"}],"source":"BBC"},{"feed_name":"World","feed_url":"https://www.theguardian.com/world/rss","title":"Scorned scientist now vindicated in her work on how to treat stroke","summary":"<p>Anne Abbott challenged medical establishment and faced ‘shocking’ rebuffs</p><p>Anne Abbott is a scientist on a mission. She believes large numbers of debilitating strokes can be prevented without surgical interventions. Lifestyle changes and medication alone can make massive improvements to people at risk from the thickening of their arteries.</p><p>It is not an attitude that has endeared her to the medical establishment, however. For years, it has attempted to block her work while instead pressing for increasing use of carotid surgery and stents, she told the <em>Observer</em> last week.</p> <a href=\"https://www.theguardian.com/society/2020/dec/19/scorned-scientist-now-vindicated-in-her-work-on-how-to-treat-stroke\">Continue reading...</a>","link":"https://www.theguardian.com/society/2020/dec/19/scorned-scientist-now-vindicated-in-her-work-on-how-to-treat-stroke","published":"Sat, 19 Dec 2020 17:46:21 GMT","geolocations":[{"name":"Melbourne","count":1,"lat":-37.81739,"lng":144.96751,"type":"point"},{"name":"Us","count":1,"lat":38.89037,"lng":-77.03196,"type":"country"}],"source":"The Guardian"},{"feed_name":"World","feed_url":"https://rss.nytimes.com/services/xml/rss/nyt/World.xml","title":"Frontline workers were left off the vaccine list at Stanford Medical Center in Palo Alto. They fought back.","summary":"","link":"https://www.nytimes.com/2020/12/18/world/covid-stanford-health-center-vaccine-protest.html","published":"Sat, 19 Dec 2020 15:55:22 +0000","geolocations":[{"name":"Palo Alto","count":1,"lat":37.44466,"lng":-122.16079,"type":"point"},{"name":"Calif.","count":1,"lat":3.43402,"lng":-76.52645,"type":"point"}],"source":"The New York Times"},{"feed_name":"World","feed_url":"https://www.latimes.com/world/rss2.0.xml","title":"What could Trump have done to produce a different election outcome?","summary":"<p>One can't help but wonder: What could Trump have done — other than his tragicomic efforts after the fact — to produce a different election outcome?</p>","link":"https://www.latimes.com/politics/story/2020-12-15/what-could-trump-have-done-to-produce-a-different-election-outcome","published":"Tue, 15 Dec 2020 08:00:06 -0500","geolocations":[{"name":"Arizona","count":1,"lat":33.44825,"lng":-112.0758,"type":"point"},{"name":"Wisconsin","count":1,"lat":43.07313,"lng":-89.38644,"type":"point"},{"name":"New York","count":2,"lat":40.71455,"lng":-74.00714,"type":"point"},{"name":"China","count":1,"lat":39.90657,"lng":116.38765,"type":"country"},{"name":"Los Angeles","count":1,"lat":34.05357,"lng":-118.24545,"type":"point"},{"name":"N.Y.","count":2,"lat":40.71455,"lng":-74.00714,"type":"point"},{"name":"Ky","count":1,"lat":19.29657,"lng":-81.38175,"type":"country"},{"name":"Gastonia","count":2,"lat":35.26221,"lng":-81.18702,"type":"point"},{"name":"N.C.","count":1,"lat":-22.24292,"lng":166.46133,"type":"country"}],"source":"Los Angeles Times"},{"feed_name":"World","feed_url":"https://www.theguardian.com/world/rss","title":"Son wins US lawsuit after parents destroy his porn collection","summary":"<p>David Werking can seek damages after parents got rid of films and magazines worth $29,000</p><p>A man who sued his parents for getting rid of his pornography collection has won a lawsuit in western Michigan and can seek compensation.</p><p>The US district judge Paul Maloney ruled in favour of David Werking, who said his parents had no right to throw out his collection. He lived at their Grand Haven home for 10 months after a divorce before moving to Muncie, Indiana.</p> <a href=\"https://www.theguardian.com/us-news/2020/dec/19/us-parents-lose-lawsuit-over-destruction-of-sons-porn-collection\">Continue reading...</a>","link":"https://www.theguardian.com/us-news/2020/dec/19/us-parents-lose-lawsuit-over-destruction-of-sons-porn-collection","published":"Sat, 19 Dec 2020 10:03:34 GMT","geolocations":[{"name":"Michigan","count":1,"lat":42.73194,"lng":-84.55225,"type":"point"},{"name":"Us","count":1,"lat":38.89037,"lng":-77.03196,"type":"country"},{"name":"Grand Haven","count":1,"lat":43.06295,"lng":-86.226,"type":"point"},{"name":"Muncie","count":1,"lat":40.19316,"lng":-85.38173,"type":"point"},{"name":"Indiana","count":1,"lat":39.76691,"lng":-86.15012,"type":"point"}],"source":"The Guardian"},{"feed_name":"World","feed_url":"https://www.theguardian.com/world/rss","title":"Cyber-attack is brutal reminder of the Russia problem facing Joe Biden","summary":"<p>Analysis: new president must find a way to contain such hyper-aggressive behaviour from Moscow</p><p>It is Joe Biden’s biggest foreign policy headache. As well as confronting the Covid pandemic, the president-elect has to deal with a more familiar problem: Russia. Moscow’s meddling in the 2016 US presidential election cast a shadow over US politics for four long years.</p><p>And now the Kremlin appears to have struck again. This week details emerged of <a href=\"https://www.theguardian.com/technology/2020/dec/17/us-government-cyber-attack-hack-russia\">an unprecedented cyber-attack</a> against US government departments. Beginning in March, suspected Russian hackers penetrated Washington’s signature institutions.</p> <a href=\"https://www.theguardian.com/world/2020/dec/18/cyber-attack-brutal-reminder-russia-problem-facing-joe-biden\">Continue reading...</a>","link":"https://www.theguardian.com/world/2020/dec/18/cyber-attack-brutal-reminder-russia-problem-facing-joe-biden","published":"Fri, 18 Dec 2020 12:19:39 GMT","geolocations":[{"name":"Moscow","count":8,"lat":55.75696,"lng":37.61502,"type":"point"},{"name":"Russia","count":4,"lat":55.75696,"lng":37.61502,"type":"country"},{"name":"Us","count":11,"lat":38.89037,"lng":-77.03196,"type":"country"},{"name":"Washington","count":1,"lat":38.89037,"lng":-77.03196,"type":"point"},{"name":"Salisbury","count":1,"lat":51.0692,"lng":-1.79966,"type":"point"},{"name":"Siberia","count":1,"lat":-30.42356,"lng":28.74034,"type":"point"},{"name":"Europe","count":1,"lat":-33.98201,"lng":18.58413,"type":"point"},{"name":"Brazil","count":1,"lat":-15.77829,"lng":-47.92909,"type":"country"},{"name":"China","count":1,"lat":39.90657,"lng":116.38765,"type":"country"},{"name":"Japan","count":1,"lat":35.68408,"lng":139.80885,"type":"country"},{"name":"South Korea","count":1,"lat":37.55886,"lng":126.99989,"type":"country"},{"name":"New Zealand","count":1,"lat":-41.28949,"lng":174.77694,"type":"country"}],"source":"The Guardian"},{"feed_name":"World","feed_url":"https://www.theguardian.com/world/rss","title":"Victoria closes border to all of Sydney and NSW Central Coast amid Covid hotspot warnings – video","summary":"<p>Victorian premier Daniel Andrews will declare all of Sydney and the NSW Central Coast a Covid-19 red zone from midnight tonight, meaning people who live in or have visited those areas since 11 December will not be allowed to enter the state. The state’s chief medical officer Brett Sutton says the measure is being taken to halt the risk of further spread from the northern beaches hotspot. ‘There will be new cases cropping up over the next 14 days.’</p><ul><li><a href=\"https://www.theguardian.com/world/2020/dec/20/covid-restrictions-tightened-across-sydney-as-nothern-beaches-cluster-grows\">Full report: restrictions tightened across Sydney as northern beaches cluster grows to 68</a><br /></li><li><a href=\"https://www.theguardian.com/world/live/2020/dec/20/coronavirus-live-news-nsw-premier-to-provide-update-on-sydney-restrictions-as-northern-beaches-locked-down-uk-tightens-christmas-rules\">Coronavirus live: NSW premier adds new restrictions on greater Sydney as northern beaches locked down</a></li><li><a href=\"https://www.theguardian.com/world/2020/dec/20/sydney-covid-restrictions-explained-limits-on-gatherings-venues-and-the-northern-beaches-lockdown\">Sydney restrictions explained</a></li><li><a href=\"https://www.theguardian.com/australia-news/2020/dec/18/coronavirus-nsw-hotspots-list-regional-sydney-covid-19-outbreak-locations\">Covid hotspots NSW</a></li><li><a href=\"https://www.theguardian.com/australia-news/2020/dec/20/australia-border-restrictions-here-are-the-new-state-and-territory-covid-rules-for-nsw-travellers\">Border restrictions: new state and territory rules for NSW travellers</a></li></ul> <a href=\"https://www.theguardian.com/australia-news/video/2020/dec/20/victoria-closes-border-to-all-of-sydney-and-nsw-central-coast-amid-covid-hotspot-warnings-video\">Continue reading...</a>","link":"https://www.theguardian.com/australia-news/video/2020/dec/20/victoria-closes-border-to-all-of-sydney-and-nsw-central-coast-amid-covid-hotspot-warnings-video","published":"Sun, 20 Dec 2020 03:32:52 GMT","geolocations":[{"name":"Sydney","count":1,"lat":-33.8696,"lng":151.20691,"type":"point"},{"name":"Nsw Central Coast","count":1,"lat":-33.42374,"lng":151.3425,"type":"point"}],"source":"The Guardian"},{"feed_name":"World","feed_url":"https://www.latimes.com/world/rss2.0.xml","title":"2020 was the year America embraced Black Lives Matter as a movement, not just a moment","summary":"<p>What most Californians will remember about summer 2020 will be George Floyd and the protests over racial injustice. But will the movement survive? </p>","link":"https://www.latimes.com/california/story/2020-12-16/black-lives-matter-protests-george-floyd-coronavirus-covid-2020","published":"Wed, 16 Dec 2020 08:00:59 -0500","geolocations":[{"name":"Venice","count":1,"lat":45.43811,"lng":12.31815,"type":"point"},{"name":"Minneapolis","count":2,"lat":44.97902,"lng":-93.26494,"type":"point"},{"name":"Los Angeles","count":1,"lat":34.05357,"lng":-118.24545,"type":"point"},{"name":"California","count":1,"lat":38.57944,"lng":-121.49085,"type":"point"},{"name":"Santa Ana","count":1,"lat":9.93432,"lng":-84.18176,"type":"point"},{"name":"Louisville","count":1,"lat":38.25489,"lng":-85.76666,"type":"point"},{"name":"Ky.","count":1,"lat":19.29657,"lng":-81.38175,"type":"country"},{"name":"Gardena","count":1,"lat":33.88379,"lng":-118.30702,"type":"point"},{"name":"Santa Monica","count":1,"lat":34.01158,"lng":-118.49227,"type":"point"},{"name":"Beverly Hills","count":1,"lat":34.0736,"lng":-118.40046,"type":"point"},{"name":"America","count":1,"lat":51.43739,"lng":5.98176,"type":"point"}],"source":"Los Angeles Times"},{"feed_name":"World","feed_url":"https://www.latimes.com/world/rss2.0.xml","title":"Biden, Trump and AOC aren't in Georgia's Senate runoffs. But they've got star roles","summary":"<p>Georgia's runoffs for the U.S. Senate have become a national referendum on which party controls Washington. Local issues are getting left behind.</p>","link":"https://www.latimes.com/politics/story/2020-12-15/georgia-senate-campaigns-focus-on-trump-biden-and-washington-less-about-georgia","published":"Tue, 15 Dec 2020 06:00:03 -0500","geolocations":[{"name":"Washington","count":3,"lat":38.89037,"lng":-77.03196,"type":"point"},{"name":"N.Y.","count":2,"lat":40.71455,"lng":-74.00714,"type":"point"},{"name":"Atlanta","count":2,"lat":33.74831,"lng":-84.39111,"type":"point"},{"name":"America","count":1,"lat":51.43739,"lng":5.98176,"type":"point"},{"name":"United States","count":1,"lat":38.89037,"lng":-77.03196,"type":"country"},{"name":"The United States","count":1,"lat":38.89037,"lng":-77.03196,"type":"country"},{"name":"Maine","count":1,"lat":44.31803,"lng":-69.77621,"type":"point"}],"source":"Los Angeles Times"},{"feed_name":"World","feed_url":"https://www.theguardian.com/world/rss","title":"Coronavirus live update: NSW premier adds new restrictions on greater Sydney as northern beaches locked down, UK tightens Christmas rules","summary":"<p>Scotland announces travel ban with rest of UK, France death toll surpasses 60,000; Sweden introduces tough new measures</p><ul><li><a href=\"https://www.theguardian.com/world/live/2020/dec/20/coronavirus-live-news-nsw-premier-to-provide-update-on-sydney-restrictions-as-northern-beaches-locked-down-uk-tightens-christmas-rules?page=with:block-5fde96548f08c00122deaab5#block-5fde96548f08c00122deaab5\">New restrictions in place for greater Sydney </a></li><li><a href=\"https://www.theguardian.com/australia-news/2020/dec/18/coronavirus-nsw-hotspots-list-regional-sydney-covid-19-outbreak-locations\">List of Sydney and regional coronavirus case locations</a></li><li><a href=\"https://www.theguardian.com/world/2020/dec/19/pm-announces-tier-4-covid-curbs-and-curtails-christmas-mixing-in-england\">UK PM announces ‘tier 4’ curbs and curtails Christmas mixing in England</a></li><li><a href=\"https://www.theguardian.com/world/2020/dec/19/new-coronavirus-strain-in-south-east-england-prompts-fears-of-third-lockdown\">New strain in south-east England prompts fears of third lockdown</a></li></ul><p class=\"block-time published-time\"> <time datetime=\"2020-12-20T03:46:07.924Z\">3.46am <span class=\"timezone\">GMT</span></time> </p><p>AFP: The <strong>Dutch</strong> government on Sunday banned all passenger flights from <strong>Britain</strong> after finding the first case of a new, more infectious coronavirus strain that is circulating in the UK.</p><p>The ban, from 6am (0500 GMT) on Sunday until 1 January, came hours after Britain announced a stay at home order for part of the country to slow the new variant.</p><p class=\"block-time published-time\"> <time datetime=\"2020-12-20T03:23:29.355Z\">3.23am <span class=\"timezone\">GMT</span></time> </p><p>Here’s our wrap on the new Australian developments today regarding the NSW outbreak and new border restrictions, via <strong>Calla Wahlquist.</strong></p><p> <span>Related: </span><a href=\"https://www.theguardian.com/world/2020/dec/20/covid-restrictions-tightened-across-sydney-as-nothern-beaches-cluster-grows\">Covid restrictions tightened across Sydney as northern beaches cluster grows to 68</a> </p> <a href=\"https://www.theguardian.com/world/live/2020/dec/20/coronavirus-live-news-nsw-premier-to-provide-update-on-sydney-restrictions-as-northern-beaches-locked-down-uk-tightens-christmas-rules\">Continue reading...</a>","link":"https://www.theguardian.com/world/live/2020/dec/20/coronavirus-live-news-nsw-premier-to-provide-update-on-sydney-restrictions-as-northern-beaches-locked-down-uk-tightens-christmas-rules","published":"Sun, 20 Dec 2020 03:46:07 GMT","geolocations":[{"name":"Western Australia","count":1,"lat":-25.46329,"lng":122.18471,"type":"point"},{"name":"Perth","count":2,"lat":-31.95265,"lng":115.85742,"type":"point"},{"name":"Russia","count":1,"lat":55.75696,"lng":37.61502,"type":"country"},{"name":"Victoria","count":1,"lat":48.42855,"lng":-123.36445,"type":"point"},{"name":"South Australia","count":2,"lat":-30.10785,"lng":135.83478,"type":"point"}],"source":"The Guardian"},{"feed_name":"World","feed_url":"https://www.theguardian.com/world/rss","title":"Joe Biden will face an inbox of complex foreign policy problems from the start","summary":"<p>The massive, ongoing hack of US federal agencies, relations with China and North Korea will be urgent issues for Biden to address</p><p>Joe Biden’s foreign policy in-tray is only looking more difficult as he approaches inauguration day – even as the US still confronts the pressing issue of <a href=\"https://www.theguardian.com/us-news/2020/dec/17/us-coronavirus-cases-deaths-record-vaccine\">record coronavirus deaths and infections</a>.</p><p>The <a href=\"https://www.theguardian.com/technology/2020/dec/17/us-government-cyber-attack-hack-russia\">massive and ongoing hack of US federal agencies – blamed on Russia</a> – has so far elicited no response from Donald Trump, who has a long history of denying or downplaying Russian interventions.</p> <a href=\"https://www.theguardian.com/us-news/2020/dec/19/joe-biden-will-face-an-inbox-of-complex-foreign-policy-problems-from-the-start\">Continue reading...</a>","link":"https://www.theguardian.com/us-news/2020/dec/19/joe-biden-will-face-an-inbox-of-complex-foreign-policy-problems-from-the-start","published":"Sat, 19 Dec 2020 10:00:46 GMT","geolocations":[{"name":"Us","count":7,"lat":38.89037,"lng":-77.03196,"type":"country"},{"name":"Russia","count":3,"lat":55.75696,"lng":37.61502,"type":"country"},{"name":"Iran","count":3,"lat":35.68877,"lng":51.41503,"type":"country"},{"name":"China","count":6,"lat":39.90657,"lng":116.38765,"type":"country"},{"name":"Washington","count":2,"lat":38.89037,"lng":-77.03196,"type":"point"},{"name":"North Korea","count":1,"lat":39.01196,"lng":125.78684,"type":"country"},{"name":"Kremlin","count":1,"lat":36.5497,"lng":-97.83185,"type":"point"},{"name":"Tehran","count":1,"lat":35.68877,"lng":51.41503,"type":"point"},{"name":"Israel","count":1,"lat":31.78003,"lng":35.21873,"type":"country"},{"name":"The Middle East","count":1,"lat":39.29996,"lng":-76.58967,"type":"point"},{"name":"Syria","count":1,"lat":33.51656,"lng":36.31708,"type":"point"},{"name":"Ukraine","count":1,"lat":50.45056,"lng":30.52428,"type":"country"}],"source":"The Guardian"},{"feed_name":"World","feed_url":"https://www.theguardian.com/world/rss","title":"Ten billionaires reap $400bn boost to wealth during pandemic","summary":"<p>Covid-19 pushed many into poverty but brought huge benefits for some of the wealthiest, renewing calls for fairer taxes<br /></p><ul><li><a href=\"https://www.theguardian.com/world/live/2020/dec/17/coronavirus-live-news-pence-to-take-vaccine-on-tv-germany-suffers-record-deaths\">Coronavirus - latest updates</a></li><li><a href=\"https://www.theguardian.com/world/coronavirus-outbreak\">Coronavirus - see all our coverage</a></li></ul><p>Ten of the richest people in the world have boosted their already vast wealth by more than $400bn (£296bn) since the coronavirus pandemic began as their businesses were boosted by lockdowns and financial crises across the globe.</p><p>The extra wealth accumulated by the 10 men – approximately $450bn, using Forbes figures – over the past nine months is more than the £284bn the British government is estimated to have spent on tackling the pandemic and the economic damage it has wrought on its 66 million people.</p> <a href=\"https://www.theguardian.com/technology/2020/dec/19/ten-billionaires-reap-400bn-boost-to-wealth-during-pandemic\">Continue reading...</a>","link":"https://www.theguardian.com/technology/2020/dec/19/ten-billionaires-reap-400bn-boost-to-wealth-during-pandemic","published":"Sat, 19 Dec 2020 16:00:52 GMT","geolocations":[{"name":"America","count":2,"lat":51.43739,"lng":5.98176,"type":"point"},{"name":"Europe","count":1,"lat":-33.98201,"lng":18.58413,"type":"point"}],"source":"The Guardian"},{"feed_name":"World","feed_url":"https://rss.nytimes.com/services/xml/rss/nyt/World.xml","title":"Protestant Church That Found Refuge in Italy’s Hills Helps Syrians Do the Same","summary":"Mindful of a history of persecution, members of the Waldensian Church have been at the forefront of a push to bring refugees from Syria to Italy.","link":"https://www.nytimes.com/2020/12/18/world/europe/protestant-church-that-found-refuge-in-italys-hills-helps-syrians-do-the-same.html","published":"Fri, 18 Dec 2020 21:26:37 +0000","geolocations":[{"name":"Italy","count":1,"lat":41.90322,"lng":12.49565,"type":"country"},{"name":"Syria","count":2,"lat":33.51656,"lng":36.31708,"type":"point"},{"name":"Europe","count":1,"lat":-33.98201,"lng":18.58413,"type":"point"},{"name":"Mediterranean","count":1,"lat":25.04446,"lng":55.13858,"type":"point"},{"name":"Lebanon","count":1,"lat":33.89607,"lng":35.50678,"type":"country"},{"name":"Rome","count":1,"lat":41.90322,"lng":12.49565,"type":"point"},{"name":"Alpine","count":1,"lat":32.83466,"lng":-116.7525,"type":"point"},{"name":"Western Piedmont","count":1,"lat":35.97476,"lng":-83.9716,"type":"point"},{"name":"Piedmont","count":1,"lat":34.70051,"lng":-82.46735,"type":"point"},{"name":"France","count":1,"lat":48.85717,"lng":2.3414,"type":"country"}],"source":"The New York Times"},{"feed_name":"World","feed_url":"https://rss.nytimes.com/services/xml/rss/nyt/World.xml","title":"Suicide Bomber in Somalia Hits Prime Minister’s Rally","summary":"The attack, claimed by Al Shabab, killed at least 10, including three Somali military commanders. Prime Minister Mohamed Hussein Roble was on his way at the time.","link":"https://www.nytimes.com/2020/12/18/world/africa/somalia-prime-minister-bombing.html","published":"Sat, 19 Dec 2020 09:03:43 +0000","geolocations":[{"name":"Nairobi","count":1,"lat":-1.28352,"lng":36.82379,"type":"point"},{"name":"Kenya","count":1,"lat":-1.28352,"lng":36.82379,"type":"country"},{"name":"Galkayo","count":1,"lat":6.76882,"lng":47.42941,"type":"point"},{"name":"Somalia","count":2,"lat":2.03812,"lng":45.34157,"type":"country"}],"source":"The New York Times"},{"feed_name":"World","feed_url":"https://www.latimes.com/world/rss2.0.xml","title":"Electoral college picks Biden, yet Trump's bid to keep power could have lasting effect","summary":"<p>Trump's bid to hijack the electoral college was doomed to fail, but the damage he's done to voters' faith in elections may prove one of his most lasting legacies. </p>","link":"https://www.latimes.com/world-nation/story/2020-12-14/electoral-college-members-meet-formally-choose-biden-president","published":"Mon, 14 Dec 2020 04:14:41 -0500","geolocations":[{"name":"California","count":3,"lat":38.57944,"lng":-121.49085,"type":"point"},{"name":"New York","count":1,"lat":40.71455,"lng":-74.00714,"type":"point"},{"name":"America","count":2,"lat":51.43739,"lng":5.98176,"type":"point"},{"name":"Sacramento","count":1,"lat":38.57944,"lng":-121.49085,"type":"point"},{"name":"Hope","count":1,"lat":49.37916,"lng":-121.44467,"type":"point"},{"name":"Ark.","count":1,"lat":25.61172,"lng":84.22189,"type":"point"},{"name":"Iowa","count":1,"lat":41.58981,"lng":-93.61538,"type":"point"},{"name":"South Dakota","count":1,"lat":44.36905,"lng":-100.35,"type":"point"},{"name":"Michigan","count":1,"lat":42.73194,"lng":-84.55225,"type":"point"},{"name":"Arizona","count":2,"lat":33.44825,"lng":-112.0758,"type":"point"},{"name":"Wisconsin","count":1,"lat":43.07313,"lng":-89.38644,"type":"point"},{"name":"Pennsylvania","count":1,"lat":40.25986,"lng":-76.88223,"type":"point"},{"name":"Bakersfield","count":1,"lat":35.36723,"lng":-119.01886,"type":"point"},{"name":"Texas","count":2,"lat":30.26759,"lng":-97.74299,"type":"point"}],"source":"Los Angeles Times"},{"feed_name":"World","feed_url":"https://rss.nytimes.com/services/xml/rss/nyt/World.xml","title":"Du Bin, Chinese Journalist, Is Detained in Beijing","summary":"Friends of Du Bin said that his detention might have been related to book projects critical of the history of Communism and China’s Communist Party.","link":"https://www.nytimes.com/2020/12/18/world/asia/chinese-journalist-du-bin-detained.html","published":"Fri, 18 Dec 2020 09:59:40 +0000","geolocations":[{"name":"China","count":1,"lat":39.90657,"lng":116.38765,"type":"country"},{"name":"Beijing","count":1,"lat":39.90657,"lng":116.38765,"type":"point"},{"name":"Du Jirong","count":1,"lat":25.91249,"lng":91.5851,"type":"point"},{"name":"Taiwan","count":2,"lat":25.03737,"lng":121.56355,"type":"country"},{"name":"Changchun","count":1,"lat":28.51231,"lng":105.32651,"type":"point"}],"source":"The New York Times"},{"feed_name":"World","feed_url":"https://www.latimes.com/world/rss2.0.xml","title":"U.S. cybersecurity agency warns of 'grave' threat from hack","summary":"<p>U.S. authorities are expressing increased alarm about an intrusion into computer systems around the globe that officials suspect Russia is behind.</p>","link":"https://www.latimes.com/world-nation/story/2020-12-17/us-cybersecurity-agency-warns-of-grave-threat-from-hack","published":"Thu, 17 Dec 2020 13:30:30 -0500","geolocations":[{"name":"Russia","count":3,"lat":55.75696,"lng":37.61502,"type":"country"},{"name":"Moscow","count":1,"lat":55.75696,"lng":37.61502,"type":"point"},{"name":"U.S.","count":3,"lat":38.89037,"lng":-77.03196,"type":"country"},{"name":"Texas","count":1,"lat":30.26759,"lng":-97.74299,"type":"point"}],"source":"Los Angeles Times"},{"feed_name":"World","feed_url":"https://www.latimes.com/world/rss2.0.xml","title":"Biden nominates Rep. Haaland to Interior, naming first Native American Cabinet member","summary":"<p>Deb Haaland would be first Indigenous Cabinet member, running the agency that oversees federal land and American Indian affairs.</p>","link":"https://www.latimes.com/environment/story/2020-12-17/biden-nominates-deb-haaland-to-interior-naming-first-native-american-cabinet-secretary","published":"Thu, 17 Dec 2020 14:56:32 -0500","geolocations":[{"name":"New Mexico","count":4,"lat":35.69177,"lng":-105.93824,"type":"point"},{"name":"Haaland","count":10,"lat":60.67418,"lng":4.95931,"type":"point"},{"name":"The United States","count":1,"lat":38.89037,"lng":-77.03196,"type":"country"},{"name":"Pennsylvania","count":1,"lat":40.25986,"lng":-76.88223,"type":"point"},{"name":"Texas","count":1,"lat":30.26759,"lng":-97.74299,"type":"point"},{"name":"Utah","count":1,"lat":40.76031,"lng":-111.88822,"type":"point"},{"name":"Alaska","count":1,"lat":58.29973,"lng":-134.40679,"type":"point"},{"name":"Arctic National Wildlife Refuge","count":1,"lat":40.1538,"lng":-109.62409,"type":"point"},{"name":"Laguna Pueblo","count":1,"lat":22.22637,"lng":-97.82026,"type":"point"},{"name":"Standing Rock","count":1,"lat":35.79538,"lng":-108.3599,"type":"point"},{"name":"North Dakota","count":1,"lat":46.80536,"lng":-100.77969,"type":"point"},{"name":"Washington","count":1,"lat":38.89037,"lng":-77.03196,"type":"point"},{"name":"The Laguna Pueblo","count":1,"lat":22.22637,"lng":-97.82026,"type":"point"},{"name":"Kansas","count":1,"lat":39.04928,"lng":-95.67118,"type":"point"},{"name":"United States","count":1,"lat":38.89037,"lng":-77.03196,"type":"country"},{"name":"San Francisco","count":1,"lat":37.77712,"lng":-122.41964,"type":"point"}],"source":"Los Angeles Times"},{"feed_name":"World","feed_url":"https://www.theguardian.com/world/rss","title":"Closure of iconic Cliff House ends a remarkable era of San Francisco's history","summary":"<p>The 157-year-old restaurant with breathtaking ocean views was known for its location on Lands End as ‘the place that draws you’</p><p>At the place where San Francisco drops into the ocean, a door is shutting on a vibrant chapter of the city’s history.</p><p>The longtime proprietors of the Cliff House, a 157-year-old iconic San Francisco restaurant with breathtaking ocean views once enjoyed by Mark Twain, announced this week that they would be forced to close by the end of the year. They cited both coronavirus restrictions and their landlord, the federal government, stalling on a long-term lease, as factors in their decision.</p> <a href=\"https://www.theguardian.com/us-news/2020/dec/19/closure-of-iconic-cliff-house-ends-a-remarkable-era-of-san-franciscos-history\">Continue reading...</a>","link":"https://www.theguardian.com/us-news/2020/dec/19/closure-of-iconic-cliff-house-ends-a-remarkable-era-of-san-franciscos-history","published":"Sat, 19 Dec 2020 11:00:48 GMT","geolocations":[{"name":"San Francisco","count":5,"lat":37.77712,"lng":-122.41964,"type":"point"},{"name":"Ocean Beach","count":1,"lat":40.64936,"lng":-73.15689,"type":"point"},{"name":"Pacific","count":1,"lat":38.48359,"lng":-90.74141,"type":"point"},{"name":"San Franciscans","count":1,"lat":37.72252,"lng":-122.06119,"type":"point"},{"name":"Hontalas","count":3,"lat":40.30244,"lng":-2.28439,"type":"point"},{"name":"Greece","count":1,"lat":37.97614,"lng":23.7364,"type":"country"},{"name":"The Cliff Cafe","count":1,"lat":37.17314,"lng":-89.78256,"type":"point"},{"name":"San Francisco’S","count":1,"lat":37.77712,"lng":-122.41964,"type":"point"}],"source":"The Guardian"},{"feed_name":"World","feed_url":"https://www.theguardian.com/world/rss","title":"Trump wanted conspiracy theorist Sidney Powell as special counsel on voter fraud – report","summary":"<p>Rudy Giuliani and other advisers opposed president’s suggestion, according to New York Times</p><p>Donald Trump pushed to have the lawyer and “kraken” conspiracy theorist Sidney Powell named as a special counsel to investigate supposed electoral fraud, the New York Times <a href=\"https://www.nytimes.com/2020/12/19/us/politics/trump-discussed-naming-campaign-lawyer-as-special-counsel-on-election-fraud.html\">reported</a> on Saturday.</p><p> <span>Related: </span><a href=\"https://www.theguardian.com/us-news/2020/dec/19/mike-pompeo-we-can-say-pretty-clearly-russia-behind-hack-us-agencies\">Trump downplays government hack after Pompeo blames it on Russia</a> </p> <a href=\"https://www.theguardian.com/us-news/2020/dec/19/sidney-powell-trump-special-counsel-election-fraud-claims\">Continue reading...</a>","link":"https://www.theguardian.com/us-news/2020/dec/19/sidney-powell-trump-special-counsel-election-fraud-claims","published":"Sat, 19 Dec 2020 20:10:39 GMT","geolocations":[{"name":"Us","count":2,"lat":38.89037,"lng":-77.03196,"type":"country"},{"name":"Russia","count":2,"lat":55.75696,"lng":37.61502,"type":"country"}],"source":"The Guardian"},{"feed_name":"World","feed_url":"https://rss.nytimes.com/services/xml/rss/nyt/World.xml","title":"With Trump Fading, Ukraine’s President Looks to a Reset With the U.S.","summary":"“They roped us in, but I think we behaved with dignity,” Volodymyr Zelensky said of his encounter with American politics.","link":"https://www.nytimes.com/2020/12/19/world/europe/trump-zelensky-biden-ukraine.html","published":"Sat, 19 Dec 2020 22:58:20 +0000","geolocations":[{"name":"Russia","count":3,"lat":55.75696,"lng":37.61502,"type":"country"},{"name":"U.S.","count":1,"lat":38.89037,"lng":-77.03196,"type":"country"},{"name":"Ukraine","count":4,"lat":50.45056,"lng":30.52428,"type":"country"},{"name":"Moscow","count":1,"lat":55.75696,"lng":37.61502,"type":"point"},{"name":"America","count":1,"lat":51.43739,"lng":5.98176,"type":"point"},{"name":"Europe","count":1,"lat":-33.98201,"lng":18.58413,"type":"point"},{"name":"Soviet Union","count":1,"lat":40.69635,"lng":-74.26957,"type":"point"},{"name":"The United States","count":3,"lat":38.89037,"lng":-77.03196,"type":"country"}],"source":"The New York Times"},{"feed_name":"World","feed_url":"https://www.theguardian.com/world/rss","title":"Four men charged with rape and murder of Dalit woman in India","summary":"<p>Case prompts nationwide protests and further highlights country’s endemic problem of sexual violence</p><p>Four men have been charged with the gang-rape and murder of a 19-year-old Dalit woman in India, a case that prompted nationwide protests and drew a fresh spotlight on India’s endemic problem of sexual violence.</p><p>In September in Hathras, a small village in Uttar Pradesh, the 19-year-old woman was working in the fields when she was pounced on by four older men who dragged her to a field, attacked her and then tried to strangle her with her shawl.</p> <a href=\"https://www.theguardian.com/world/2020/dec/19/four-men-charged-with-and-of-dalit-woman-in-india\">Continue reading...</a>","link":"https://www.theguardian.com/world/2020/dec/19/four-men-charged-with-and-of-dalit-woman-in-india","published":"Sat, 19 Dec 2020 14:54:44 GMT","geolocations":[{"name":"India","count":6,"lat":28.63095,"lng":77.21721,"type":"country"},{"name":"Hathras","count":2,"lat":27.59854,"lng":78.05267,"type":"point"},{"name":"Uttar Pradesh","count":4,"lat":26.85471,"lng":80.92135,"type":"point"},{"name":"Delhi","count":2,"lat":28.63409,"lng":77.21693,"type":"point"}],"source":"The Guardian"},{"feed_name":"World","feed_url":"https://www.latimes.com/world/rss2.0.xml","title":"The most important company you've never heard of is being dragged into the U.S.-China rivalry","summary":"<p>Taiwan Semiconductor Manufacturing Co. makes chips for iPhones, video game consoles and fighter jets. Now it's being forced to choose sides.</p>","link":"https://www.latimes.com/world-nation/story/2020-12-17/taiwan-chips-tsmc-china-us","published":"Thu, 17 Dec 2020 04:30:21 -0500","geolocations":[{"name":"Taiwan","count":16,"lat":25.03737,"lng":121.56355,"type":"country"},{"name":"Silicon Shield","count":1,"lat":55.01085,"lng":-1.448,"type":"point"},{"name":"U.S.","count":18,"lat":38.89037,"lng":-77.03196,"type":"country"},{"name":"China","count":29,"lat":39.90657,"lng":116.38765,"type":"country"},{"name":"Beijing","count":8,"lat":39.90657,"lng":116.38765,"type":"point"},{"name":"Shanghai","count":1,"lat":39.45274,"lng":-78.15318,"type":"point"},{"name":"Arizona","count":1,"lat":33.44825,"lng":-112.0758,"type":"point"},{"name":"Nanjing","count":1,"lat":-23.38327,"lng":150.6275,"type":"point"},{"name":"The United States","count":1,"lat":38.89037,"lng":-77.03196,"type":"country"},{"name":"Washington","count":4,"lat":38.89037,"lng":-77.03196,"type":"point"},{"name":"Manhattan","count":1,"lat":39.17881,"lng":-96.56184,"type":"point"},{"name":"South Korea","count":1,"lat":37.55886,"lng":126.99989,"type":"country"},{"name":"Taipei","count":4,"lat":25.03293,"lng":121.56705,"type":"point"},{"name":"Silicon Valley","count":1,"lat":37.24667,"lng":-121.77279,"type":"point"},{"name":"Maryland","count":1,"lat":38.97678,"lng":-76.49014,"type":"point"},{"name":"Switzerland","count":2,"lat":46.94843,"lng":7.44046,"type":"country"},{"name":"Hong Kong","count":2,"lat":22.2783,"lng":114.16039,"type":"point"},{"name":"Ningbo","count":1,"lat":29.86569,"lng":121.53916,"type":"point"},{"name":"Singapore","count":1,"lat":1.29041,"lng":103.85211,"type":"country"},{"name":"Hsinchu","count":1,"lat":24.81662,"lng":120.97054,"type":"point"}],"source":"Los Angeles Times"},{"feed_name":"World","feed_url":"https://rss.nytimes.com/services/xml/rss/nyt/World.xml","title":"A Chinese official confirms that a million citizens received unproven homegrown vaccines.","summary":"","link":"https://www.nytimes.com/2020/12/18/world/a-chinese-official-confirms-that-a-million-citizens-received-unproven-homegrown-vaccines.html","published":"Sat, 19 Dec 2020 06:31:50 +0000","geolocations":[{"name":"China","count":3,"lat":39.90657,"lng":116.38765,"type":"country"},{"name":"Europe","count":1,"lat":-33.98201,"lng":18.58413,"type":"point"},{"name":"North America","count":1,"lat":36.19711,"lng":-94.52681,"type":"point"},{"name":"Beijing","count":1,"lat":39.90657,"lng":116.38765,"type":"point"}],"source":"The New York Times"},{"feed_name":"World","feed_url":"https://rss.nytimes.com/services/xml/rss/nyt/World.xml","title":"Freed Nigeria Schoolboys Meet President Muhammadu Buhari","summary":"Capitalizing on a rare victory, the Nigerian government publicly displayed the more than 300 boys who had been released, and insisted it had not paid ransom.","link":"https://www.nytimes.com/2020/12/18/world/africa/nigeria-abducted-schoolboys-freed.html","published":"Sat, 19 Dec 2020 13:00:53 +0000","geolocations":[{"name":"Nigeria","count":2,"lat":9.06344,"lng":7.46228,"type":"country"},{"name":"Katsina","count":1,"lat":12.99129,"lng":7.59995,"type":"point"},{"name":"Kankara","count":1,"lat":11.9323,"lng":7.41021,"type":"point"}],"source":"The New York Times"},{"feed_name":"World","feed_url":"https://www.theguardian.com/world/rss","title":"Mexico: assassin shoots former state governor in restaurant bathroom","summary":"<p>Aristóteles Sandoval was shot in the back in bathroom in Puerto Vallarta, and died soon afterwards at local hospital</p><p>The former governor of <a href=\"https://www.theguardian.com/world/mexico\">Mexico</a>’s violence-wracked western state of Jalisco has been shot dead in a restaurant bathroom in the popular beach resort of Puerto Vallarta.</p><p>Aristóteles Sandoval was dining with four others when at around 1.40 on Friday he got up from the table and went to the toilet, where the killer shot him in the back, said the state attorney general, Gerardo Octavio Solís.</p> <a href=\"https://www.theguardian.com/world/2020/dec/18/aristoteles-sandoval-mexico-jalisco-shot-dead-puerto-vallarta\">Continue reading...</a>","link":"https://www.theguardian.com/world/2020/dec/18/aristoteles-sandoval-mexico-jalisco-shot-dead-puerto-vallarta","published":"Fri, 18 Dec 2020 16:22:47 GMT","geolocations":[{"name":"Mexico","count":1,"lat":23.94757,"lng":-102.5411,"type":"country"},{"name":"Jalisco","count":4,"lat":20.58078,"lng":-103.61323,"type":"point"},{"name":"Puerto Vallarta","count":2,"lat":20.60841,"lng":-105.23525,"type":"point"},{"name":"Colima","count":1,"lat":19.24249,"lng":-103.7273,"type":"point"},{"name":"Sinaloa","count":1,"lat":25.82104,"lng":-108.22266,"type":"point"},{"name":"Guadalajara","count":1,"lat":20.68758,"lng":-103.35104,"type":"point"}],"source":"The Guardian"},{"feed_name":"World","feed_url":"https://www.theguardian.com/world/rss","title":"Covid-19 patients killed by exploding oxygen cylinder in Turkey","summary":"<p>Ten killed when ‘high pressure oxygen device’ exploded at Sanko University hospital in Gaziantep</p><p>At least 10 people have died after an oxygen cylinder exploded at an intensive care unit treating Covid-19 patients in Turkey, the health minister said.</p><p>The state-run Anadolu news agency said the fire took place at the private Sanko University hospital in Gaziantep, which is about 40 miles north of the country’s border with Syria. It cited a hospital statement identifying the victims as being between 56 and 85. The fire was quickly brought under control.</p> <a href=\"https://www.theguardian.com/world/2020/dec/19/covid-19-patients-killed-by-exploding-oxygen-cylinder-in-turkey\">Continue reading...</a>","link":"https://www.theguardian.com/world/2020/dec/19/covid-19-patients-killed-by-exploding-oxygen-cylinder-in-turkey","published":"Sat, 19 Dec 2020 22:21:58 GMT","geolocations":[{"name":"Turkey","count":4,"lat":39.92109,"lng":32.85391,"type":"country"},{"name":"Gaziantep","count":1,"lat":37.06252,"lng":37.37512,"type":"point"},{"name":"Syria","count":1,"lat":33.51656,"lng":36.31708,"type":"point"},{"name":"Ankara","count":1,"lat":39.92109,"lng":32.85391,"type":"point"}],"source":"The Guardian"},{"feed_name":"World","feed_url":"https://www.latimes.com/world/rss2.0.xml","title":"A tale of two cities: the cautious refugees hit by COVID-19 and those who call it a hoax and refuse masks","summary":"<p>In South Dakota's largest city, the coronavirus was once largely seen as something that infected refugees and immigrants at the Smithfield pork plant. Now, it has spread far and wide across one of the worst-hit states.</p>","link":"https://www.latimes.com/world-nation/story/2020-12-18/south-dakota-sioux-falls-coronavirus","published":"Fri, 18 Dec 2020 05:00:32 -0500","geolocations":[{"name":"South Dakota","count":3,"lat":44.36905,"lng":-100.35,"type":"point"},{"name":"Smithfield","count":15,"lat":35.51175,"lng":-78.34729,"type":"point"},{"name":"Sioux Falls","count":7,"lat":43.54577,"lng":-96.73128,"type":"point"},{"name":"Urwan","count":12,"lat":24.346,"lng":85.46229,"type":"point"},{"name":"South Dakota’S","count":1,"lat":44.36905,"lng":-100.35,"type":"point"},{"name":"Windy City","count":1,"lat":41.61723,"lng":-78.87866,"type":"point"},{"name":"Plains","count":1,"lat":33.18661,"lng":-102.81865,"type":"point"},{"name":"Midwest","count":1,"lat":43.41272,"lng":-106.27664,"type":"point"},{"name":"Bhutan","count":1,"lat":27.41483,"lng":90.42623,"type":"country"},{"name":"Nepal","count":1,"lat":27.69329,"lng":85.32227,"type":"country"},{"name":"Sioux","count":2,"lat":42.4999,"lng":-96.42086,"type":"point"},{"name":"Ethiopia","count":2,"lat":9.01358,"lng":38.76286,"type":"country"},{"name":"Sudan","count":1,"lat":15.58651,"lng":32.52318,"type":"point"},{"name":"Sioux River","count":1,"lat":42.52187,"lng":-96.48322,"type":"point"},{"name":"California","count":1,"lat":38.57944,"lng":-121.49085,"type":"point"},{"name":"Greeley","count":1,"lat":40.42327,"lng":-104.69446,"type":"point"},{"name":"Virginia","count":1,"lat":37.54068,"lng":-77.43367,"type":"point"},{"name":"Queens","count":1,"lat":46.2576,"lng":-63.11851,"type":"point"},{"name":"Aayo Badaa Dina","count":1,"lat":25.22709,"lng":81.67618,"type":"point"},{"name":"Falls Smithfield","count":1,"lat":41.48321,"lng":-75.85466,"type":"point"}],"source":"Los Angeles Times"},{"feed_name":"World","feed_url":"https://rss.nytimes.com/services/xml/rss/nyt/World.xml","title":"Your Friday Briefing","summary":"European leaders self-quarantine after meeting with Macron.","link":"https://www.nytimes.com/2020/12/17/briefing/macron-coronavirus-aleksei-navalny-chartreuse.html","published":"Fri, 18 Dec 2020 07:24:58 +0000","geolocations":[{"name":"U.S.","count":2,"lat":38.89037,"lng":-77.03196,"type":"country"},{"name":"Arctic","count":1,"lat":42.18723,"lng":-75.41355,"type":"point"},{"name":"Bangladesh","count":1,"lat":23.71325,"lng":90.39959,"type":"country"},{"name":"Brussels","count":1,"lat":50.84439,"lng":4.35609,"type":"point"}],"source":"The New York Times"},{"feed_name":"World","feed_url":"https://www.theguardian.com/world/rss","title":"Keir Starmer: Christmas relaxation of Covid rules is Boris Johnson's 'next big mistake' – video","summary":"<p>Plans to relax Covid restrictions over Christmas are an error, says the Labour leader, as swathes of England have either entered or will enter tier 3 this week, and with mounting cases and hospitalisations. But Boris Johnson has resisted calls to reverse the five-day relaxation, instead urging the public to take individual responsibility. 'The prime minister should take the hard decisions, not hand them over to individuals,' says Starmer.</p><ul><li><a href=\"https://www.theguardian.com/politics/live/2020/dec/18/brexit-coronavirus-covid-uk-michel-barnier-boris-johnson-eu-trade-talks-news-live-updates\">UK coronavirus live</a></li><li><a href=\"https://www.theguardian.com/politics/2020/dec/18/boris-johnson-refuses-to-rule-out-third-covid-lockdown-for-england\">Boris Johnson refuses to rule out third Covid lockdown for England</a></li></ul> <a href=\"https://www.theguardian.com/world/video/2020/dec/18/keir-starmer-christmas-relaxation-of-covid-rules-is-boris-johnsons-next-big-mistake-video\">Continue reading...</a>","link":"https://www.theguardian.com/world/video/2020/dec/18/keir-starmer-christmas-relaxation-of-covid-rules-is-boris-johnsons-next-big-mistake-video","published":"Fri, 18 Dec 2020 18:46:58 GMT","geolocations":[{"name":"England","count":1,"lat":51.50643,"lng":-0.12719,"type":"country"}],"source":"The Guardian"},{"feed_name":"World","feed_url":"https://rss.nytimes.com/services/xml/rss/nyt/World.xml","title":"Will a Looted Pissarro End Up in Oklahoma, or France?","summary":"A painting by the French Impressionist artist, with a back story of plunder and family tragedy, is at the center of courtroom battles on both sides of the Atlantic.","link":"https://www.nytimes.com/2020/12/17/arts/design/leone-meyer-pissarro.html","published":"Fri, 18 Dec 2020 11:29:12 +0000","geolocations":[{"name":"Paris","count":3,"lat":48.85717,"lng":2.3414,"type":"point"},{"name":"Left Bank","count":1,"lat":53.48079,"lng":-2.25379,"type":"point"},{"name":"The River Seine","count":1,"lat":48.66728,"lng":-92.54977,"type":"point"},{"name":"Oklahoma","count":2,"lat":35.47203,"lng":-97.52107,"type":"point"},{"name":"France","count":1,"lat":48.85717,"lng":2.3414,"type":"country"},{"name":"The Western District","count":1,"lat":38.96724,"lng":-77.07748,"type":"point"}],"source":"The New York Times"},{"feed_name":"World","feed_url":"https://www.latimes.com/world/rss2.0.xml","title":"A lifelong Republican stood up to Trump. His reward: Death threats","summary":"<p>Georgia election official Gabriel Sterling is girding for another battle with conspiracy theories and lies about the integrity of the voting system. </p>","link":"https://www.latimes.com/world-nation/story/2020-12-14/why-a-life-long-republican-took-on-trump-and-his-job-isnt-yet-done","published":"Mon, 14 Dec 2020 07:00:35 -0500","geolocations":[{"name":"Nevada","count":1,"lat":39.16506,"lng":-119.76697,"type":"point"},{"name":"Fulton County","count":1,"lat":43.19048,"lng":-84.70875,"type":"point"},{"name":"Philadelphia","count":1,"lat":39.95222,"lng":-75.16218,"type":"point"},{"name":"Sandy Springs","count":1,"lat":33.92483,"lng":-84.37908,"type":"point"},{"name":"Atlanta","count":2,"lat":33.74831,"lng":-84.39111,"type":"point"},{"name":"Washington","count":1,"lat":38.89037,"lng":-77.03196,"type":"point"},{"name":"Jarvie","count":1,"lat":54.45442,"lng":-113.98794,"type":"point"}],"source":"Los Angeles Times"},{"feed_name":"World","feed_url":"https://rss.nytimes.com/services/xml/rss/nyt/World.xml","title":"Greece Wants Him in Prison. Instead, He’s in the E.U. Parliament.","summary":"Leaders of the neo-fascist Golden Dawn party were convicted of running a criminal group. But one is living free in Brussels, immune from extradition as a European Parliament member.","link":"https://www.nytimes.com/2020/12/19/world/europe/Greece-Golden-Dawn-Lagos.html","published":"Sat, 19 Dec 2020 14:26:09 +0000","geolocations":[{"name":"Greece","count":1,"lat":37.97614,"lng":23.7364,"type":"country"},{"name":"Europe","count":1,"lat":-33.98201,"lng":18.58413,"type":"point"},{"name":"Spain","count":1,"lat":40.41955,"lng":-3.69196,"type":"country"}],"source":"The New York Times"},{"feed_name":"World","feed_url":"https://rss.nytimes.com/services/xml/rss/nyt/World.xml","title":"French President Macron Says Covid Symptoms Have Slowed Him Down","summary":"","link":"https://www.nytimes.com/2020/12/18/world/france-macron-covid-video.html","published":"Fri, 18 Dec 2020 17:53:16 +0000","geolocations":[{"name":"France","count":2,"lat":48.85717,"lng":2.3414,"type":"country"}],"source":"The New York Times"},{"feed_name":"World - Europe","feed_url":"http://feeds.bbci.co.uk/news/world/rss.xml","title":"Covid: The countries worried they won't get the vaccine","summary":"Countries such as Zimbabwe, Mexico and Pakistan are likely to have to wait for the coronavirus vaccine.","link":"https://www.bbc.co.uk/news/world-55325450","published":"Sat, 19 Dec 2020 00:06:25 GMT","geolocations":[{"name":"Pakistan","count":1,"lat":33.70964,"lng":73.07545,"type":"point"}],"source":"BBC"},{"feed_name":"World","feed_url":"https://www.latimes.com/world/rss2.0.xml","title":"A Hong Kong pastor tried to protect democracy activists. Now his bank account is frozen","summary":"<p>China is targeting government opponents through financial institutions using a draconian national security law that's already led to U.S. sanctions. </p>","link":"https://www.latimes.com/world-nation/story/2020-12-16/hong-kong-bank-accounts-frozen","published":"Wed, 16 Dec 2020 04:30:33 -0500","geolocations":[{"name":"Hong Kong’S","count":6,"lat":22.2783,"lng":114.16039,"type":"point"},{"name":"United Kingdom","count":4,"lat":38.95953,"lng":-91.92768,"type":"point"},{"name":"Hong Kong","count":16,"lat":22.2783,"lng":114.16039,"type":"point"},{"name":"China","count":11,"lat":39.90657,"lng":116.38765,"type":"country"},{"name":"Asia","count":2,"lat":-12.76551,"lng":-76.61171,"type":"point"},{"name":"Beijing","count":3,"lat":39.90657,"lng":116.38765,"type":"point"},{"name":"Hong Kongers","count":1,"lat":22.2783,"lng":114.16039,"type":"point"},{"name":"U.K.","count":1,"lat":29.93186,"lng":77.81922,"type":"point"},{"name":"U.S.","count":5,"lat":38.89037,"lng":-77.03196,"type":"country"},{"name":"London","count":1,"lat":51.50643,"lng":-0.12719,"type":"point"},{"name":"Europe","count":1,"lat":-33.98201,"lng":18.58413,"type":"point"}],"source":"Los Angeles Times"},{"feed_name":"World","feed_url":"https://www.theguardian.com/world/rss","title":"Progressives are a minority in America. To win, they need to compromise | Michael Lind","summary":"<p>Rebuilding something like the New Deal coalition may require winning back socially moderate and conservative voters</p><p>“If we are victorious in one more battle with the Romans, we shall be utterly ruined,” lamented King Pyrrhus of Epirus, whose costly triumph in 279 BC inspired the phrase “Pyrrhic victory”. In 2020, the Democratic party learned what King Pyrrhus was talking about. They recaptured the White House and narrowly held on to the House of Representatives. And if the Democrats win both Senate runoffs in Georgia, they may yet capture the Senate. But Republicans increased their share of the House, making it easier for them to recapture it in 2022, and they control a majority of state legislatures whose redistricting plans for the US Congress can help the Republican party.</p><p>Perhaps the greatest blow has been to the progressive interpretation of American politics. Most progressives have understood Trumpism as the last gasp of a dwindling, reactionary white male population. The future of the Democrats, it was said, lay with women and minorities. And yet in 2020 white men shifted more toward Biden than white women did. Black and brown Americans still voted mostly for Democrats, but there were significant shifts toward the Republicans among black and Hispanic voters and all of the Republicans who took contested seats from the Democrats were minority group members or women.</p> <a href=\"https://www.theguardian.com/us-news/commentisfree/2020/dec/19/progressives-us-democrats-power-new-deal\">Continue reading...</a>","link":"https://www.theguardian.com/us-news/commentisfree/2020/dec/19/progressives-us-democrats-power-new-deal","published":"Sat, 19 Dec 2020 11:21:47 GMT","geolocations":[{"name":"Us","count":1,"lat":38.89037,"lng":-77.03196,"type":"country"}],"source":"The Guardian"},{"feed_name":"World","feed_url":"https://rss.nytimes.com/services/xml/rss/nyt/World.xml","title":"Head of U.S. Vaccine Distribution Apologies to States for Shortfalls","summary":"States' plans for vaccinations have been disrupted.","link":"https://www.nytimes.com/2020/12/19/world/operation-warp-speed-vaccine-delivery-problems.html","published":"Sat, 19 Dec 2020 20:41:04 +0000","geolocations":[{"name":"America","count":1,"lat":51.43739,"lng":5.98176,"type":"point"}],"source":"The New York Times"},{"feed_name":"World","feed_url":"https://www.latimes.com/world/rss2.0.xml","title":"Haves vs. have-nots: Who 'deserves' to be next in line for the COVID-19 vaccine?","summary":"<p>Americans waiting their turn for a COVID-19 vaccine may not be pleased to see who's in line ahead of them. Does a prisoner or smoker deserve it more?</p>","link":"https://www.latimes.com/science/story/2020-12-19/who-deserves-to-get-covid-19-vaccine-next","published":"Sat, 19 Dec 2020 15:05:56 -0500","geolocations":[{"name":"U.S.","count":3,"lat":38.89037,"lng":-77.03196,"type":"country"},{"name":"The United States","count":1,"lat":38.89037,"lng":-77.03196,"type":"country"},{"name":"California","count":1,"lat":38.57944,"lng":-121.49085,"type":"point"},{"name":"North Carolina","count":1,"lat":35.78547,"lng":-78.6427,"type":"point"},{"name":"Maryland","count":1,"lat":38.97678,"lng":-76.49014,"type":"point"},{"name":"Delaware","count":1,"lat":39.15803,"lng":-75.52473,"type":"point"},{"name":"Utah","count":1,"lat":40.76031,"lng":-111.88822,"type":"point"},{"name":"New Mexico","count":1,"lat":35.69177,"lng":-105.93824,"type":"point"},{"name":"Nebraska","count":1,"lat":40.81362,"lng":-96.7073,"type":"point"},{"name":"Montana","count":1,"lat":46.58976,"lng":-112.02065,"type":"point"},{"name":"Massachusetts","count":1,"lat":42.35866,"lng":-71.05674,"type":"point"},{"name":"Colorado","count":1,"lat":39.74001,"lng":-104.99202,"type":"point"},{"name":"Polis","count":1,"lat":35.03688,"lng":32.40714,"type":"point"}],"source":"Los Angeles Times"},{"feed_name":"World","feed_url":"https://rss.nytimes.com/services/xml/rss/nyt/World.xml","title":"Emmanuel Macron's Doctor Calls His Condition Stable","summary":"","link":"https://www.nytimes.com/2020/12/19/world/emmanuel-macron-covid-stable.html","published":"Sun, 20 Dec 2020 03:10:43 +0000","geolocations":[{"name":"France","count":3,"lat":48.85717,"lng":2.3414,"type":"country"},{"name":"Brussels","count":1,"lat":50.84439,"lng":4.35609,"type":"point"}],"source":"The New York Times"},{"feed_name":"World","feed_url":"https://rss.nytimes.com/services/xml/rss/nyt/World.xml","title":"To Understand Red-State America, He Urges a Look at Red-State Israel","summary":"An Israeli sociologist argues that Trump voters, like Netanyahu supporters in Israel, have legitimate reasons to find liberal values threatening.","link":"https://www.nytimes.com/2020/12/18/world/middleeast/israel-mizrahim-netanyahu.html","published":"Fri, 18 Dec 2020 19:16:39 +0000","geolocations":[{"name":"Israel","count":2,"lat":31.78003,"lng":35.21873,"type":"country"},{"name":"Iraq","count":1,"lat":33.3421,"lng":44.39307,"type":"country"},{"name":"Jerusalem","count":1,"lat":31.7801,"lng":35.20882,"type":"point"},{"name":"Mizrahi","count":2,"lat":32.05909,"lng":34.76938,"type":"point"},{"name":"The United States","count":1,"lat":38.89037,"lng":-77.03196,"type":"country"},{"name":"Mizrahim","count":1,"lat":32.05909,"lng":34.76938,"type":"point"},{"name":"Europe","count":1,"lat":-33.98201,"lng":18.58413,"type":"point"}],"source":"The New York Times"},{"feed_name":"World","feed_url":"https://rss.nytimes.com/services/xml/rss/nyt/World.xml","title":"A Canadian’s Gripping Tale Withers Under Scrutiny","summary":"A Burlington, Ontario, man told elaborate and gruesome stories of life in the Islamic State for a New York Times podcast. An examination revealed a pattern of misrepresentation.","link":"https://www.nytimes.com/2020/12/18/world/canada/canada-caliphate-chaudhry.html","published":"Fri, 18 Dec 2020 22:17:47 +0000","geolocations":[{"name":"Syria","count":2,"lat":33.51656,"lng":36.31708,"type":"point"},{"name":"Podcast","count":1,"lat":48.15764,"lng":-4.13881,"type":"point"},{"name":"Burlington","count":1,"lat":43.32619,"lng":-79.79862,"type":"point"},{"name":"Ontario","count":1,"lat":43.64869,"lng":-79.38544,"type":"point"}],"source":"The New York Times"},{"feed_name":"World","feed_url":"https://www.theguardian.com/world/rss","title":"'Santa Claus is good to go': Dr Fauci says he vaccinated Father Christmas – video","summary":"<p>Anthony Fauci told children he had visited Santa Claus at the north pole and personally gave him the vaccine so he could deliver presents this year.</p><p>The US infectious disease expert responded to video messages sent in to CNN on Saturday from children who were concerned they would not receive their presents due to spread of Covid-19</p> <a href=\"https://www.theguardian.com/world/video/2020/dec/19/santa-claus-is-good-to-go-dr-fauci-says-he-vaccinated-father-christmas-video\">Continue reading...</a>","link":"https://www.theguardian.com/world/video/2020/dec/19/santa-claus-is-good-to-go-dr-fauci-says-he-vaccinated-father-christmas-video","published":"Sat, 19 Dec 2020 18:41:36 GMT","geolocations":[{"name":"Us","count":1,"lat":38.89037,"lng":-77.03196,"type":"country"}],"source":"The Guardian"},