[{"feed_name":"World","feed_url":"https://www.latimes.com/world/rss2.0.xml","title":"FDA authorizes vaccine from Moderna and NIH, ramping up fight against COVID-19","summary":"<p>The Food and Drug Administration grants emergency-use authorization to the COVID-19 vaccine from Moderna and the National Institutes of Health.</p>","link":"https://www.latimes.com/science/story/2020-12-18/fda-authorizes-covid-vaccine-moderna-nih","published":"Fri, 18 Dec 2020 19:49:52 -0500","geolocations":[{"name":"Pfizer","count":1,"lat":51.26584,"lng":-0.25106,"type":"point"},{"name":"The United States","count":3,"lat":38.89037,"lng":-77.03196,"type":"country"},{"name":"Southern California","count":1,"lat":41.77455,"lng":-84.88371,"type":"point"},{"name":"The San Joaquin Valley","count":1,"lat":34.28543,"lng":-118.68464,"type":"point"},{"name":"U.S.","count":1,"lat":38.89037,"lng":-77.03196,"type":"country"},{"name":"California","count":1,"lat":38.57944,"lng":-121.49085,"type":"point"},{"name":"Washington","count":1,"lat":38.89037,"lng":-77.03196,"type":"point"},{"name":"Fairfield","count":1,"lat":38.24924,"lng":-122.0443,"type":"point"},{"name":"Conn.","count":1,"lat":43.99815,"lng":-80.56848,"type":"point"}],"source":"Los Angeles Times"},{"feed_name":"World","feed_url":"https://www.aljazeera.com/xml/rss/all.xml","title":"Kenya’s sexual violence survivors get justice, though imperfect","summary":"After 13 years, a Kenyan court ruled in favour of four victims of sexual assault during the 2007 post-election violence.","link":"https://www.aljazeera.com/opinions/2020/12/25/for-kenyas-sexual-violence-survivors-justice-though","published":"Fri, 25 Dec 2020 08:38:08 +0000","geolocations":[{"name":"Kenya","count":6,"lat":-1.28352,"lng":36.82379,"type":"country"}],"source":"Aljazeera"},{"feed_name":"World","feed_url":"https://rss.nytimes.com/services/xml/rss/nyt/World.xml","title":"French President Macron, Free of Covid Symptoms, Leaves Isolation","summary":"The French leader, who suffered from a cough, headaches and fatigue after contracting the coronavirus, has remained active during his quarantine period, his office said.","link":"https://www.nytimes.com/2020/12/24/world/europe/france-macron-covid.html","published":"Thu, 24 Dec 2020 18:06:35 +0000","geolocations":[{"name":"Paris","count":1,"lat":48.85717,"lng":2.3414,"type":"point"},{"name":"France","count":2,"lat":48.85717,"lng":2.3414,"type":"country"}],"source":"The New York Times"},{"feed_name":"World","feed_url":"https://www.theguardian.com/world/rss","title":"The Queen and Duke of Edinburgh spend Christmas Day at Windsor Castle","summary":"<p>Monarch not with family in Norfolk for first time in 30 years because of Covid restrictions</p><p>The royal family, in common with so many other families across the nation, were separated by tiers and restrictions on Christmas Day.</p><p>The Queen, 94, and Duke of Edinburgh, 99, spent the day privately at Windsor Castle, where they have been shielding throughout the lockdowns during the coronavirus pandemic.</p> <a href=\"https://www.theguardian.com/uk-news/2020/dec/25/the-queen-and-duke-of-edinburgh-spend-christmas-day-at-windsor-castle\">Continue reading...</a>","link":"https://www.theguardian.com/uk-news/2020/dec/25/the-queen-and-duke-of-edinburgh-spend-christmas-day-at-windsor-castle","published":"Fri, 25 Dec 2020 13:18:24 GMT","geolocations":[{"name":"Norfolk","count":2,"lat":42.87221,"lng":-80.31663,"type":"point"},{"name":"Edinburgh","count":1,"lat":55.95438,"lng":-3.20144,"type":"point"},{"name":"Sandringham","count":1,"lat":52.83037,"lng":0.50861,"type":"point"},{"name":"Cambridge","count":1,"lat":52.20992,"lng":0.11161,"type":"point"},{"name":"Princess Charlotte","count":1,"lat":35.23176,"lng":-80.8792,"type":"point"},{"name":"Prince Louis","count":1,"lat":46.24127,"lng":-63.65884,"type":"point"},{"name":"The Prince Of Wales","count":1,"lat":45.20262,"lng":-66.27879,"type":"point"},{"name":"Cornwall","count":1,"lat":45.02842,"lng":-74.73569,"type":"point"},{"name":"Gloucestershire","count":1,"lat":51.8481,"lng":-2.1359,"type":"point"},{"name":"Aberdeenshire","count":1,"lat":57.28497,"lng":-2.71188,"type":"point"}],"source":"The Guardian"},{"feed_name":"World","feed_url":"https://www.aljazeera.com/xml/rss/all.xml","title":"Chinese vaccines are poised to fill gap, but will they work?","summary":"For those countries that have not yet secured a vaccine, China may be the only solution.","link":"https://www.aljazeera.com/news/2020/12/25/chinese-vaccines-are-poised-to-fill-gap-but-will-they-work","published":"Fri, 25 Dec 2020 10:06:45 +0000","geolocations":[{"name":"China","count":16,"lat":39.90657,"lng":116.38765,"type":"country"},{"name":"United Kingdom","count":1,"lat":38.95953,"lng":-91.92768,"type":"point"},{"name":"Bahrain","count":1,"lat":26.22952,"lng":50.57604,"type":"country"},{"name":"The United Arab Emirates","count":2,"lat":24.46918,"lng":54.37173,"type":"country"},{"name":"Morocco","count":1,"lat":34.01791,"lng":-6.83612,"type":"country"},{"name":"Turkey","count":2,"lat":39.92109,"lng":32.85391,"type":"country"},{"name":"Indonesia","count":1,"lat":-6.17148,"lng":106.82649,"type":"country"},{"name":"Brazil","count":2,"lat":-15.77829,"lng":-47.92909,"type":"country"},{"name":"Russia","count":1,"lat":55.75696,"lng":37.61502,"type":"country"},{"name":"Egypt","count":1,"lat":30.04427,"lng":31.23525,"type":"country"},{"name":"Mexico","count":1,"lat":23.94757,"lng":-102.5411,"type":"country"},{"name":"Beijing","count":1,"lat":39.90657,"lng":116.38765,"type":"point"},{"name":"Rio De Janeiro","count":1,"lat":-22.91216,"lng":-43.17501,"type":"point"}],"source":"Aljazeera"},{"feed_name":"World","feed_url":"https://www.latimes.com/world/rss2.0.xml","title":"Many U.S. health experts underestimated the coronavirus — until it was too late","summary":"<p>U.S. infectious disease experts underestimated the fast-moving coronavirus outbreak in its early days, assuming the country would emerge largely unscathed.</p>","link":"https://www.latimes.com/science/story/2020-12-21/us-health-experts-underestimated-the-coronavirus-until-it-was-too-late","published":"Mon, 21 Dec 2020 17:15:48 -0500","geolocations":[{"name":"Wuhan","count":2,"lat":30.64353,"lng":114.32472,"type":"point"},{"name":"China","count":4,"lat":39.90657,"lng":116.38765,"type":"country"},{"name":"U.S.","count":9,"lat":38.89037,"lng":-77.03196,"type":"country"},{"name":"Taiwan","count":1,"lat":25.03737,"lng":121.56355,"type":"country"},{"name":"South Korea","count":1,"lat":37.55886,"lng":126.99989,"type":"country"},{"name":"Middle East","count":1,"lat":39.29996,"lng":-76.58967,"type":"point"},{"name":"Zika","count":1,"lat":49.99707,"lng":16.0655,"type":"point"},{"name":"The United States","count":3,"lat":38.89037,"lng":-77.03196,"type":"country"},{"name":"Mers","count":1,"lat":33.44517,"lng":-4.4494,"type":"point"},{"name":"Earth","count":1,"lat":38.76564,"lng":-90.46003,"type":"point"}],"source":"Los Angeles Times"},{"feed_name":"World","feed_url":"https://www.latimes.com/world/rss2.0.xml","title":"Pandemic closures alter the rhythm of life in towns on both sides of the U.S.-Mexico border","summary":"<p>Scaled-back hours at the border add difficulty for those who travel between countries for work, shopping and school.</p>","link":"https://www.latimes.com/world-nation/story/2020-12-22/bisbee-arizona-coronavirus-covid-19-mexico-border","published":"Tue, 22 Dec 2020 07:00:20 -0500","geolocations":[{"name":"U.S.","count":12,"lat":38.89037,"lng":-77.03196,"type":"country"},{"name":"Mexico","count":17,"lat":23.94757,"lng":-102.5411,"type":"country"},{"name":"Arizona","count":4,"lat":33.44825,"lng":-112.0758,"type":"point"},{"name":"Bisbee","count":17,"lat":31.44185,"lng":-109.91478,"type":"point"},{"name":"Naco","count":10,"lat":31.32692,"lng":-109.94841,"type":"point"},{"name":"Ariz.","count":3,"lat":40.2535,"lng":28.22813,"type":"point"},{"name":"Canada","count":1,"lat":45.42178,"lng":-75.69116,"type":"country"},{"name":"Sonora","count":6,"lat":37.98329,"lng":-120.38219,"type":"point"},{"name":"Texas","count":2,"lat":30.26759,"lng":-97.74299,"type":"point"},{"name":"Nogales","count":1,"lat":18.82165,"lng":-97.16297,"type":"point"},{"name":"Cochise County","count":1,"lat":31.96812,"lng":-110.28625,"type":"point"},{"name":"Laredo","count":1,"lat":27.53092,"lng":-99.50223,"type":"point"},{"name":"El Paso","count":1,"lat":31.75916,"lng":-106.48749,"type":"point"},{"name":"Tarazon","count":1,"lat":41.90457,"lng":-1.72321,"type":"point"},{"name":"Borrajo","count":1,"lat":39.96746,"lng":-4.81228,"type":"point"}],"source":"Los Angeles Times"},{"feed_name":"World","feed_url":"https://www.theguardian.com/world/rss","title":"Michael Jackson’s Neverland Ranch reportedly sells for $22m","summary":"<p>Property sold for less than a quarter of its initial $100m asking price to billionaire investor Ron Burkle</p><p>Michael Jackson’s Neverland Ranch has reportedly sold for $22m, less than a quarter of its initial $100m asking price, to billionaire investor Ron Burkle in a deal described one LA real estate agent as a “steal”.</p><p>The property in Los Olivos, California, was home to the late pop star from 1987, when he was at the height of his fame, to the time of his death in June 2009. He died of a drug overdose at a different home in the Holmby Hills neighborhood of Los Angeles.</p> <a href=\"https://www.theguardian.com/music/2020/dec/24/michael-jackson-neverland-ranch-sells-for-22m\">Continue reading...</a>","link":"https://www.theguardian.com/music/2020/dec/24/michael-jackson-neverland-ranch-sells-for-22m","published":"Thu, 24 Dec 2020 19:08:41 GMT","geolocations":[{"name":"La","count":2,"lat":17.9518,"lng":102.61892,"type":"country"},{"name":"Los Olivos","count":1,"lat":-11.97626,"lng":-77.07503,"type":"point"},{"name":"California","count":1,"lat":38.57944,"lng":-121.49085,"type":"point"},{"name":"Holmby Hills","count":1,"lat":55.74696,"lng":13.3993,"type":"point"},{"name":"Los Angeles","count":2,"lat":34.05357,"lng":-118.24545,"type":"point"},{"name":"Jackson","count":1,"lat":32.29887,"lng":-90.18045,"type":"point"},{"name":"Neverland","count":1,"lat":40.15844,"lng":-83.02021,"type":"point"},{"name":"Santa Barbara","count":1,"lat":10.03704,"lng":-84.16022,"type":"point"},{"name":"Palm Springs","count":1,"lat":33.82321,"lng":-116.51196,"type":"point"}],"source":"The Guardian"},{"feed_name":"World","feed_url":"https://rss.nytimes.com/services/xml/rss/nyt/World.xml","title":"An Irish boy writes to Pfizer requesting a vaccination for Santa, and receives a reply from its C.E.O.","summary":"","link":"https://www.nytimes.com/2020/12/24/world/an-irish-boy-writes-to-pfizer-requesting-a-vaccination-for-santa-and-receives-a-reply-from-its-ceo.html","published":"Thu, 24 Dec 2020 15:48:53 +0000","geolocations":[{"name":"The North Pole","count":1,"lat":-20.60773,"lng":27.55545,"type":"point"},{"name":"Santa","count":1,"lat":35.69177,"lng":-105.93824,"type":"point"}],"source":"The New York Times"},{"feed_name":"World","feed_url":"https://www.latimes.com/world/rss2.0.xml","title":"Column: Biden was left with a mess in Iran. Can he get out of it?","summary":"<p>The first foreign policy challenge for the Biden administration will be reviving the U.S. nuclear deal with Iran.</p>","link":"https://www.latimes.com/politics/story/2020-12-20/biden-was-left-with-a-mess-in-iran-can-he-get-out-of-it","published":"Sun, 20 Dec 2020 07:00:45 -0500","geolocations":[{"name":"Iran","count":16,"lat":35.68877,"lng":51.41503,"type":"country"},{"name":"Tehran","count":3,"lat":35.68877,"lng":51.41503,"type":"point"},{"name":"U.S.","count":5,"lat":38.89037,"lng":-77.03196,"type":"country"},{"name":"The United States","count":3,"lat":38.89037,"lng":-77.03196,"type":"country"},{"name":"New York","count":1,"lat":40.71455,"lng":-74.00714,"type":"point"},{"name":"Delaware","count":1,"lat":39.15803,"lng":-75.52473,"type":"point"},{"name":"United States","count":1,"lat":38.89037,"lng":-77.03196,"type":"country"},{"name":"Washington","count":1,"lat":38.89037,"lng":-77.03196,"type":"point"}],"source":"Los Angeles Times"},{"feed_name":"World","feed_url":"https://rss.nytimes.com/services/xml/rss/nyt/World.xml","title":"As Evidence Mounts that Navalny Was Poisoned by State, Russians Just Sigh","summary":"Aleksei Navalny, the top critic of President Putin, has aired evidence that he was poisoned by his own government. Russians have responded with fear, disbelief and a lot of apathy.","link":"https://www.nytimes.com/2020/12/23/world/europe/russia-navalny-poisoning.html","published":"Wed, 23 Dec 2020 23:57:59 +0000","geolocations":[{"name":"Moscow","count":1,"lat":55.75696,"lng":37.61502,"type":"point"},{"name":"Russia","count":1,"lat":55.75696,"lng":37.61502,"type":"country"}],"source":"The New York Times"},{"feed_name":"World","feed_url":"https://rss.nytimes.com/services/xml/rss/nyt/World.xml","title":"Hong Kong Media Tycoon Jimmy Lai Is Freed on Bail","summary":"The Hong Kong pro-democracy media tycoon is freed on bail, but was placed under house arrest and barred from meeting foreign officials and publishing articles.","link":"https://www.nytimes.com/2020/12/23/world/asia/jimmy-lai-hong-kong-bail.html","published":"Thu, 24 Dec 2020 03:11:02 +0000","geolocations":[{"name":"Hong Kong","count":4,"lat":22.2783,"lng":114.16039,"type":"point"},{"name":"Hong Kong’S","count":1,"lat":22.2783,"lng":114.16039,"type":"point"},{"name":"Beijing","count":1,"lat":39.90657,"lng":116.38765,"type":"point"}],"source":"The New York Times"},{"feed_name":"World","feed_url":"https://rss.nytimes.com/services/xml/rss/nyt/World.xml","title":"Blackwater, Iraq and President Trump's Pardon","summary":"Iraqi witnesses against Blackwater guards were promised justice after a mass killing in Baghdad in 2007. ‘Today,’ one said, the bullets still in his leg, ‘they proved to me it was just theater.’","link":"https://www.nytimes.com/2020/12/23/world/middleeast/blackwater-trump-pardon.html","published":"Thu, 24 Dec 2020 14:49:42 +0000","geolocations":[{"name":"The United States","count":4,"lat":38.89037,"lng":-77.03196,"type":"country"},{"name":"The District Of Columbia","count":1,"lat":44.63305,"lng":-67.85116,"type":"point"},{"name":"Baghdad","count":1,"lat":33.3421,"lng":44.39307,"type":"point"},{"name":"Blackwater","count":2,"lat":-23.58569,"lng":148.88012,"type":"point"},{"name":"U.S.","count":2,"lat":38.89037,"lng":-77.03196,"type":"country"}],"source":"The New York Times"},{"feed_name":"World","feed_url":"https://www.aljazeera.com/xml/rss/all.xml","title":"India: Modi addresses farmers, claims opposition fuelling fears","summary":"Tens of thousands of farmers are protesting against new laws they say will threaten their livelihoods.","link":"https://www.aljazeera.com/news/2020/12/25/indias-pm-modi-addresses-farmers","published":"Fri, 25 Dec 2020 10:12:50 +0000","geolocations":[{"name":"New Delhi","count":1,"lat":28.63095,"lng":77.21721,"type":"point"},{"name":"India","count":2,"lat":28.63095,"lng":77.21721,"type":"country"},{"name":"Haryana","count":1,"lat":29.19659,"lng":76.34156,"type":"point"},{"name":"Punjab","count":2,"lat":30.84324,"lng":75.41748,"type":"point"},{"name":"Delhi","count":1,"lat":28.63409,"lng":77.21693,"type":"point"}],"source":"Aljazeera"},{"feed_name":"World - Europe","feed_url":"http://feeds.bbci.co.uk/news/world/rss.xml","title":"The 101-year-old veteran with thousands of Christmas cards","summary":"John received mail from around the world after speaking about the loss of his wife on BBC Breakfast.","link":"https://www.bbc.co.uk/news/uk-55437423","published":"Thu, 24 Dec 2020 11:05:32 GMT","geolocations":[{"name":"Norfolk","count":1,"lat":42.87221,"lng":-80.31663,"type":"point"}],"source":"BBC"},{"feed_name":"World","feed_url":"https://www.theguardian.com/world/rss","title":"Coronavirus global report: Christmas curtailed as UK arrivals face tougher measures","summary":"<p>Pope addresses fewer than 200 people in St Peter’s; China and US take action against UK amid concerns about new variant; South Korea reports daily case record </p><ul><li><a href=\"https://www.theguardian.com/world/2020/dec/24/staff-at-uk-coronavirus-testing-lab-hit-by-outbreak-of-the-disease\">Staff at UK coronavirus testing lab hit by outbreak</a></li><li><a href=\"https://www.theguardian.com/world/2020/dec/24/uk-coronavirus-death-toll-increases-by-574\">Johnson refuses to rule out national lockdown as UK death toll rises by 574</a> </li><li><a href=\"https://www.theguardian.com/us-news/2020/dec/24/donald-trump-covid-relief-bill-republicans-democrats-biden\">Trump claims to be ‘working tirelessly’ but leaves Covid relief in disarray</a> </li></ul><p>The coronavirus pandemic cast a pall over Christmas celebrations worldwide, with the pope holding a reduced St Peter’s mass, and further restrictions imposed on arrivals from the UK and South Africa amid concerns about potentially more transmissible variants of the virus.</p><p><strong>China</strong> said it would halt UK flight arrivals indefinitely, deciding to follow the example of dozens of countries that introduced bans this week following the emergence of a new mutation in the virus. There are currently eight weekly flights between mainland China and Britain, including two by British Airways.</p> <a href=\"https://www.theguardian.com/world/2020/dec/25/coronavirus-global-report-christmas-events-scaled-back-as-south-korea-reports-record-cases\">Continue reading...</a>","link":"https://www.theguardian.com/world/2020/dec/25/coronavirus-global-report-christmas-events-scaled-back-as-south-korea-reports-record-cases","published":"Fri, 25 Dec 2020 04:52:55 GMT","geolocations":[{"name":"South Africa","count":2,"lat":-25.74587,"lng":28.18764,"type":"country"},{"name":"China","count":2,"lat":39.90657,"lng":116.38765,"type":"country"},{"name":"United Kingdom","count":1,"lat":38.95953,"lng":-91.92768,"type":"point"},{"name":"Us","count":2,"lat":38.89037,"lng":-77.03196,"type":"country"},{"name":"New York City","count":1,"lat":40.71455,"lng":-74.00714,"type":"point"},{"name":"Hong Kong","count":1,"lat":22.2783,"lng":114.16039,"type":"point"},{"name":"South Korea","count":2,"lat":37.55886,"lng":126.99989,"type":"country"},{"name":"Seoul","count":1,"lat":37.55886,"lng":126.99989,"type":"point"},{"name":"Italy","count":2,"lat":41.90322,"lng":12.49565,"type":"country"},{"name":"Europe","count":1,"lat":-33.98201,"lng":18.58413,"type":"point"},{"name":"Bethlehem","count":1,"lat":40.6266,"lng":-75.36798,"type":"point"},{"name":"Syria","count":1,"lat":33.51656,"lng":36.31708,"type":"point"},{"name":"Qamishli","count":1,"lat":37.05472,"lng":41.23975,"type":"point"},{"name":"Germany","count":1,"lat":52.51604,"lng":13.37691,"type":"country"},{"name":"Kuwait","count":1,"lat":29.37321,"lng":47.97142,"type":"country"},{"name":"Philippines","count":1,"lat":14.60487,"lng":120.98627,"type":"country"},{"name":"Manila","count":1,"lat":14.60487,"lng":120.98627,"type":"point"},{"name":"England","count":1,"lat":51.50643,"lng":-0.12719,"type":"country"},{"name":"Sydney","count":1,"lat":-33.8696,"lng":151.20691,"type":"point"},{"name":"Australia","count":1,"lat":-35.30654,"lng":149.12655,"type":"country"},{"name":"New South Wales","count":1,"lat":-32.16736,"lng":147.01315,"type":"point"},{"name":"Cbd","count":2,"lat":-20.15052,"lng":28.58919,"type":"point"}],"source":"The Guardian"},{"feed_name":"World","feed_url":"https://www.latimes.com/world/rss2.0.xml","title":"Trump pardon of Blackwater killers sparks outrage in Iraq","summary":"<p>The pardons of four Blackwater contractors has reignited anger over one of the most disturbing episodes in the U.S. invasion and occupation of Iraq.</p>","link":"https://www.latimes.com/world-nation/story/2020-12-23/trump-pardons-blackwater-killers-sparking-outrage-in-iraq-and-elsewhere","published":"Wed, 23 Dec 2020 16:35:49 -0500","geolocations":[{"name":"Baghdad","count":1,"lat":33.3421,"lng":44.39307,"type":"point"},{"name":"Blackwater","count":5,"lat":-23.58569,"lng":148.88012,"type":"point"},{"name":"U.S.","count":7,"lat":38.89037,"lng":-77.03196,"type":"country"},{"name":"Iraq","count":5,"lat":33.3421,"lng":44.39307,"type":"country"},{"name":"The United States","count":4,"lat":38.89037,"lng":-77.03196,"type":"country"},{"name":"Washington","count":3,"lat":38.89037,"lng":-77.03196,"type":"point"},{"name":"Iran","count":1,"lat":35.68877,"lng":51.41503,"type":"country"},{"name":"Afghanistan","count":2,"lat":34.53313,"lng":69.10223,"type":"country"},{"name":"Amman","count":1,"lat":31.9518,"lng":35.94042,"type":"point"}],"source":"Los Angeles Times"},{"feed_name":"World","feed_url":"https://www.theguardian.com/world/rss","title":"Uganda charges leading lawyer for LGBT rights with money laundering","summary":"<p>Human rights organisation says allegations that Nicholas Opiyo withdrew over $300,000 in funds are ‘frivolous’ and ‘fabricated’</p><p>Nicholas Opiyo, one of Uganda’s most prominent human rights lawyers, has been charged with money laundering.</p><p>Opiyo, known for representing LGBTQ+ people, appeared before magistrates in Kampala on Thursday and was remanded in custody until 28 December.</p> <a href=\"https://www.theguardian.com/global-development/2020/dec/24/uganda-charges-leading-lawyer-for-lgbt-rights-with-money-laundering-nicholas-opiyo\">Continue reading...</a>","link":"https://www.theguardian.com/global-development/2020/dec/24/uganda-charges-leading-lawyer-for-lgbt-rights-with-money-laundering-nicholas-opiyo","published":"Thu, 24 Dec 2020 15:18:41 GMT","geolocations":[{"name":"Uganda","count":4,"lat":0.31589,"lng":32.57501,"type":"country"},{"name":"Kampala","count":3,"lat":0.31589,"lng":32.57501,"type":"point"},{"name":"Us","count":1,"lat":38.89037,"lng":-77.03196,"type":"country"},{"name":"Eu","count":1,"lat":50.04903,"lng":1.42014,"type":"point"}],"source":"The Guardian"},{"feed_name":"World","feed_url":"https://rss.nytimes.com/services/xml/rss/nyt/World.xml","title":"Overwhelmed by virus victims, a New York funeral home became a scene of ‘horrifying disrespect.’","summary":"Andrew T. Cleckley was the first funeral director in New York to have his license revoked over the way he handled the remains of pandemic victims.","link":"https://www.nytimes.com/2020/12/23/nyregion/overwhelmed-by-virus-victims-a-new-york-funeral-home-became-a-scene-of-horrifying-disrespect.html","published":"Wed, 23 Dec 2020 10:13:30 +0000","geolocations":[{"name":"Brooklyn","count":1,"lat":40.69245,"lng":-73.99036,"type":"point"},{"name":"New York","count":1,"lat":40.71455,"lng":-74.00714,"type":"point"}],"source":"The New York Times"},{"feed_name":"World","feed_url":"https://rss.nytimes.com/services/xml/rss/nyt/World.xml","title":"U.S. Will Require Negative Covid-19 Test for All Travelers From U.K.","summary":"The new rule, which takes effect on Monday, will apply to Americans as well as foreign nationals.","link":"https://www.nytimes.com/2020/12/24/us/coronavirus-test-us-travel.html","published":"Fri, 25 Dec 2020 13:12:46 +0000","geolocations":[{"name":"Gatwick","count":1,"lat":51.16345,"lng":-0.17476,"type":"point"},{"name":"London","count":2,"lat":51.50643,"lng":-0.12719,"type":"point"},{"name":"The United States","count":1,"lat":38.89037,"lng":-77.03196,"type":"country"},{"name":"New York","count":1,"lat":40.71455,"lng":-74.00714,"type":"point"},{"name":"New Jersey","count":1,"lat":40.21788,"lng":-74.7594,"type":"point"},{"name":"Europe","count":1,"lat":-33.98201,"lng":18.58413,"type":"point"},{"name":"Asia","count":1,"lat":-12.76551,"lng":-76.61171,"type":"point"},{"name":"United Kingdom","count":1,"lat":38.95953,"lng":-91.92768,"type":"point"},{"name":"U.S.","count":1,"lat":38.89037,"lng":-77.03196,"type":"country"}],"source":"The New York Times"},{"feed_name":"World","feed_url":"https://www.aljazeera.com/xml/rss/all.xml","title":"Japan’s Shinzo Abe apologises over ‘cherry blossom’ scandal","summary":"Ex-PM says he was unaware that his office had subsidised cherry blossom viewing parties for his supporters.","link":"https://www.aljazeera.com/news/2020/12/25/japans-shinzo-abe-apologises-over-cherry-blossom-scandal","published":"Fri, 25 Dec 2020 08:03:09 +0000","geolocations":[{"name":"Japan","count":3,"lat":35.68408,"lng":139.80885,"type":"country"},{"name":"Tokyo","count":1,"lat":35.68408,"lng":139.80885,"type":"point"}],"source":"Aljazeera"},{"feed_name":"World","feed_url":"https://rss.nytimes.com/services/xml/rss/nyt/World.xml","title":"China-E.U. Talks Hit Another Snag as Biden Camp Objects","summary":"Beijing and Brussels were on the brink of an agreement to roll back restrictions on investment. But the deal’s fate is uncertain amid growing animosity toward China and increasingly vocal opposition.","link":"https://www.nytimes.com/2020/12/23/business/china-european-union-united-states.html","published":"Wed, 23 Dec 2020 19:17:15 +0000","geolocations":[{"name":"China","count":3,"lat":39.90657,"lng":116.38765,"type":"country"},{"name":"Germany","count":2,"lat":52.51604,"lng":13.37691,"type":"country"},{"name":"U.S.","count":1,"lat":38.89037,"lng":-77.03196,"type":"country"}],"source":"The New York Times"},{"feed_name":"World","feed_url":"https://www.latimes.com/world/rss2.0.xml","title":"Biden's test: Rebuilding the Iran nuclear deal Trump tore apart","summary":"<p>Biden considers an Iran nuclear deal 2.0 as a way to calm opposition as he returns the U.S. to the international pact.</p>","link":"https://www.latimes.com/politics/story/2020-12-21/bidens-plans-to-restore-iran-nuclear-deal-perhaps-with-leverage-provided-by-trump","published":"Mon, 21 Dec 2020 06:00:19 -0500","geolocations":[{"name":"U.S.","count":6,"lat":38.89037,"lng":-77.03196,"type":"country"},{"name":"Iran","count":18,"lat":35.68877,"lng":51.41503,"type":"country"},{"name":"Middle East","count":2,"lat":39.29996,"lng":-76.58967,"type":"point"},{"name":"Israel","count":2,"lat":31.78003,"lng":35.21873,"type":"country"},{"name":"France","count":1,"lat":48.85717,"lng":2.3414,"type":"country"},{"name":"United Kingdom","count":1,"lat":38.95953,"lng":-91.92768,"type":"point"},{"name":"Germany","count":1,"lat":52.51604,"lng":13.37691,"type":"country"},{"name":"Russia","count":1,"lat":55.75696,"lng":37.61502,"type":"country"},{"name":"China","count":1,"lat":39.90657,"lng":116.38765,"type":"country"},{"name":"Tehran","count":1,"lat":35.68877,"lng":51.41503,"type":"point"},{"name":"Washington","count":1,"lat":38.89037,"lng":-77.03196,"type":"point"}],"source":"Los Angeles Times"},{"feed_name":"World","feed_url":"https://www.theguardian.com/world/rss","title":"Panic, paucity and pessimism: life on Plague Island UK | Zoe Williams","summary":"<p>With a mutant Covid variant out of control and lorries piling up in Kent, Britain feels like a country adrift and rudderless</p><p>The rest of the world is calling the UK Plague Island because it’s true: a mutant strain of the coronavirus is out of control, laying waste to fantasies that any region is out of the woods, or that the November lockdown had its desired effect, or that we might manage a “merry little Christmas”, in the words of the prime minister.</p><p>The plague phrase carries a lot of resonance, beyond being a reference to the high prevalence of infectious disease: it casts us as a far-flung place, isolated, chaotic, uncivilised, a place that wise and/or decent people stay well away from. But is that how it feels from the inside?</p> <a href=\"https://www.theguardian.com/world/2020/dec/23/people-seem-more-afraid-life-on-plague-island-uk\">Continue reading...</a>","link":"https://www.theguardian.com/world/2020/dec/23/people-seem-more-afraid-life-on-plague-island-uk","published":"Wed, 23 Dec 2020 17:30:36 GMT","geolocations":[{"name":"Kent","count":2,"lat":47.3807,"lng":-122.23741,"type":"point"},{"name":"Europe","count":1,"lat":-33.98201,"lng":18.58413,"type":"point"},{"name":"Saigon","count":1,"lat":14.26977,"lng":21.14308,"type":"point"}],"source":"The Guardian"},{"feed_name":"World","feed_url":"https://www.theguardian.com/world/rss","title":"Experience: I fell in love in an Uber","summary":"<p>I jumped in the cab to find a tall handsome stranger sitting in the back</p><p>It was a beautiful spring day in Manhattan in May 2016. The air was crisp and the skies were blue, so I decided to walk across town to meet a friend for lunch. I had gone only a few blocks when what felt like a tornado hit: my light coat was no match for the heavy rain; my hair blew in 10 directions, and garbage hit me in the face. I tried to hail a cab, but there weren’t any. Uber prices were surging, so I decided to take a punt on an UberPool (you could end up travelling with a stranger, but there’s a discount). I hoped nobody would get in to join me on the short trip.</p><p>The cab pulled around the corner immediately. I jumped in to find a tall, handsome stranger sitting in the back. My heart started to race. I casually glanced in his direction before smoothly sitting down beside him (or so I thought; if you ask him about it now, he says I straight up stared at him).</p> <a href=\"https://www.theguardian.com/lifeandstyle/2020/dec/25/experience-i-fell-in-love-in-an-uber\">Continue reading...</a>","link":"https://www.theguardian.com/lifeandstyle/2020/dec/25/experience-i-fell-in-love-in-an-uber","published":"Fri, 25 Dec 2020 10:00:44 GMT","geolocations":[{"name":"Manhattan","count":1,"lat":39.17881,"lng":-96.56184,"type":"point"},{"name":"Puerto Rico","count":1,"lat":18.22286,"lng":-66.4685,"type":"country"},{"name":"New York","count":6,"lat":40.71455,"lng":-74.00714,"type":"point"},{"name":"Dubai","count":4,"lat":25.26951,"lng":55.30884,"type":"point"},{"name":"Central Park","count":2,"lat":40.78144,"lng":-73.96516,"type":"point"}],"source":"The Guardian"},{"feed_name":"World","feed_url":"https://www.aljazeera.com/xml/rss/all.xml","title":"Syria’s air defences ‘intercept barrage of Israeli missiles’","summary":"State TV says Syrian air defences confronted an &#039;Israeli aggression&#039;, downing a barrage of missiles over Hama.","link":"https://www.aljazeera.com/news/2020/12/25/syrias-air-defences-intercept-barrage-of-israeli-missiles","published":"Fri, 25 Dec 2020 02:25:08 +0000","geolocations":[{"name":"Hama","count":3,"lat":25.07744,"lng":-77.34075,"type":"country"},{"name":"Tripoli","count":1,"lat":32.89534,"lng":13.18105,"type":"point"},{"name":"Masyaf","count":2,"lat":35.06552,"lng":36.3882,"type":"point"},{"name":"Israel","count":4,"lat":31.78003,"lng":35.21873,"type":"country"},{"name":"Lebanon","count":1,"lat":33.89607,"lng":35.50678,"type":"country"},{"name":"Beirut","count":1,"lat":33.89607,"lng":35.50678,"type":"point"},{"name":"Syria","count":2,"lat":33.51656,"lng":36.31708,"type":"point"},{"name":"Iran","count":2,"lat":35.68877,"lng":51.41503,"type":"country"},{"name":"The United Kingdom","count":1,"lat":38.95953,"lng":-91.92768,"type":"point"}],"source":"Aljazeera"},{"feed_name":"World - Europe","feed_url":"http://feeds.bbci.co.uk/news/world/rss.xml","title":"Ethiopia military 'kills 40' after Benishangul-Gumuz massacre","summary":"Children were among more than 100 people killed when a village was attacked in western Ethiopia.","link":"https://www.bbc.co.uk/news/world-africa-55428322","published":"Thu, 24 Dec 2020 17:06:56 GMT","geolocations":[{"name":"Ethiopia","count":1,"lat":9.01358,"lng":38.76286,"type":"country"}],"source":"BBC"},{"feed_name":"World","feed_url":"https://rss.nytimes.com/services/xml/rss/nyt/World.xml","title":"Why Covid Antibody Drugs Go Unused as Need Soars","summary":"While such treatments are promising, their use has been slowed by testing lags, overwhelmed hospitals and a perception the therapies are only for well-connected people.","link":"https://www.nytimes.com/2020/12/23/health/covid-antibody-treatment.html","published":"Wed, 23 Dec 2020 15:49:49 +0000","geolocations":[{"name":"New Jersey","count":1,"lat":40.21788,"lng":-74.7594,"type":"point"}],"source":"The New York Times"},{"feed_name":"World","feed_url":"https://www.aljazeera.com/xml/rss/all.xml","title":"New COVID-19 variants: What we know so far, in 500 words","summary":"At least three new coronavirus strains have been detected in recent weeks, in the UK, South Africa and Nigeria.","link":"https://www.aljazeera.com/news/2020/12/25/new-covid-19-variants-what-we-know-so-far-in-500-words","published":"Fri, 25 Dec 2020 11:00:12 +0000","geolocations":[{"name":"South Africa","count":4,"lat":-25.74587,"lng":28.18764,"type":"country"},{"name":"Nigeria","count":2,"lat":9.06344,"lng":7.46228,"type":"country"},{"name":"The United Kingdom’S","count":1,"lat":38.95953,"lng":-91.92768,"type":"point"},{"name":"London","count":1,"lat":51.50643,"lng":-0.12719,"type":"point"},{"name":"Kent","count":1,"lat":47.3807,"lng":-122.23741,"type":"point"},{"name":"Europe","count":1,"lat":-33.98201,"lng":18.58413,"type":"point"},{"name":"Italy","count":1,"lat":41.90322,"lng":12.49565,"type":"country"},{"name":"Denmark","count":1,"lat":55.67567,"lng":12.56756,"type":"country"},{"name":"Netherlands","count":1,"lat":52.36993,"lng":4.90788,"type":"country"},{"name":"Australia","count":1,"lat":-35.30654,"lng":149.12655,"type":"country"},{"name":"Singapore","count":1,"lat":1.29041,"lng":103.85211,"type":"country"},{"name":"The United States","count":1,"lat":38.89037,"lng":-77.03196,"type":"country"}],"source":"Aljazeera"},{"feed_name":"World","feed_url":"https://www.aljazeera.com/xml/rss/all.xml","title":"World celebrates Christmas like no other, in shadow of pandemic","summary":"Muted festivities as millions cancel gatherings in line with social distancing rules.","link":"https://www.aljazeera.com/news/2020/12/25/world-celebrates-christmas-eve-under-covid-19-shadow","published":"Fri, 25 Dec 2020 09:10:45 +0000","geolocations":[{"name":"Bethlehem","count":3,"lat":40.6266,"lng":-75.36798,"type":"point"},{"name":"Manger Square","count":1,"lat":52.58442,"lng":-2.12826,"type":"point"},{"name":"Lebanon","count":3,"lat":33.89607,"lng":35.50678,"type":"country"},{"name":"The Middle East","count":1,"lat":39.29996,"lng":-76.58967,"type":"point"},{"name":"Beirut","count":1,"lat":33.89607,"lng":35.50678,"type":"point"},{"name":"Egypt","count":1,"lat":30.04427,"lng":31.23525,"type":"country"},{"name":"Europe","count":1,"lat":-33.98201,"lng":18.58413,"type":"point"},{"name":"The United Kingdom","count":1,"lat":38.95953,"lng":-91.92768,"type":"point"},{"name":"Windsor Castle","count":1,"lat":18.26368,"lng":-76.93129,"type":"point"},{"name":"Italy","count":1,"lat":41.90322,"lng":12.49565,"type":"country"},{"name":"Mass","count":1,"lat":46.76209,"lng":-89.07818,"type":"point"},{"name":"Greece","count":1,"lat":37.97614,"lng":23.7364,"type":"country"},{"name":"Athens","count":1,"lat":37.97614,"lng":23.7364,"type":"point"},{"name":"Germany","count":1,"lat":52.51604,"lng":13.37691,"type":"country"},{"name":"South Korea","count":1,"lat":37.55886,"lng":126.99989,"type":"country"},{"name":"China","count":1,"lat":39.90657,"lng":116.38765,"type":"country"},{"name":"Dalian","count":1,"lat":31.00411,"lng":76.90846,"type":"point"},{"name":"Beijing","count":2,"lat":39.90657,"lng":116.38765,"type":"point"},{"name":"Australia","count":2,"lat":-35.30654,"lng":149.12655,"type":"country"},{"name":"Sydney","count":4,"lat":-33.8696,"lng":151.20691,"type":"point"},{"name":"New South Wales","count":1,"lat":-32.16736,"lng":147.01315,"type":"point"},{"name":"Santa","count":1,"lat":35.69177,"lng":-105.93824,"type":"point"},{"name":"Bondi Beach","count":1,"lat":-33.88866,"lng":151.27786,"type":"point"},{"name":"The United States","count":1,"lat":38.89037,"lng":-77.03196,"type":"country"},{"name":"Us","count":2,"lat":38.89037,"lng":-77.03196,"type":"country"},{"name":"Orange County","count":1,"lat":52.90946,"lng":-6.93761,"type":"point"},{"name":"California","count":1,"lat":38.57944,"lng":-121.49085,"type":"point"},{"name":"Mexico","count":1,"lat":23.94757,"lng":-102.5411,"type":"country"},{"name":"Mexico City’S","count":1,"lat":25.91513,"lng":-112.06282,"type":"country"},{"name":"Chile","count":1,"lat":-33.43722,"lng":-70.65002,"type":"country"},{"name":"Costa Rica","count":2,"lat":9.92975,"lng":-84.08569,"type":"country"},{"name":"San Jose","count":2,"lat":37.33865,"lng":-121.88542,"type":"point"},{"name":"Russia","count":1,"lat":55.75696,"lng":37.61502,"type":"country"},{"name":"Sputnik","count":1,"lat":53.26467,"lng":50.41254,"type":"point"},{"name":"Argentina","count":1,"lat":-34.60849,"lng":-58.37344,"type":"country"},{"name":"Brazil","count":2,"lat":-15.77829,"lng":-47.92909,"type":"country"},{"name":"Sao Paulo","count":1,"lat":-23.56287,"lng":-46.65468,"type":"point"},{"name":"Pfizer","count":1,"lat":51.26584,"lng":-0.25106,"type":"point"}],"source":"Aljazeera"},{"feed_name":"World","feed_url":"https://www.theguardian.com/world/rss","title":"Neil Ferguson: new Covid variant 'in great majority if not all' European countries – video","summary":"<p>Prof Neil Ferguson tells the UK's science and technology committee that evidence from Denmark, a country with a relatively low infection rate, suggests that 'almost certainly' the new virus variant identified in the UK is already in the 'great majority if not all' European countries</p><ul><li><a href=\"https://www.theguardian.com/world/live/2020/dec/23/coronavirus-live-news-us-cases-increase-14-in-one-week-france-to-reopen-uk-border\">Coronavirus news - live updates</a></li></ul> <a href=\"https://www.theguardian.com/world/video/2020/dec/23/neil-ferguson-new-covid-variant-in-great-majority-if-not-all-european-countries-video\">Continue reading...</a>","link":"https://www.theguardian.com/world/video/2020/dec/23/neil-ferguson-new-covid-variant-in-great-majority-if-not-all-european-countries-video","published":"Wed, 23 Dec 2020 15:03:06 GMT","geolocations":[{"name":"Denmark","count":1,"lat":55.67567,"lng":12.56756,"type":"country"}],"source":"The Guardian"},{"feed_name":"World","feed_url":"https://www.latimes.com/world/rss2.0.xml","title":"With Education pick, Biden adds public schools proponent and third Latino to Cabinet","summary":"<p>Biden chooses Connecticut schools chief Miguel Cardona — a former teacher and a proponent of reopening schools during the pandemic — for Education.</p>","link":"https://www.latimes.com/politics/story/2020-12-22/biden-education-secretary","published":"Tue, 22 Dec 2020 10:09:30 -0500","geolocations":[{"name":"Connecticut","count":9,"lat":41.76375,"lng":-72.67394,"type":"point"},{"name":"California","count":1,"lat":38.57944,"lng":-121.49085,"type":"point"},{"name":"America","count":1,"lat":51.43739,"lng":5.98176,"type":"point"},{"name":"Meriden","count":2,"lat":41.53653,"lng":-72.7981,"type":"point"},{"name":"Puerto Rico","count":1,"lat":18.22286,"lng":-66.4685,"type":"country"},{"name":"Los Angeles","count":1,"lat":34.05357,"lng":-118.24545,"type":"point"}],"source":"Los Angeles Times"},{"feed_name":"World","feed_url":"https://www.latimes.com/world/rss2.0.xml","title":"Despite his boasts, Trump again is no deal-maker as Congress seeks pandemic relief bill","summary":"<p>Donald Trump was elected partly on his fame for \"The Art of the Deal,\" yet he's cut no big deals in office. The relief package is the latest, perhaps final, example.</p>","link":"https://www.latimes.com/politics/story/2020-12-20/despite-his-boasts-trump-again-is-no-deal-maker-as-congress-seeks-crisis-relief-bill","published":"Sun, 20 Dec 2020 06:00:32 -0500","geolocations":[{"name":"Rose Garden","count":1,"lat":37.33473,"lng":-121.92853,"type":"point"},{"name":"Ky","count":1,"lat":19.29657,"lng":-81.38175,"type":"country"}],"source":"Los Angeles Times"},{"feed_name":"World","feed_url":"https://www.theguardian.com/world/rss","title":"Massachusetts city to post climate change warning stickers at gas stations","summary":"<p>Bright yellow stickers warn drivers burning of gasoline has ‘major consequences on human health and the environment’</p><p>Cambridge, Massachusetts, has become the first US city to mandate the placing of stickers on fuel pumps to warn drivers of the resulting dangers posed by the climate crisis.</p> <a href=\"https://www.theguardian.com/us-news/2020/dec/25/massachusetts-city-to-post-climate-change-warning-stickers-at-gas-stations\">Continue reading...</a>","link":"https://www.theguardian.com/us-news/2020/dec/25/massachusetts-city-to-post-climate-change-warning-stickers-at-gas-stations","published":"Fri, 25 Dec 2020 10:00:44 GMT","geolocations":[{"name":"Cambridge","count":7,"lat":52.20992,"lng":0.11161,"type":"point"},{"name":"Massachusetts","count":2,"lat":42.35866,"lng":-71.05674,"type":"point"},{"name":"Boston","count":1,"lat":42.35866,"lng":-71.05674,"type":"point"},{"name":"Us","count":2,"lat":38.89037,"lng":-77.03196,"type":"country"},{"name":"Sweden","count":1,"lat":59.33257,"lng":18.06683,"type":"country"},{"name":"Berkeley","count":1,"lat":37.86988,"lng":-122.27054,"type":"point"},{"name":"California","count":1,"lat":38.57944,"lng":-121.49085,"type":"point"}],"source":"The Guardian"},{"feed_name":"World","feed_url":"https://rss.nytimes.com/services/xml/rss/nyt/World.xml","title":"Trump Warns Iran of Retaliation After Attacks on U.S. Embassy in Baghdad","summary":"The administration and military officials blame Tehran for recent rocket attacks in Iraq, adding to the growing tensions between the United States and Iran.","link":"https://www.nytimes.com/2020/12/23/us/politics/trump-iran.html","published":"Thu, 24 Dec 2020 02:05:24 +0000","geolocations":[{"name":"Iran","count":6,"lat":35.68877,"lng":51.41503,"type":"country"},{"name":"Tehran","count":1,"lat":35.68877,"lng":51.41503,"type":"point"},{"name":"Iraq","count":2,"lat":33.3421,"lng":44.39307,"type":"country"},{"name":"The United States","count":2,"lat":38.89037,"lng":-77.03196,"type":"country"}],"source":"The New York Times"},{"feed_name":"World - Europe","feed_url":"http://feeds.bbci.co.uk/news/world/rss.xml","title":"Alexei Navalny ally Lyubov Sobol 'held after raid'","summary":"Lyubov Sobol had earlier turned up at the home of an agent Alexei Navalny says helped poison him.","link":"https://www.bbc.co.uk/news/world-europe-55445780","published":"Fri, 25 Dec 2020 10:24:14 GMT","geolocations":[{"name":"Russia","count":1,"lat":55.75696,"lng":37.61502,"type":"country"}],"source":"BBC"},{"feed_name":"World","feed_url":"https://www.theguardian.com/world/rss","title":"How real is the threat of prosecution for Donald Trump post-presidency?","summary":"<p>Legal threats range from investigations into his business dealings in New York to possible obstruction of justice charges – but all come with a political cost</p><p>At noon on 20 January, presuming he doesn’t have to be dragged out of the White House as a <a href=\"https://www.newsweek.com/if-trump-refuses-leave-white-house-secret-service-escort-1545612\">trespasser</a>, Donald Trump will make one last walk across the South Lawn, take his seat inside Marine One, and be gone.</p> <a href=\"https://www.theguardian.com/us-news/2020/dec/25/donald-trump-prosecution-post-presidency\">Continue reading...</a>","link":"https://www.theguardian.com/us-news/2020/dec/25/donald-trump-prosecution-post-presidency","published":"Fri, 25 Dec 2020 07:30:40 GMT","geolocations":[{"name":"The South Lawn","count":1,"lat":51.93774,"lng":4.4628,"type":"point"},{"name":"Marine One","count":1,"lat":5.52718,"lng":5.76576,"type":"point"},{"name":"The United States","count":3,"lat":38.89037,"lng":-77.03196,"type":"country"},{"name":"Manhattan","count":1,"lat":39.17881,"lng":-96.56184,"type":"point"},{"name":"New York","count":1,"lat":40.71455,"lng":-74.00714,"type":"point"},{"name":"Us","count":2,"lat":38.89037,"lng":-77.03196,"type":"country"},{"name":"Russia","count":2,"lat":55.75696,"lng":37.61502,"type":"country"},{"name":"West Palm Beach","count":1,"lat":26.7144,"lng":-80.05329,"type":"point"},{"name":"Florida","count":1,"lat":30.43977,"lng":-84.28065,"type":"point"}],"source":"The Guardian"},{"feed_name":"World","feed_url":"https://www.latimes.com/world/rss2.0.xml","title":"For a nurse in the COVID unit, death is part of the day","summary":"<p>Once nurses enter the COVID-19 ward, they often feel as isolated as their patients.</p>","link":"https://www.latimes.com/world-nation/story/2020-12-20/a-nurse-confronts-death-in-covid-19-un","published":"Sun, 20 Dec 2020 07:00:18 -0500","geolocations":[{"name":"New Mexico","count":1,"lat":35.69177,"lng":-105.93824,"type":"point"},{"name":"Houston","count":4,"lat":29.76078,"lng":-95.36952,"type":"point"},{"name":"Jose","count":1,"lat":40.83551,"lng":-78.67707,"type":"point"},{"name":"Texas","count":2,"lat":30.26759,"lng":-97.74299,"type":"point"},{"name":"Beaumont","count":1,"lat":53.35783,"lng":-113.41366,"type":"point"},{"name":"San Antonio","count":1,"lat":29.42458,"lng":-98.49461,"type":"point"},{"name":"Louisiana","count":1,"lat":30.44335,"lng":-91.18664,"type":"point"}],"source":"Los Angeles Times"},{"feed_name":"World","feed_url":"https://www.aljazeera.com/xml/rss/all.xml","title":"The price of the false or non-apology","summary":"How many false apologies have echoed through victims’ homes this year, statements that accuse rather than appease?","link":"https://www.aljazeera.com/opinions/2020/12/25/the-price-of-the-false-or-non-apology","published":"Fri, 25 Dec 2020 08:41:50 +0000","geolocations":[{"name":"Scott","count":1,"lat":46.50632,"lng":-71.07485,"type":"point"},{"name":"Wilmington","count":1,"lat":39.74023,"lng":-75.55084,"type":"point"},{"name":"North Carolina","count":1,"lat":35.78547,"lng":-78.6427,"type":"point"},{"name":"Us","count":1,"lat":38.89037,"lng":-77.03196,"type":"country"},{"name":"Washington, Dc","count":1,"lat":38.89037,"lng":-77.03196,"type":"point"},{"name":"Yoho","count":1,"lat":45.7899,"lng":-66.86353,"type":"point"},{"name":"Michigan","count":1,"lat":42.73194,"lng":-84.55225,"type":"point"},{"name":"England","count":1,"lat":51.50643,"lng":-0.12719,"type":"country"},{"name":"Los Angeles","count":1,"lat":34.05357,"lng":-118.24545,"type":"point"},{"name":"New Mexico","count":1,"lat":35.69177,"lng":-105.93824,"type":"point"},{"name":"Massachusetts","count":1,"lat":42.35866,"lng":-71.05674,"type":"point"},{"name":"New York","count":1,"lat":40.71455,"lng":-74.00714,"type":"point"}],"source":"Aljazeera"},{"feed_name":"World","feed_url":"https://rss.nytimes.com/services/xml/rss/nyt/World.xml","title":"Pakistani Court Orders Men Released in Daniel Pearl Case","summary":"A detention order had been applied to four men accused in the American journalist’s abduction and murder even after their convictions were overturned.","link":"https://www.nytimes.com/2020/12/24/world/asia/pakistan-daniel-pearl-release.html","published":"Thu, 24 Dec 2020 18:36:21 +0000","geolocations":[{"name":"Karachi","count":2,"lat":57.71375,"lng":50.09435,"type":"point"},{"name":"Pakistan","count":1,"lat":33.70964,"lng":73.07545,"type":"point"},{"name":"Sindh Province","count":1,"lat":43.07715,"lng":-7.66689,"type":"point"}],"source":"The New York Times"},{"feed_name":"World","feed_url":"https://www.latimes.com/world/rss2.0.xml","title":"As vaccine rollout nears, many concerns raised in Latin America, hard hit by COVID-19","summary":"<p>Mexico and Chile are among the Latin American nations planning to roll out COVID-19 vaccines this month. But concerns are mounting about availability. </p>","link":"https://www.latimes.com/world-nation/story/2020-12-20/vaccine-rollout-mexico-chile-latin-america-covid-19","published":"Sun, 20 Dec 2020 15:00:15 -0500","geolocations":[{"name":"Latin America","count":3,"lat":41.62788,"lng":13.34278,"type":"point"},{"name":"Caribbean","count":1,"lat":30.47333,"lng":-86.42132,"type":"point"},{"name":"Mexico","count":10,"lat":23.94757,"lng":-102.5411,"type":"country"},{"name":"Chile","count":2,"lat":-33.43722,"lng":-70.65002,"type":"country"},{"name":"The United States","count":3,"lat":38.89037,"lng":-77.03196,"type":"country"},{"name":"United Kingdom","count":1,"lat":38.95953,"lng":-91.92768,"type":"point"},{"name":"Europe","count":1,"lat":-33.98201,"lng":18.58413,"type":"point"},{"name":"Asia","count":1,"lat":-12.76551,"lng":-76.61171,"type":"point"},{"name":"Mexico City’S","count":2,"lat":25.91513,"lng":-112.06282,"type":"country"},{"name":"Iztapalapa","count":1,"lat":19.35921,"lng":-99.09133,"type":"point"},{"name":"Mexico City","count":9,"lat":19.27691,"lng":-99.13939,"type":"point"},{"name":"Washington","count":1,"lat":38.89037,"lng":-77.03196,"type":"point"},{"name":"Paris","count":1,"lat":48.85717,"lng":2.3414,"type":"point"},{"name":"Zocalo","count":1,"lat":52.4842,"lng":4.76125,"type":"point"},{"name":"Central Square","count":1,"lat":43.28554,"lng":-76.14581,"type":"point"},{"name":"Brazil","count":4,"lat":-15.77829,"lng":-47.92909,"type":"country"},{"name":"Bolivia","count":1,"lat":-16.49908,"lng":-68.13378,"type":"country"},{"name":"El Salvador","count":1,"lat":13.69967,"lng":-89.2068,"type":"country"},{"name":"Honduras","count":2,"lat":14.08192,"lng":-87.20547,"type":"country"},{"name":"Nicaragua","count":1,"lat":12.1172,"lng":-86.24081,"type":"country"},{"name":"Argentina","count":1,"lat":-34.60849,"lng":-58.37344,"type":"country"},{"name":"Russia","count":1,"lat":55.75696,"lng":37.61502,"type":"country"},{"name":"Sputnik","count":1,"lat":53.26467,"lng":50.41254,"type":"point"},{"name":"Ixtapalapa","count":1,"lat":21.4287,"lng":-104.86007,"type":"point"},{"name":"The Ixtapalapa District","count":1,"lat":19.35921,"lng":-99.09133,"type":"point"},{"name":"Chalco","count":1,"lat":19.26142,"lng":-98.89096,"type":"point"},{"name":"Rubí","count":1,"lat":41.49248,"lng":2.02951,"type":"point"},{"name":"Oaxaca","count":1,"lat":17.06173,"lng":-96.7261,"type":"point"},{"name":"Tegucigalpa","count":1,"lat":14.08192,"lng":-87.20547,"type":"point"},{"name":"Aires","count":1,"lat":43.58301,"lng":3.10586,"type":"point"}],"source":"Los Angeles Times"},{"feed_name":"World","feed_url":"https://www.latimes.com/world/rss2.0.xml","title":"Fox News runs fact check in response to defamation charges by voting software firm","summary":"<p>The network is running a pre-taped interview to counter claims made by pro-Trump guests and hosts on election fraud.</p>","link":"https://www.latimes.com/entertainment-arts/business/story/2020-12-19/fox-news-airing-a-fact-check-in-response-to-defamation-charges-by-voting-software-firm","published":"Sat, 19 Dec 2020 19:10:23 -0500","geolocations":[{"name":"London","count":1,"lat":51.50643,"lng":-0.12719,"type":"point"},{"name":"Palo Alto","count":1,"lat":37.44466,"lng":-122.16079,"type":"point"},{"name":"Los Angeles County","count":1,"lat":34.28089,"lng":-119.14472,"type":"point"},{"name":"U.S.","count":1,"lat":38.89037,"lng":-77.03196,"type":"country"},{"name":"The United States","count":3,"lat":38.89037,"lng":-77.03196,"type":"country"}],"source":"Los Angeles Times"},{"feed_name":"World","feed_url":"https://www.aljazeera.com/xml/rss/all.xml","title":"Will another vote change the political landscape in Israel?","summary":"The governing coalition in Israel has collapsed, paving the way for a fourth election in just two years.","link":"https://www.aljazeera.com/program/inside-story/2020/12/24/will-another-vote-change-the-political-landscape-in-israel","published":"Thu, 24 Dec 2020 21:14:32 +0000","geolocations":[{"name":"Israel","count":2,"lat":31.78003,"lng":35.21873,"type":"country"}],"source":"Aljazeera"},{"feed_name":"World","feed_url":"https://www.latimes.com/world/rss2.0.xml","title":"Biden takes stage to get vaccine as Trump hedges on it","summary":"<p>As Biden gets his shot on TV, Trump is largely ceding the spotlight on the rapid vaccine rollout, one of the biggest triumphs of his White House. Why?</p>","link":"https://www.latimes.com/world-nation/story/2020-12-21/biden-receive-covid-19-vaccine","published":"Mon, 21 Dec 2020 04:42:49 -0500","geolocations":[{"name":"U.S.","count":1,"lat":38.89037,"lng":-77.03196,"type":"country"},{"name":"Newark","count":1,"lat":53.07428,"lng":-0.80972,"type":"point"},{"name":"Ky","count":1,"lat":19.29657,"lng":-81.38175,"type":"country"}],"source":"Los Angeles Times"},{"feed_name":"World","feed_url":"https://www.latimes.com/world/rss2.0.xml","title":"Trump gives Congress chaos for Christmas, with aid to millions up in the air","summary":"<p>With a veto of a massive defense bill and threatening the spending bill that includes COVID relief, Trump leaves for Mar-a-Lago, chaos in his wake.</p>","link":"https://www.latimes.com/politics/story/2020-12-23/trump-gives-congress-chaos-for-christmas-with-aid-to-millions-up-in-the-air","published":"Wed, 23 Dec 2020 18:45:35 -0500","geolocations":[{"name":"Washington","count":3,"lat":38.89037,"lng":-77.03196,"type":"point"},{"name":"Okla","count":1,"lat":51.99817,"lng":-103.22328,"type":"point"},{"name":"Missouri","count":1,"lat":38.57751,"lng":-92.17784,"type":"point"},{"name":"Vermont","count":1,"lat":44.26029,"lng":-72.57626,"type":"point"},{"name":"Ky","count":1,"lat":19.29657,"lng":-81.38175,"type":"country"},{"name":"Kentucky","count":1,"lat":38.19507,"lng":-84.87869,"type":"point"},{"name":"Egypt","count":1,"lat":30.04427,"lng":31.23525,"type":"country"},{"name":"Bakersfield","count":1,"lat":35.36723,"lng":-119.01886,"type":"point"}],"source":"Los Angeles Times"},{"feed_name":"World","feed_url":"https://www.latimes.com/world/rss2.0.xml","title":"Trump finds himself isolated in refusal to blame Russia for big cyberattack","summary":"<p>Some lawmakers want the Kremlin punished over the suspected hack, but Trump refuses to point fingers.</p>","link":"https://www.latimes.com/world-nation/story/2020-12-20/lawmakers-experts-baffled-trump-brushes-off-suspected-russian-hack","published":"Sun, 20 Dec 2020 16:10:25 -0500","geolocations":[{"name":"U.S.","count":7,"lat":38.89037,"lng":-77.03196,"type":"country"},{"name":"Russia","count":7,"lat":55.75696,"lng":37.61502,"type":"country"},{"name":"The United States","count":3,"lat":38.89037,"lng":-77.03196,"type":"country"},{"name":"Utah","count":1,"lat":40.76031,"lng":-111.88822,"type":"point"},{"name":"China","count":1,"lat":39.90657,"lng":116.38765,"type":"country"},{"name":"Virginia","count":1,"lat":37.54068,"lng":-77.43367,"type":"point"},{"name":"Austin","count":1,"lat":30.26759,"lng":-97.74299,"type":"point"},{"name":"Wyo","count":1,"lat":39.78186,"lng":-122.19752,"type":"point"},{"name":"Moscow","count":1,"lat":55.75696,"lng":37.61502,"type":"point"},{"name":"Washington","count":1,"lat":38.89037,"lng":-77.03196,"type":"point"}],"source":"Los Angeles Times"},{"feed_name":"World","feed_url":"https://rss.nytimes.com/services/xml/rss/nyt/World.xml","title":"Switzerland begins Covid-19 vaccinations.","summary":"","link":"https://www.nytimes.com/2020/12/23/world/switzerland-begins-covid-19-vaccinations.html","published":"Thu, 24 Dec 2020 15:13:01 +0000","geolocations":[{"name":"Geneva","count":1,"lat":46.20833,"lng":6.14275,"type":"point"},{"name":"Switzerland","count":2,"lat":46.94843,"lng":7.44046,"type":"country"},{"name":"United Kingdom","count":1,"lat":38.95953,"lng":-91.92768,"type":"point"},{"name":"The United States","count":1,"lat":38.89037,"lng":-77.03196,"type":"country"},{"name":"Lucerne","count":1,"lat":47.04954,"lng":8.30437,"type":"point"}],"source":"The New York Times"},{"feed_name":"World","feed_url":"https://rss.nytimes.com/services/xml/rss/nyt/World.xml","title":"Shinzo Abe Aide Faces Fine Over Campaign Finance Allegations in Japan","summary":"Prime Minister Yoshihide Suga said he had unintentionally misrepresented the facts around a political scandal after prosecutors announced they would seek to punish a former aide to Shinzo Abe.","link":"https://www.nytimes.com/2020/12/24/world/asia/japan-campaign-finance-scandal.html","published":"Thu, 24 Dec 2020 20:45:21 +0000","geolocations":[{"name":"Tokyo","count":1,"lat":35.68408,"lng":139.80885,"type":"point"},{"name":"Japan","count":2,"lat":35.68408,"lng":139.80885,"type":"country"}],"source":"The New York Times"},{"feed_name":"World","feed_url":"https://rss.nytimes.com/services/xml/rss/nyt/World.xml","title":"For the E.U., Brexit Deal Is a Pretty Good One","summary":"The Brexit pact preserves crucial E.U. principles like the single market, and lets the bloc look ahead to its future without Britain.","link":"https://www.nytimes.com/2020/12/24/world/europe/european-union-brexit-britain.html","published":"Thu, 24 Dec 2020 21:57:07 +0000","geolocations":[{"name":"Brussels","count":1,"lat":50.84439,"lng":4.35609,"type":"point"},{"name":"United Kingdom","count":2,"lat":38.95953,"lng":-91.92768,"type":"point"}],"source":"The New York Times"},{"feed_name":"World","feed_url":"https://www.theguardian.com/world/rss","title":"A good vintage: science suggests appreciation of wine grows with age","summary":"<p>Changes in composition and production of saliva as people grow older appears to intensify perception of aromas</p><p>Just as a bottle of wine improves with age, so may our ability to pick out the subtleties of its scent. Changes in the composition of our saliva and how much of it we produce appears to intensify our perception of smokey and peppery aromas in red wine, new research suggests.</p><p>The findings could lead to the development of wines that are more tailored toward specific groups of consumers. “We could diversify winemaking production to make more enjoyable wines based on consumers’ physiologies,” said Maria Ángeles del Pozo Bayón, of the<strong> </strong>Spanish Research Council’s Institute of Food Science and Research in Madrid, who led the research.</p> <a href=\"https://www.theguardian.com/food/2020/dec/25/a-good-vintage-science-suggests-appreciation-of-wine-grows-with-age\">Continue reading...</a>","link":"https://www.theguardian.com/food/2020/dec/25/a-good-vintage-science-suggests-appreciation-of-wine-grows-with-age","published":"Fri, 25 Dec 2020 11:30:45 GMT","geolocations":[{"name":"Madrid","count":1,"lat":40.41955,"lng":-3.69196,"type":"point"}],"source":"The Guardian"},{"feed_name":"World","feed_url":"https://www.theguardian.com/world/rss","title":"Pardons sink Trump further into swamp of his own shamelessness","summary":"<p><strong>Analysis: </strong>President sanctions first federal execution of a woman in 67 years – but war criminals, fraudsters and Russia-linked cronies go free</p><p>Lisa Montgomery is set to become the first woman put to death by the US federal government in 67 years. On Tuesday senators including Cory Booker, Bernie Sanders and Elizabeth Warren wrote to the justice department <a href=\"https://www.warren.senate.gov/imo/media/doc/2020.12.21%20Letter%20to%20DOJ%20IG%20on%20federal%20executions%20FINAL.pdf\">demanding an investigation</a> into an “unprecedented spree” of federal executions on Donald Trump’s watch.</p><p>A few hours later the president <a href=\"https://www.theguardian.com/us-news/2020/dec/22/who-trump-pardon-guide-george-papadopoulos-duncan-hunter\">announced a slew of 15 pardons</a>. Strikingly they included <a href=\"https://www.theguardian.com/world/2020/dec/23/trump-pardons-blackwater-contractors-jailed-for-massacre-of-iraq-civilians\">four military contractors</a> imprisoned for the killing of unarmed men, women and children in Iraq. In short, war criminals.</p> <a href=\"https://www.theguardian.com/us-news/2020/dec/23/pardons-sink-trump-further-into-swamp-of-his-own-shamelessness\">Continue reading...</a>","link":"https://www.theguardian.com/us-news/2020/dec/23/pardons-sink-trump-further-into-swamp-of-his-own-shamelessness","published":"Wed, 23 Dec 2020 04:54:16 GMT","geolocations":[{"name":"Us","count":2,"lat":38.89037,"lng":-77.03196,"type":"country"},{"name":"Iraq","count":1,"lat":33.3421,"lng":44.39307,"type":"country"},{"name":"Blackwater","count":2,"lat":-23.58569,"lng":148.88012,"type":"point"},{"name":"Baghdad","count":1,"lat":33.3421,"lng":44.39307,"type":"point"},{"name":"The District Of Columbia","count":1,"lat":44.63305,"lng":-67.85116,"type":"point"},{"name":"Russia","count":1,"lat":55.75696,"lng":37.61502,"type":"country"},{"name":"Moscow","count":1,"lat":55.75696,"lng":37.61502,"type":"point"},{"name":"Washington","count":1,"lat":38.89037,"lng":-77.03196,"type":"point"},{"name":"America","count":1,"lat":51.43739,"lng":5.98176,"type":"point"}],"source":"The Guardian"},{"feed_name":"World","feed_url":"https://rss.nytimes.com/services/xml/rss/nyt/World.xml","title":"U.K. Increasingly Isolated as U.S. Restricts Travel","summary":"America’s requirement that passengers coming from Britain provide negative Covid-19 tests is just the latest woe to strike the country this Christmas period.","link":"https://www.nytimes.com/2020/12/25/world/europe/covid-19-uk-travel-us.html","published":"Fri, 25 Dec 2020 13:51:46 +0000","geolocations":[{"name":"United Kingdom","count":3,"lat":38.95953,"lng":-91.92768,"type":"point"},{"name":"Germany","count":1,"lat":52.51604,"lng":13.37691,"type":"country"},{"name":"Singapore","count":1,"lat":1.29041,"lng":103.85211,"type":"country"},{"name":"Denmark","count":1,"lat":55.67567,"lng":12.56756,"type":"country"},{"name":"France","count":2,"lat":48.85717,"lng":2.3414,"type":"country"}],"source":"The New York Times"},{"feed_name":"World","feed_url":"https://www.theguardian.com/world/rss","title":"NSW premier calls on shoppers to avoid Sydney's Boxing Day sales as Covid cluster grows to 108","summary":"<p>Warning comes as all passengers on board a regional flight told to isolate, and alerts issued across Sydney for a gym, cafes, shopping centre, food court and Santa photos </p><li><a href=\"https://www.theguardian.com/australia-news/2020/dec/21/covid-hotspots-nsw-list-of-sydney-and-regional-coronavirus-case-locations\">NSW Covid hotspots – list of venues and case locations</a><br /></li><li><a href=\"https://www.theguardian.com/australia-news/2020/dec/20/australia-border-restrictions-here-are-the-new-state-and-territory-covid-rules-for-nsw-travellers\">Border restrictions: rules for NSW travellers</a></li><li><a href=\"https://www.theguardian.com/australia-news/2020/dec/24/superyacht-with-crew-member-who-tested-positive-to-covid-in-queensland-not-cooperative\">Second person from superyacht moored in Cairns tests positive </a></li><p>Sydney shoppers have been urged not to enter the central business district for the traditional Boxing Day sales after the state recorded seven new locally acquired coronavirus cases and the northern beaches cluster grew to 108.</p><p>The Australian Retailers Association labelled the NSW premier’s plea for consumers to stay at home on “the biggest day on the retail calendar” as “incredibly disappointing”.</p> <a href=\"https://www.theguardian.com/australia-news/2020/dec/25/nsw-premier-calls-on-shoppers-to-avoid-sydneys-boxing-day-sales-as-covid-cluster-grows-to-108\">Continue reading...</a>","link":"https://www.theguardian.com/australia-news/2020/dec/25/nsw-premier-calls-on-shoppers-to-avoid-sydneys-boxing-day-sales-as-covid-cluster-grows-to-108","published":"Fri, 25 Dec 2020 10:10:03 GMT","geolocations":[{"name":"Sydney","count":12,"lat":-33.8696,"lng":151.20691,"type":"point"},{"name":"Cbd","count":8,"lat":-20.15052,"lng":28.58919,"type":"point"},{"name":"Avalon","count":1,"lat":-38.0161,"lng":144.46886,"type":"point"},{"name":"Nsw","count":1,"lat":-32.16736,"lng":147.01315,"type":"point"},{"name":"Griffith","count":1,"lat":41.52449,"lng":-87.42766,"type":"point"},{"name":"The Northern Territory","count":1,"lat":-19.41379,"lng":133.36518,"type":"point"},{"name":"Bondi Beach","count":1,"lat":-33.88866,"lng":151.27786,"type":"point"},{"name":"The Northern Beaches","count":1,"lat":43.66723,"lng":-79.31253,"type":"point"},{"name":"Bronte Beach","count":2,"lat":-35.73903,"lng":150.2104,"type":"point"},{"name":"The Paddington Alimentari","count":1,"lat":51.51564,"lng":-0.18108,"type":"point"},{"name":"Belrose","count":1,"lat":-33.72857,"lng":151.2209,"type":"point"},{"name":"South Australia","count":1,"lat":-30.10785,"lng":135.83478,"type":"point"},{"name":"Tasmanians","count":1,"lat":-41.97861,"lng":146.62646,"type":"point"},{"name":"Western Australia","count":1,"lat":-25.46329,"lng":122.18471,"type":"point"},{"name":"Northern Territory","count":1,"lat":-19.41379,"lng":133.36518,"type":"point"}],"source":"The Guardian"},{"feed_name":"World","feed_url":"https://rss.nytimes.com/services/xml/rss/nyt/World.xml","title":"Coronavirus Briefing: What Happened Today","summary":"In a disrupted holiday season, even Bethlehem is quieter than usual.","link":"https://www.nytimes.com/2020/12/24/us/coronavirus-today.html","published":"Thu, 24 Dec 2020 23:22:29 +0000","geolocations":[{"name":"Norad","count":1,"lat":34.43734,"lng":35.84711,"type":"point"},{"name":"Rome","count":1,"lat":41.90322,"lng":12.49565,"type":"point"},{"name":"Italy","count":1,"lat":41.90322,"lng":12.49565,"type":"country"},{"name":"U.S.","count":1,"lat":38.89037,"lng":-77.03196,"type":"country"}],"source":"The New York Times"},{"feed_name":"World","feed_url":"https://www.aljazeera.com/xml/rss/all.xml","title":"Iran says US approved its funds transfer to buy COVID vaccines","summary":"Iran&#039;s central bank says it received backing from the US to transfer money to a Swiss account to pay for the vaccines.","link":"https://www.aljazeera.com/news/2020/12/24/iran-says-us-approved-its-funds-transfer-to-buy-covid-vaccines","published":"Thu, 24 Dec 2020 20:52:13 +0000","geolocations":[{"name":"Iran","count":6,"lat":35.68877,"lng":51.41503,"type":"country"},{"name":"Us","count":4,"lat":38.89037,"lng":-77.03196,"type":"country"},{"name":"The United States","count":1,"lat":38.89037,"lng":-77.03196,"type":"country"},{"name":"The Middle East","count":1,"lat":39.29996,"lng":-76.58967,"type":"point"},{"name":"Washington","count":1,"lat":38.89037,"lng":-77.03196,"type":"point"}],"source":"Aljazeera"},{"feed_name":"World","feed_url":"https://www.latimes.com/world/rss2.0.xml","title":"Haves vs. have-nots: Who 'deserves' to be next in line for the COVID-19 vaccine?","summary":"<p>Americans waiting their turn for a COVID-19 vaccine may not be pleased to see who's in line ahead of them. Does a prisoner or smoker deserve it more?</p>","link":"https://www.latimes.com/science/story/2020-12-19/who-deserves-to-get-covid-19-vaccine-next","published":"Sat, 19 Dec 2020 15:05:56 -0500","geolocations":[{"name":"U.S.","count":3,"lat":38.89037,"lng":-77.03196,"type":"country"},{"name":"The United States","count":1,"lat":38.89037,"lng":-77.03196,"type":"country"},{"name":"California","count":1,"lat":38.57944,"lng":-121.49085,"type":"point"},{"name":"North Carolina","count":1,"lat":35.78547,"lng":-78.6427,"type":"point"},{"name":"Maryland","count":1,"lat":38.97678,"lng":-76.49014,"type":"point"},{"name":"Delaware","count":1,"lat":39.15803,"lng":-75.52473,"type":"point"},{"name":"Utah","count":1,"lat":40.76031,"lng":-111.88822,"type":"point"},{"name":"New Mexico","count":1,"lat":35.69177,"lng":-105.93824,"type":"point"},{"name":"Nebraska","count":1,"lat":40.81362,"lng":-96.7073,"type":"point"},{"name":"Montana","count":1,"lat":46.58976,"lng":-112.02065,"type":"point"},{"name":"Massachusetts","count":1,"lat":42.35866,"lng":-71.05674,"type":"point"},{"name":"Colorado","count":1,"lat":39.74001,"lng":-104.99202,"type":"point"},{"name":"Polis","count":1,"lat":35.03688,"lng":32.40714,"type":"point"}],"source":"Los Angeles Times"},{"feed_name":"World","feed_url":"https://www.theguardian.com/world/rss","title":"‘Many people did something immense, for complete strangers’ – readers’ heroes of 2020","summary":"<p>During the pandemic, there have been many unsung heroes – from supermarket staff to the people who carried on doing essential work for our society. Here are some of them</p><p>At the start of lockdown, I interviewed the virologist Dr Jane Greatorex. She was superb, with a gunslinging turn-of-phrase (“corona is the only pathogen in town”) and full of advice that rammed home, like no shambling government press conference ever could, the gravity of our situation. She washed deliveries before they came into the house, would talk to her neighbour only through a hedge and described the precautionary measures taken by her sister, who worked in Waitrose. Those were pretty intense – involving a lot of changes of clothes and black bin bags, plus a lifesize cutout of Jürgen Klopp.</p><p>I have thought about her sister a lot: what it is like when everyone else is avoiding their closest friends for safety, and you are seeing 50 strangers an hour. I have also thought about delivery drivers, knocking on doors with no idea who might be self-isolating behind them; bus drivers, getting sneezed on by squads of schoolchildren; teachers, carers, anyone anywhere near a hospital. Especially at the height of the crisis (when there were serious questions over whether it was safe to handle a petrol pump) while battalions of people were living in this cacophony of anxiety and caution, and having to block it out, every day, in order to go and do their jobs. The bravery of that is hard to wrestle into comprehension – though as thought experiments go, it is a lot less uncomfortable than trying to imagine what would have happened if everyone in these vital services had simply refused to perform them: if all these workers who, being often low-paid, and were previously held as low value, had called the world’s bluff.</p> <a href=\"https://www.theguardian.com/lifeandstyle/2020/dec/25/many-people-did-something-immense-for-complete-strangers-readers-heroes-of-2020\">Continue reading...</a>","link":"https://www.theguardian.com/lifeandstyle/2020/dec/25/many-people-did-something-immense-for-complete-strangers-readers-heroes-of-2020","published":"Fri, 25 Dec 2020 12:00:46 GMT","geolocations":[{"name":"Manchester","count":1,"lat":53.47959,"lng":-2.24874,"type":"point"},{"name":"London","count":2,"lat":51.50643,"lng":-0.12719,"type":"point"},{"name":"Tytherington","count":1,"lat":51.59333,"lng":-2.48066,"type":"point"},{"name":"Belfast","count":1,"lat":54.59534,"lng":-5.93455,"type":"point"},{"name":"Folkestone","count":2,"lat":51.08447,"lng":1.17794,"type":"point"},{"name":"Portsmouth","count":1,"lat":50.80401,"lng":-1.08728,"type":"point"},{"name":"St Thomas’","count":1,"lat":42.77894,"lng":-81.19315,"type":"point"},{"name":"Barnet","count":1,"lat":51.65169,"lng":-0.19746,"type":"point"},{"name":"Nottingham","count":1,"lat":52.94798,"lng":-1.15156,"type":"point"}],"source":"The Guardian"},{"feed_name":"World","feed_url":"https://www.latimes.com/world/rss2.0.xml","title":"A notorious child rapist was released from prison. Hordes of YouTube vigilantes awaited","summary":"<p>The growing popularity of YouTube in South Korea has led to questionable attempts by users to gain viewers, including promises of vigilante justice.</p>","link":"https://www.latimes.com/world-nation/story/2020-12-18/youtubers-vigilante-justice-child-rapist-south-korea","published":"Fri, 18 Dec 2020 10:05:19 -0500","geolocations":[{"name":"South Korea","count":2,"lat":37.55886,"lng":126.99989,"type":"country"},{"name":"Ansan","count":1,"lat":31.9518,"lng":35.94042,"type":"point"}],"source":"Los Angeles Times"},{"feed_name":"World","feed_url":"https://www.latimes.com/world/rss2.0.xml","title":"COVID-19 is crushing Native American reservations. But distrust of the government makes vaccines a hard sell","summary":"<p>Skepticism about the newly authorized coronavirus vaccines pervades Native American communities even as the death toll mounts. </p>","link":"https://www.latimes.com/world-nation/story/2020-12-20/native-american-coronavirus-vaccine","published":"Sun, 20 Dec 2020 06:00:58 -0500","geolocations":[{"name":"Oregon","count":1,"lat":44.93326,"lng":-123.04381,"type":"point"},{"name":"Pechanga Casino","count":1,"lat":33.45855,"lng":-117.10645,"type":"point"},{"name":"Temecula","count":1,"lat":33.50299,"lng":-117.16247,"type":"point"},{"name":"Calif.","count":1,"lat":3.43402,"lng":-76.52645,"type":"point"},{"name":"North Dakota","count":1,"lat":46.80536,"lng":-100.77969,"type":"point"},{"name":"Alaska","count":1,"lat":58.29973,"lng":-134.40679,"type":"point"},{"name":"Tuba City","count":1,"lat":36.1257,"lng":-111.23689,"type":"point"},{"name":"Ariz.","count":1,"lat":40.2535,"lng":28.22813,"type":"point"},{"name":"The Havasupai Tribe","count":1,"lat":34.55524,"lng":-112.27152,"type":"point"},{"name":"Washington","count":1,"lat":38.89037,"lng":-77.03196,"type":"point"},{"name":"Great Plains","count":1,"lat":50.44726,"lng":-104.39528,"type":"point"},{"name":"Arizona","count":2,"lat":33.44825,"lng":-112.0758,"type":"point"},{"name":"U.S.","count":1,"lat":38.89037,"lng":-77.03196,"type":"country"},{"name":"Seattle","count":2,"lat":47.60357,"lng":-122.32945,"type":"point"},{"name":"South Dakota","count":1,"lat":44.36905,"lng":-100.35,"type":"point"},{"name":"New Mexico","count":1,"lat":35.69177,"lng":-105.93824,"type":"point"},{"name":"Utah","count":1,"lat":40.76031,"lng":-111.88822,"type":"point"},{"name":"Diné","count":1,"lat":59.2349,"lng":17.97859,"type":"point"},{"name":"Navajo","count":1,"lat":35.90181,"lng":-109.03041,"type":"point"},{"name":"Warm Springs","count":1,"lat":32.89048,"lng":-84.67992,"type":"point"},{"name":"Lee","count":1,"lat":-12.01032,"lng":-77.08539,"type":"point"},{"name":"Los Angeles","count":1,"lat":34.05357,"lng":-118.24545,"type":"point"}],"source":"Los Angeles Times"},{"feed_name":"World","feed_url":"https://www.aljazeera.com/xml/rss/all.xml","title":"British pound slips below multi-year high after Brexit deal","summary":"Investors say the UK-EU trade deal leaves the UK facing many economic uncertainties.","link":"https://www.aljazeera.com/economy/2020/12/25/british-pound-slips-below-2-1-2-year-high-after-brexit","published":"Fri, 25 Dec 2020 06:39:16 +0000","geolocations":[{"name":"Us","count":3,"lat":38.89037,"lng":-77.03196,"type":"country"},{"name":"The United Kingdom","count":1,"lat":38.95953,"lng":-91.92768,"type":"point"},{"name":"United States","count":1,"lat":38.89037,"lng":-77.03196,"type":"country"},{"name":"Japan","count":1,"lat":35.68408,"lng":139.80885,"type":"country"},{"name":"Brussels","count":1,"lat":50.84439,"lng":4.35609,"type":"point"},{"name":"London","count":1,"lat":51.50643,"lng":-0.12719,"type":"point"},{"name":"England","count":1,"lat":51.50643,"lng":-0.12719,"type":"country"},{"name":"Washington","count":1,"lat":38.89037,"lng":-77.03196,"type":"point"}],"source":"Aljazeera"},{"feed_name":"World","feed_url":"https://www.theguardian.com/world/rss","title":"Tunisia minister sacked and arrested in scandal over illegal waste from Italy","summary":"<p>Mustapha Aroui held along with 22 others after 200 containers of decaying household and medical waste discovered in July</p><p>Tunisia’s environment minister has been arrested following the attempted importation of household and hospital waste from Italy.</p><p>Mustapha Aroui was dismissed from his post and <a href=\"https://www.voaafrique.com/a/controverse-autour-des-centaines-de-conteneurs-de-d%C3%A9chets-d-italie/5707396.html\">subsequently arrested</a> on Sunday, along with several other people, <a href=\"https://www.france24.com/fr/afrique/20201221-d%C3%A9chets-italiens-ill%C3%A9gaux-en-tunisie-plusieurs-hauts-responsables-interpell%C3%A9s\">including</a> senior customs officials, members of its waste management agency, Agence Nationale de Gestion des Déchets (<a href=\"http://www.anged.nat.tn/\">ANGed</a>) and a Tunisian diplomat based in Naples.</p> <a href=\"https://www.theguardian.com/global-development/2020/dec/24/tunisia-minister-sacked-and-arrested-in-scandal-over-waste-from-italy-mustapha-aroui\">Continue reading...</a>","link":"https://www.theguardian.com/global-development/2020/dec/24/tunisia-minister-sacked-and-arrested-in-scandal-over-waste-from-italy-mustapha-aroui","published":"Thu, 24 Dec 2020 10:46:37 GMT","geolocations":[{"name":"Tunisia","count":6,"lat":36.80001,"lng":10.1827,"type":"country"},{"name":"Italy","count":3,"lat":41.90322,"lng":12.49565,"type":"country"},{"name":"Naples","count":1,"lat":40.84016,"lng":14.25222,"type":"point"},{"name":"Sousse","count":1,"lat":35.82903,"lng":10.63778,"type":"point"}],"source":"The Guardian"},{"feed_name":"World","feed_url":"https://www.aljazeera.com/xml/rss/all.xml","title":"To survive Pakistan’s COVID pandemic, grocery stores go online","summary":"Traditional grocery stores survived COVID by quickly recognising the changing needs of customers they already knew well.","link":"https://www.aljazeera.com/economy/2020/12/25/to-survive-pakistans-covid-pandemic-grocery-stores-go-online","published":"Fri, 25 Dec 2020 04:49:52 +0000","geolocations":[{"name":"Pakistan","count":12,"lat":33.70964,"lng":73.07545,"type":"point"},{"name":"Islamabad","count":9,"lat":33.70964,"lng":73.07545,"type":"point"},{"name":"Khattak","count":1,"lat":27.24855,"lng":85.88915,"type":"point"},{"name":"The United Kingdom","count":2,"lat":38.95953,"lng":-91.92768,"type":"point"},{"name":"Walmart","count":1,"lat":23.75157,"lng":-99.15586,"type":"point"},{"name":"The United States","count":1,"lat":38.89037,"lng":-77.03196,"type":"country"},{"name":"Lahore","count":6,"lat":31.53945,"lng":74.30348,"type":"point"},{"name":"Sauda Sulf","count":1,"lat":59.52726,"lng":6.24768,"type":"point"},{"name":"Tehran","count":1,"lat":35.68877,"lng":51.41503,"type":"point"},{"name":"Beirut","count":1,"lat":33.89607,"lng":35.50678,"type":"point"},{"name":"Mumbai","count":1,"lat":19.14045,"lng":72.88235,"type":"point"},{"name":"Wigston","count":1,"lat":52.58316,"lng":-1.11318,"type":"point"}],"source":"Aljazeera"},{"feed_name":"World","feed_url":"https://www.theguardian.com/world/rss","title":"Kent lorry backlog: more military support sent for Covid testing","summary":"<p>About 4,000 lorries still waiting to cross Channel after French closed border with UK</p><ul><li><a href=\"https://www.theguardian.com/world/coronavirus-outbreak\">See all our coronavirus coverage</a></li></ul><p>A further 800 military personnel are being sent to Kent to help thousands of lorry drivers forced to spend Christmas in their cabs, parked up on roads and in lorry parks around the south coast ports.</p><p>The government is trying to rapidly increase testing to clear the backlog after failing to embark huge numbers of stranded drivers since the French authorities reopened the border on Wednesday morning. About 4,000 lorries are still waiting to cross the Channel after the French closed their border with the UK.</p> <a href=\"https://www.theguardian.com/world/2020/dec/25/kent-lorry-backlog-more-military-support-sent-for-covid-testing\">Continue reading...</a>","link":"https://www.theguardian.com/world/2020/dec/25/kent-lorry-backlog-more-military-support-sent-for-covid-testing","published":"Fri, 25 Dec 2020 11:47:58 GMT","geolocations":[{"name":"Kent","count":2,"lat":47.3807,"lng":-122.23741,"type":"point"},{"name":"France","count":1,"lat":48.85717,"lng":2.3414,"type":"country"},{"name":"Dover","count":2,"lat":39.15803,"lng":-75.52473,"type":"point"},{"name":"Manston","count":2,"lat":51.34585,"lng":1.37,"type":"point"},{"name":"London","count":1,"lat":51.50643,"lng":-0.12719,"type":"point"}],"source":"The Guardian"},{"feed_name":"World","feed_url":"https://rss.nytimes.com/services/xml/rss/nyt/World.xml","title":"2020 in Animal News","summary":"These are the stories about birds, bugs, fish and mammals that surprised and delighted readers the most this year.","link":"https://www.nytimes.com/2020/12/23/science/wildest-animal-news-2020.html","published":"Wed, 23 Dec 2020 20:15:48 +0000","geolocations":[{"name":"The United States","count":1,"lat":38.89037,"lng":-77.03196,"type":"country"}],"source":"The New York Times"},{"feed_name":"World","feed_url":"https://rss.nytimes.com/services/xml/rss/nyt/World.xml","title":"Isolation appears to have helped homeless populations avoid the worst of the pandemic.","summary":"","link":"https://www.nytimes.com/2020/12/23/world/isolation-appears-to-have-helped-homeless-populations-avoid-the-worst-of-the-pandemic.html","published":"Wed, 23 Dec 2020 11:25:45 +0000","geolocations":[{"name":"America","count":1,"lat":51.43739,"lng":5.98176,"type":"point"},{"name":"San Diego","count":1,"lat":32.71568,"lng":-117.16171,"type":"point"}],"source":"The New York Times"},{"feed_name":"World","feed_url":"https://rss.nytimes.com/services/xml/rss/nyt/World.xml","title":"Brexit Trade Deal Reached Between U.K. and E.U.","summary":"The trade agreement comes after months of negotiations, and still leaves critical details to be worked out.","link":"https://www.nytimes.com/2020/12/24/world/europe/brexit-trade-deal-uk-eu.html","published":"Thu, 24 Dec 2020 20:20:24 +0000","geolocations":[{"name":"United Kingdom","count":4,"lat":38.95953,"lng":-91.92768,"type":"point"},{"name":"London","count":1,"lat":51.50643,"lng":-0.12719,"type":"point"}],"source":"The New York Times"},{"feed_name":"World","feed_url":"https://www.latimes.com/world/rss2.0.xml","title":"Stimulus checks, marijuana and Trump's loss all come back to: How will it play in Georgia?","summary":"<p>Republicans and Democrats in Washington keep Georgia's two Senate runoffs front of mind when considering the stimulus, Trump and everything else.</p>","link":"https://www.latimes.com/politics/story/2020-12-22/stimulus-checks-marijuana-and-trumps-loss-all-comes-back-to-how-will-it-play-in-georgia","published":"Tue, 22 Dec 2020 19:16:35 -0500","geolocations":[{"name":"Ky","count":1,"lat":19.29657,"lng":-81.38175,"type":"country"},{"name":"Washington","count":4,"lat":38.89037,"lng":-77.03196,"type":"point"},{"name":"D.C.","count":1,"lat":4.61496,"lng":-74.06941,"type":"point"}],"source":"Los Angeles Times"},{"feed_name":"World","feed_url":"https://www.theguardian.com/world/rss","title":"Stella Tennant obituary","summary":"Model who rose to fame in the 1990s, capturing the attention of Karl Lagerfeld and gracing the pages of Vogue<p>No one in fashion could guess what would succeed the smiling, buoyant healthfulness of the international supermodels who commanded catwalks and covers in the late 1980s and early 90s. The unexpected next big things turned out to be very particularly British: bad-waif Kate Moss, and cool aristo Stella Tennant, who arrived on the pages of British Vogue in 1993. She has died suddenly, shortly after her 50th birthday.</p><p>Tennant’s appeal had been prefigured in the release that year of Sally Potter’s film of the Virginia Woolf fantasy novel Orlando, its hero/heroine (nothing so simple as androgynous) played by Tilda Swinton; pipe-cleaner thin, tall, pale, unpainted, with a body language both male and female, and an ever-unready smile. Totally Tennant.</p> <a href=\"https://www.theguardian.com/fashion/2020/dec/25/stella-tennant-obituary\">Continue reading...</a>","link":"https://www.theguardian.com/fashion/2020/dec/25/stella-tennant-obituary","published":"Fri, 25 Dec 2020 13:11:32 GMT","geolocations":[{"name":"Virginia","count":1,"lat":37.54068,"lng":-77.43367,"type":"point"},{"name":"Orlando","count":1,"lat":28.53823,"lng":-81.37739,"type":"point"},{"name":"London","count":3,"lat":51.50643,"lng":-0.12719,"type":"point"},{"name":"Us","count":1,"lat":38.89037,"lng":-77.03196,"type":"country"},{"name":"Highlands","count":1,"lat":35.05342,"lng":-83.19668,"type":"point"},{"name":"Spitalfields","count":1,"lat":52.24401,"lng":-8.66447,"type":"point"},{"name":"Paris","count":2,"lat":48.85717,"lng":2.3414,"type":"point"},{"name":"New York","count":1,"lat":40.71455,"lng":-74.00714,"type":"point"},{"name":"Scotland","count":2,"lat":55.95438,"lng":-3.20144,"type":"country"},{"name":"Linton","count":1,"lat":39.03495,"lng":-87.16772,"type":"point"},{"name":"Newcastleton","count":1,"lat":55.17834,"lng":-2.81407,"type":"point"},{"name":"The Scottish Borders","count":1,"lat":34.49886,"lng":-79.30879,"type":"point"},{"name":"Manhattan","count":1,"lat":39.17881,"lng":-96.56184,"type":"point"},{"name":"Edinburgh","count":1,"lat":55.95438,"lng":-3.20144,"type":"point"},{"name":"Edrom","count":1,"lat":-37.10181,"lng":149.93289,"type":"point"},{"name":"Berwickshire","count":1,"lat":55.8072,"lng":-2.49522,"type":"point"},{"name":"Marcel","count":1,"lat":46.88163,"lng":-70.0543,"type":"point"},{"name":"Cecily","count":1,"lat":41.2318,"lng":-84.5935,"type":"point"},{"name":"Milan","count":1,"lat":45.46796,"lng":9.18178,"type":"point"}],"source":"The Guardian"},{"feed_name":"World","feed_url":"https://www.aljazeera.com/xml/rss/all.xml","title":"COVID: In Italy, the second wave is now as deadly as the first","summary":"Daily death toll reaches record high, with total fatalities expected to soon reach grim first-wave milestone.","link":"https://www.aljazeera.com/news/2020/12/25/why-is-italy-going-thought-a-deadly-wave-again","published":"Fri, 25 Dec 2020 12:12:41 +0000","geolocations":[{"name":"Italy","count":7,"lat":41.90322,"lng":12.49565,"type":"country"},{"name":"Europe","count":2,"lat":-33.98201,"lng":18.58413,"type":"point"},{"name":"Milan","count":1,"lat":45.46796,"lng":9.18178,"type":"point"},{"name":"Sweden","count":1,"lat":59.33257,"lng":18.06683,"type":"country"},{"name":"Turin","count":1,"lat":45.06235,"lng":7.67993,"type":"point"},{"name":"Germany","count":1,"lat":52.51604,"lng":13.37691,"type":"country"},{"name":"France","count":1,"lat":48.85717,"lng":2.3414,"type":"country"}],"source":"Aljazeera"},{"feed_name":"World","feed_url":"https://www.theguardian.com/world/rss","title":"‘I am not afraid to fight’: the female Afghan colonel who survived the Taliban's assassins","summary":"<p>Saba Sahar, who returned fire while protecting her daughter, survived one of a wave of recent assassination attempts that have killed six policewomen</p><p>It was just after 7am when the car carrying Colonel Saba Sahar, one of Afghanistan’s most senior female police officers, came under fire from armed insurgents. In the back seat, Sahar’s four-year-old daughter began screaming as bullets shattered the windscreen and ripped into the upholstery. As she pushed her child under the seat in front of her, Sahar saw three men carrying AK-47 assault rifles, firing as they approached the car.</p><p>In the front of the car her bodyguard and driver had both been hit and were badly injured and unconscious. Looking down, Sahar saw blood seeping through her clothing. “It took me another moment to realise I’d been shot too,” she says. She knew that she only had minutes to try to save her daughter. “They were five or six metres away, and they were moving closer to the car, still firing. They would have killed my child,” she says. Bleeding heavily from five shots to her stomach, Sahar reached forward, grabbed the gun from her slumped bodyguard and started returning fire.</p> <a href=\"https://www.theguardian.com/global-development/2020/dec/24/i-am-not-afraid-to-fight-the-female-afghan-colonel-who-survived-the-talibans-assassins\">Continue reading...</a>","link":"https://www.theguardian.com/global-development/2020/dec/24/i-am-not-afraid-to-fight-the-female-afghan-colonel-who-survived-the-talibans-assassins","published":"Thu, 24 Dec 2020 07:30:07 GMT","geolocations":[{"name":"Afghanistan","count":8,"lat":34.53313,"lng":69.10223,"type":"country"},{"name":"Us","count":1,"lat":38.89037,"lng":-77.03196,"type":"country"},{"name":"Kabul","count":1,"lat":34.53313,"lng":69.10223,"type":"point"},{"name":"Qatar","count":1,"lat":25.29424,"lng":51.51967,"type":"country"}],"source":"The Guardian"},{"feed_name":"World","feed_url":"https://rss.nytimes.com/services/xml/rss/nyt/World.xml","title":"Brexit Is Finally Done, but U.K. Ambitions Already Seems Outdated","summary":"The idea of an agile “Global Britain” was an effective sales pitch. But that was before President Trump and other populists began erecting barriers to trade.","link":"https://www.nytimes.com/2020/12/24/world/europe/brexit-deal-boris-johnson.html","published":"Thu, 24 Dec 2020 23:03:10 +0000","geolocations":[{"name":"London","count":1,"lat":51.50643,"lng":-0.12719,"type":"point"},{"name":"United Kingdom","count":3,"lat":38.95953,"lng":-91.92768,"type":"point"},{"name":"Brussels","count":1,"lat":50.84439,"lng":4.35609,"type":"point"},{"name":"The United States","count":1,"lat":38.89037,"lng":-77.03196,"type":"country"},{"name":"China","count":1,"lat":39.90657,"lng":116.38765,"type":"country"}],"source":"The New York Times"},{"feed_name":"World","feed_url":"https://www.theguardian.com/world/rss","title":"'Darkest days ahead': Joe Biden gives sobering message on Covid – video","summary":"<p>Biden said the US would have dark days ahead in tackling the coronavirus pandemic and things would get worse before they improved.</p><p>Monday saw the Covid-19 cases pass 18 million in the US according to&nbsp;<a href=\"https://www.theguardian.com/world/ng-interactive/2020/sep/21/coronavirus-covid-19-map-us-cases-deaths-state-by-state\">data</a>&nbsp;from&nbsp;Johns Hopkins University, and Biden said the vaccine rollout would not change trends quickly</p><ul><li><a href=\"https://www.theguardian.com/world/live/2020/dec/22/coronavirus-live-news-biden-receives-vaccine-as-global-death-toll-passes-17m?page=with:block-5fe24fe48f08da4121f4bb18#block-5fe24fe48f08da4121f4bb18\">Coronavirus: latest updates</a></li></ul> <a href=\"https://www.theguardian.com/us-news/video/2020/dec/22/darkest-days-ahead-joe-biden-gives-sobering-message-on-covid-video\">Continue reading...</a>","link":"https://www.theguardian.com/us-news/video/2020/dec/22/darkest-days-ahead-joe-biden-gives-sobering-message-on-covid-video","published":"Tue, 22 Dec 2020 20:58:15 GMT","geolocations":[{"name":"Us","count":2,"lat":38.89037,"lng":-77.03196,"type":"country"}],"source":"The Guardian"},{"feed_name":"World","feed_url":"https://www.aljazeera.com/xml/rss/all.xml","title":"US to require negative COVID-19 tests for all UK passengers","summary":"CDC says passengers from the UK must test negative via either a PCR or antigen test within 72 hours of departure.","link":"https://www.aljazeera.com/news/2020/12/25/us-to-require-negative-covid-19-tests-for-all-uk-passengers","published":"Fri, 25 Dec 2020 05:21:36 +0000","geolocations":[{"name":"The United States","count":3,"lat":38.89037,"lng":-77.03196,"type":"country"},{"name":"The United Kingdom","count":4,"lat":38.95953,"lng":-91.92768,"type":"point"},{"name":"Us","count":3,"lat":38.89037,"lng":-77.03196,"type":"country"},{"name":"United Kingdom","count":3,"lat":38.95953,"lng":-91.92768,"type":"point"},{"name":"Washington","count":1,"lat":38.89037,"lng":-77.03196,"type":"point"},{"name":"New York’S","count":1,"lat":40.71455,"lng":-74.00714,"type":"point"},{"name":"London","count":1,"lat":51.50643,"lng":-0.12719,"type":"point"},{"name":"Jfk","count":1,"lat":40.72508,"lng":-74.07352,"type":"point"},{"name":"Virgin Atlantic","count":1,"lat":37.90013,"lng":-75.50763,"type":"point"},{"name":"New York","count":1,"lat":40.71455,"lng":-74.00714,"type":"point"},{"name":"Europe","count":1,"lat":-33.98201,"lng":18.58413,"type":"point"}],"source":"Aljazeera"},{"feed_name":"World","feed_url":"https://www.aljazeera.com/xml/rss/all.xml","title":"Small businesses surviving COVID, Brexit trade and tracking Santa","summary":"We round up the numbers to know from the week’s biggest economic stories so you can impress yourself and your friends.","link":"https://www.aljazeera.com/economy/2020/12/25/week-in-numbers-5","published":"Fri, 25 Dec 2020 07:41:28 +0000","geolocations":[{"name":"The United Kingdom","count":1,"lat":38.95953,"lng":-91.92768,"type":"point"},{"name":"London","count":1,"lat":51.50643,"lng":-0.12719,"type":"point"},{"name":"Europe","count":1,"lat":-33.98201,"lng":18.58413,"type":"point"},{"name":"Asia","count":1,"lat":-12.76551,"lng":-76.61171,"type":"point"},{"name":"Latin America","count":1,"lat":41.62788,"lng":13.34278,"type":"point"},{"name":"Iran","count":1,"lat":35.68877,"lng":51.41503,"type":"country"},{"name":"Tehran","count":2,"lat":35.68877,"lng":51.41503,"type":"point"},{"name":"Mumbai","count":1,"lat":19.14045,"lng":72.88235,"type":"point"},{"name":"Beirut","count":1,"lat":33.89607,"lng":35.50678,"type":"point"},{"name":"England","count":1,"lat":51.50643,"lng":-0.12719,"type":"country"},{"name":"Earth","count":1,"lat":38.76564,"lng":-90.46003,"type":"point"},{"name":"The Pacific Ocean","count":1,"lat":39.78539,"lng":-74.18606,"type":"point"},{"name":"Norad","count":1,"lat":34.43734,"lng":35.84711,"type":"point"}],"source":"Aljazeera"},{"feed_name":"World","feed_url":"https://www.latimes.com/world/rss2.0.xml","title":"Biden team plans ambitious push to address racial disparities in healthcare","summary":"<p>Led by California Atty. Gen. Xavier Becerra, tapped by Biden to lead the Department of Health and Human Services, Biden's healthcare team is aiming for an ambitious agenda to reshape a healthcare system that still leaves millions of Black and Latino Americans with weaker insurance protections, less access to care and poorer outcome. </p>","link":"https://www.latimes.com/politics/story/2020-12-23/biden-team-to-lead-historic-push-to-address-racial-disparities-in-healthcare","published":"Wed, 23 Dec 2020 13:17:01 -0500","geolocations":[{"name":"California","count":1,"lat":38.57944,"lng":-121.49085,"type":"point"},{"name":"U.S.","count":1,"lat":38.89037,"lng":-77.03196,"type":"country"},{"name":"Wilmington","count":1,"lat":39.74023,"lng":-75.55084,"type":"point"},{"name":"Los Angeles","count":1,"lat":34.05357,"lng":-118.24545,"type":"point"},{"name":"South","count":1,"lat":33.56253,"lng":35.36757,"type":"point"},{"name":"The United States","count":1,"lat":38.89037,"lng":-77.03196,"type":"country"}],"source":"Los Angeles Times"},{"feed_name":"World","feed_url":"https://www.theguardian.com/world/rss","title":"Amsterdam gallery owner recalls how sale of Banksy work saved staff jobs","summary":"<p>Kim Logchies-Prins tells how employees gathered around canvas, sold for £1.5m, to give thanks</p><p>The owner of an art museum in Amsterdam who sold a prized Banksy painting for £1.5m to avoid laying off staff during the coronavirus pandemic has told how her employees gathered around the canvas to give thanks.</p><p>Kim Logchies-Prins, co-founder with her husband, Lionel, of the Moco museum of modern, contemporary and street art, said she joined 20 of the office staff to pay respects and say goodbye to Banksy’s Monkey Poison, following its sale to an anonymous US buyer at an auction in New York.</p> <a href=\"https://www.theguardian.com/artanddesign/2020/dec/25/amsterdam-gallery-owner-recalls-how-sale-of-banksy-work-saved-staff-jobs\">Continue reading...</a>","link":"https://www.theguardian.com/artanddesign/2020/dec/25/amsterdam-gallery-owner-recalls-how-sale-of-banksy-work-saved-staff-jobs","published":"Fri, 25 Dec 2020 12:00:46 GMT","geolocations":[{"name":"Amsterdam","count":2,"lat":52.37018,"lng":4.87324,"type":"point"},{"name":"Us","count":1,"lat":38.89037,"lng":-77.03196,"type":"country"},{"name":"New York","count":2,"lat":40.71455,"lng":-74.00714,"type":"point"},{"name":"Netherlands","count":1,"lat":52.36993,"lng":4.90788,"type":"country"}],"source":"The Guardian"},{"feed_name":"World","feed_url":"https://rss.nytimes.com/services/xml/rss/nyt/World.xml","title":"Your Thursday Briefing","summary":"A last-minute Brexit scramble.","link":"https://www.nytimes.com/2020/12/24/briefing/brexit-coronavirus-nigeria-police.html","published":"Thu, 24 Dec 2020 06:09:16 +0000","geolocations":[{"name":"U.S.","count":1,"lat":38.89037,"lng":-77.03196,"type":"country"},{"name":"China","count":2,"lat":39.90657,"lng":116.38765,"type":"country"},{"name":"France","count":2,"lat":48.85717,"lng":2.3414,"type":"country"}],"source":"The New York Times"},{"feed_name":"World","feed_url":"https://www.theguardian.com/world/rss","title":"From plans to panic: how the UK's week of Covid chaos unfolded – video timeline","summary":"<p>The week before Christmas quickly turned chaotic as the health secretary, Matt Hancock, announced a new, more contagious strain of coronavirus had been found in south-east England. The news resulted in a last-minute government U-turn over Christmas mixing rules, the implementation of a new, stricter coronavirus tier, and dozens of countries suspending travel from the UK days before the end of the Brexit transition period, prompting 'Plague Island' to trend on Twitter. Here is a look back at the week of chaos</p><ul><li><a href=\"https://www.theguardian.com/world/2020/dec/22/worlds-media-ask-how-it-went-so-wrong-for-plague-island-britain-covid\">World's media ask how it went so wrong for 'Plague Island' Britain</a><br /></li></ul> <a href=\"https://www.theguardian.com/world/video/2020/dec/23/from-plans-to-panic-how-uk-week-of-covid-chaos-unfolded-video-timeline\">Continue reading...</a>","link":"https://www.theguardian.com/world/video/2020/dec/23/from-plans-to-panic-how-uk-week-of-covid-chaos-unfolded-video-timeline","published":"Wed, 23 Dec 2020 16:16:25 GMT","geolocations":[{"name":"England","count":1,"lat":51.50643,"lng":-0.12719,"type":"country"}],"source":"The Guardian"},{"feed_name":"World","feed_url":"https://rss.nytimes.com/services/xml/rss/nyt/World.xml","title":"A Flying Elephant, a Teacher’s Hugs: 12 Tales of Pandemic Resilience","summary":"The virus has been crushing spirits around the world, but some people refuse to be bowed. Here are their stories.","link":"https://www.nytimes.com/2020/12/24/world/coronavirus-resilience.html","published":"Fri, 25 Dec 2020 03:30:56 +0000","geolocations":[{"name":"Brighton","count":1,"lat":50.82868,"lng":-0.13437,"type":"point"},{"name":"United Kingdom","count":3,"lat":38.95953,"lng":-91.92768,"type":"point"}],"source":"The New York Times"},{"feed_name":"World","feed_url":"https://www.theguardian.com/world/rss","title":"Fire burns through temporary migrant camp in Bosnia – video","summary":"<p>A huge fire has destroyed the main tents in what was designed to be a temporary migrant camp to stop the spread of Covid-19 in northern Bosnia.&nbsp;</p><p>Thick black smoke rose from the Lipa camp near the Croatian border on Wednesday, where about 1,200 people had been staying since the summer&nbsp;</p> <a href=\"https://www.theguardian.com/world/video/2020/dec/23/fire-burns-through-temporary-migrant-camp-bosnia-video\">Continue reading...</a>","link":"https://www.theguardian.com/world/video/2020/dec/23/fire-burns-through-temporary-migrant-camp-bosnia-video","published":"Wed, 23 Dec 2020 15:26:27 GMT","geolocations":[{"name":"Bosnia","count":1,"lat":43.85946,"lng":18.43582,"type":"country"}],"source":"The Guardian"},{"feed_name":"World","feed_url":"https://www.latimes.com/world/rss2.0.xml","title":"Congress approves hospice care reforms to improve oversight, transparency","summary":"<p>Fines and other penalties are set for bad actors in an industry marked by weak regulation.</p>","link":"https://www.latimes.com/california/story/2020-12-23/hospice-terminally-ill-fraud-care-reforms-transparency-oversight-spending-bill","published":"Wed, 23 Dec 2020 06:00:03 -0500","geolocations":[{"name":"U.S.","count":1,"lat":38.89037,"lng":-77.03196,"type":"country"},{"name":"N.Y.","count":1,"lat":40.71455,"lng":-74.00714,"type":"point"},{"name":"California","count":3,"lat":38.57944,"lng":-121.49085,"type":"point"},{"name":"Los Angeles County","count":1,"lat":34.28089,"lng":-119.14472,"type":"point"}],"source":"Los Angeles Times"},{"feed_name":"World","feed_url":"https://rss.nytimes.com/services/xml/rss/nyt/World.xml","title":"‘Covid conga line’ with Queens Republicans prompts criticism and an investigation.","summary":"","link":"https://www.nytimes.com/2020/12/23/world/covid-conga-line-with-queens-republicans-prompts-criticism-and-an-investigation.html","published":"Wed, 23 Dec 2020 10:14:07 +0000","geolocations":[{"name":"Queens","count":1,"lat":46.2576,"lng":-63.11851,"type":"point"}],"source":"The New York Times"},