[{"feed_name":"World","feed_url":"https://rss.nytimes.com/services/xml/rss/nyt/World.xml","title":"Argentina Senate to Vote on Bill Legalizing Abortion","summary":"A bill before the Senate would make abortion legal in the predominantly Catholic nation, the homeland of Pope Francis. Its approval likely would have significant effect across Latin America.","link":"https://www.nytimes.com/2020/12/29/world/americas/argentina-abortion.html","published":"Tue, 29 Dec 2020 23:56:31 +0000","geolocations":[{"name":"Buenos Aires","count":1,"lat":-34.60849,"lng":-58.37344,"type":"point"},{"name":"Argentina","count":3,"lat":-34.60849,"lng":-58.37344,"type":"country"},{"name":"Latin America","count":1,"lat":41.62788,"lng":13.34278,"type":"point"}],"source":"The New York Times"},{"feed_name":"World","feed_url":"https://rss.nytimes.com/services/xml/rss/nyt/World.xml","title":"Central and Southern California Have 0 Percent I.C.U. Capacity","summary":"","link":"https://www.nytimes.com/2020/12/26/world/central-and-southern-california-icu-capacity.html","published":"Mon, 28 Dec 2020 05:08:42 +0000","geolocations":[{"name":"California","count":2,"lat":38.57944,"lng":-121.49085,"type":"point"},{"name":"Southern California","count":1,"lat":41.77455,"lng":-84.88371,"type":"point"},{"name":"San Joaquin Valley","count":1,"lat":34.28543,"lng":-118.68464,"type":"point"},{"name":"The Bay Area","count":1,"lat":37.78986,"lng":-122.39634,"type":"point"},{"name":"The Greater Sacramento Region","count":1,"lat":7.90099,"lng":125.28819,"type":"point"},{"name":"Washington State","count":1,"lat":37.13026,"lng":-113.50987,"type":"point"},{"name":"Oregon","count":1,"lat":44.93326,"lng":-123.04381,"type":"point"}],"source":"The New York Times"},{"feed_name":"World","feed_url":"https://www.theguardian.com/world/rss","title":"Gender conversion 'therapy' made me suicidal. I fear for other young Nigerians","summary":"<p>A survivor warns against the harmful practices many are forced to undergo to try to change their sexuality or gender identity</p><p>When I was nine, my parents took me to a traditional healer. He used a razor to make three incisions on the insteps of my feet, my wrists, my elbows, my forehead and on the back of my neck. As blood started to flow, the healer rubbed a concoction of herbs into the incisions and gave me a potion to drink. He took alligator pepper and rubbed it on various parts of my body. There was a rooster, into which he cast the “demon” inside me. The rooster was slaughtered and thrown into the river, supposedly taking my sexuality with it.<br /><br />In boarding school, I met a boy who I would say was my first love. We talked about everything and liked to take long walks. But he struggled. I watched him struggle to accept his sexuality. He felt there was something wrong with him but I didn’t know how to help him. For me it was different. It wasn’t just about sexuality; it was also about gender. I was born male but I have never felt like a man.<br /><br />When I was 22, in university, I met a transgender woman. She was a lot more open, more cosmopolitan, more upfront about what she wanted. I’d never met anyone like her. We had a sisterhood –– fun, graceful, pure. It was as if the scales fell from my eyes.</p><p>What part of me has been lost in the effort to make me fit a heteronormative, socially acceptable form?</p> <a href=\"https://www.theguardian.com/global-development/2020/dec/28/gender-conversion-therapy-made-me-suicidal-i-fear-for-other-young-nigerians\">Continue reading...</a>","link":"https://www.theguardian.com/global-development/2020/dec/28/gender-conversion-therapy-made-me-suicidal-i-fear-for-other-young-nigerians","published":"Mon, 28 Dec 2020 07:15:06 GMT","geolocations":[{"name":"Nigeria","count":4,"lat":9.06344,"lng":7.46228,"type":"country"},{"name":"Brazil","count":1,"lat":-15.77829,"lng":-47.92909,"type":"country"},{"name":"Ecuador","count":1,"lat":-0.20565,"lng":-78.50888,"type":"country"},{"name":"Taiwan","count":1,"lat":25.03737,"lng":121.56355,"type":"country"},{"name":"Malta","count":1,"lat":35.89353,"lng":14.5118,"type":"country"},{"name":"Germany","count":1,"lat":52.51604,"lng":13.37691,"type":"country"},{"name":"Commonwealth","count":1,"lat":45.91361,"lng":-88.25218,"type":"point"},{"name":"Ireland","count":1,"lat":53.34807,"lng":-6.24827,"type":"country"},{"name":"Us","count":1,"lat":38.89037,"lng":-77.03196,"type":"country"},{"name":"Australia","count":1,"lat":-35.30654,"lng":149.12655,"type":"country"}],"source":"The Guardian"},{"feed_name":"World","feed_url":"https://www.theguardian.com/world/rss","title":"Mitch McConnell blocks Senate Democrats' move to fast track $2000 Covid payments – video","summary":"<p>The Senate majority leader, Mitch McConnell, blocked an effort by Democrats to quickly increase coronavirus relief payments to US citizens from $600 to $2,000. Donald Trump demanded the raise on Tuesday, tweeting that Americans had ‘suffered enough’ from the Covid pandemic. But amid mounting pressure from fellow Republicans,&nbsp; McConnell objected to a move by Chuck Schumer, the minority leader, to swiftly pass the measure</p><ul><li><a href=\"https://www.theguardian.com/world/2020/dec/29/mitch-mcconnell-blocks-trump-push-covid-stimulus-checks-2000\">McConnell blocks initial Democratic effort for $2,000 Covid stimulus checks</a></li></ul> <a href=\"https://www.theguardian.com/world/video/2020/dec/29/mitch-mcconnell-blocks-senate-democrats-move-to-fast-track-2000-covid-payments-video\">Continue reading...</a>","link":"https://www.theguardian.com/world/video/2020/dec/29/mitch-mcconnell-blocks-senate-democrats-move-to-fast-track-2000-covid-payments-video","published":"Tue, 29 Dec 2020 20:44:32 GMT","geolocations":[{"name":"Us","count":1,"lat":38.89037,"lng":-77.03196,"type":"country"}],"source":"The Guardian"},{"feed_name":"World","feed_url":"https://rss.nytimes.com/services/xml/rss/nyt/World.xml","title":"South Africa will make plenty of vaccine. But its citizens are at the back of the line.","summary":"","link":"https://www.nytimes.com/2020/12/29/world/south-africa-will-make-plenty-of-vaccine-but-its-citizens-are-at-the-back-of-the-line.html","published":"Tue, 29 Dec 2020 10:11:12 +0000","geolocations":[{"name":"The United States","count":1,"lat":38.89037,"lng":-77.03196,"type":"country"},{"name":"United Kingdom","count":1,"lat":38.95953,"lng":-91.92768,"type":"point"},{"name":"China","count":1,"lat":39.90657,"lng":116.38765,"type":"country"},{"name":"Russia","count":1,"lat":55.75696,"lng":37.61502,"type":"country"},{"name":"South Africa","count":4,"lat":-25.74587,"lng":28.18764,"type":"country"},{"name":"Europe","count":1,"lat":-33.98201,"lng":18.58413,"type":"point"},{"name":"Western","count":1,"lat":8.34108,"lng":-13.10603,"type":"point"}],"source":"The New York Times"},{"feed_name":"World - Europe","feed_url":"http://feeds.bbci.co.uk/news/world/rss.xml","title":"China Covid-19: How state media and censorship took on coronavirus","summary":"We look back at how China's propaganda and censorship machine responded during a particularly dramatic year.","link":"https://www.bbc.co.uk/news/world-asia-china-55355401","published":"Tue, 29 Dec 2020 00:04:27 GMT","geolocations":[{"name":"China","count":22,"lat":39.90657,"lng":116.38765,"type":"country"},{"name":"Beijing","count":2,"lat":39.90657,"lng":116.38765,"type":"point"},{"name":"Wuhan","count":15,"lat":30.64353,"lng":114.32472,"type":"point"},{"name":"Shanghai","count":1,"lat":39.45274,"lng":-78.15318,"type":"point"},{"name":"The South China","count":1,"lat":44.39725,"lng":-69.56944,"type":"point"},{"name":"West","count":2,"lat":-14.3239,"lng":-170.76852,"type":"point"},{"name":"The United States","count":1,"lat":38.89037,"lng":-77.03196,"type":"country"},{"name":"America","count":1,"lat":51.43739,"lng":5.98176,"type":"point"},{"name":"Us","count":1,"lat":38.89037,"lng":-77.03196,"type":"country"}],"source":"BBC"},{"feed_name":"World","feed_url":"https://rss.nytimes.com/services/xml/rss/nyt/World.xml","title":"George Blake, British Spy Who Betrayed the West, Dies at 98","summary":"He was caught spilling secrets to the Soviets in 1961 and imprisoned. Five years later, he escaped and fled to Moscow, where he was hailed as a hero.","link":"https://www.nytimes.com/2020/12/26/obituaries/george-blake-british-spy-dead.html","published":"Sat, 26 Dec 2020 21:57:00 +0000","geolocations":[{"name":"Rotterdam","count":1,"lat":51.91438,"lng":4.48716,"type":"point"},{"name":"Turkey","count":1,"lat":39.92109,"lng":32.85391,"type":"country"},{"name":"The Ottoman Empire","count":1,"lat":37.70098,"lng":-76.52037,"type":"point"},{"name":"Netherlands","count":2,"lat":52.36993,"lng":4.90788,"type":"country"},{"name":"Cairo","count":1,"lat":30.04427,"lng":31.23525,"type":"point"},{"name":"England","count":1,"lat":51.50643,"lng":-0.12719,"type":"country"},{"name":"United Kingdom","count":3,"lat":38.95953,"lng":-91.92768,"type":"point"},{"name":"Cambridge","count":1,"lat":52.20992,"lng":0.11161,"type":"point"},{"name":"Germany","count":1,"lat":52.51604,"lng":13.37691,"type":"country"},{"name":"Berlin","count":1,"lat":52.51604,"lng":13.37691,"type":"point"},{"name":"Hamburg","count":1,"lat":53.55562,"lng":9.98745,"type":"point"},{"name":"Seoul","count":1,"lat":37.55886,"lng":126.99989,"type":"point"},{"name":"South Korea’S","count":1,"lat":37.55886,"lng":126.99989,"type":"country"},{"name":"North Korea","count":3,"lat":39.01196,"lng":125.78684,"type":"country"}],"source":"The New York Times"},{"feed_name":"World","feed_url":"https://www.latimes.com/world/rss2.0.xml","title":"Congress approves hospice care reforms to improve oversight, transparency","summary":"<p>Fines and other penalties are set for bad actors in an industry marked by weak regulation.</p>","link":"https://www.latimes.com/california/story/2020-12-23/hospice-terminally-ill-fraud-care-reforms-transparency-oversight-spending-bill","published":"Wed, 23 Dec 2020 06:00:03 -0500","geolocations":[{"name":"U.S.","count":1,"lat":38.89037,"lng":-77.03196,"type":"country"},{"name":"N.Y.","count":1,"lat":40.71455,"lng":-74.00714,"type":"point"},{"name":"California","count":3,"lat":38.57944,"lng":-121.49085,"type":"point"},{"name":"Los Angeles County","count":1,"lat":34.28089,"lng":-119.14472,"type":"point"}],"source":"Los Angeles Times"},{"feed_name":"World","feed_url":"https://www.latimes.com/world/rss2.0.xml","title":"Harry and Meghan ignore personal controversies in podcast holiday special","summary":"<p>Prince Harry and Meghan preview their Archewell podcast with a special edition reflecting on 2020, featuring Stacey Abrams, Elton John, Tyler Perry and son Archie.</p>","link":"https://www.latimes.com/entertainment-arts/story/2020-12-29/harry-and-meghan-ignore-personal-controversies-in-holiday-special-podcast","published":"Tue, 29 Dec 2020 14:45:58 -0500","geolocations":[{"name":"Sussex","count":1,"lat":45.72357,"lng":-65.51184,"type":"point"},{"name":"The United Kingdom","count":1,"lat":38.95953,"lng":-91.92768,"type":"point"}],"source":"Los Angeles Times"},{"feed_name":"World","feed_url":"https://rss.nytimes.com/services/xml/rss/nyt/World.xml","title":"First Case of British Coronavirus Variant Has Been Confirmed in the U.S.","summary":"","link":"https://www.nytimes.com/2020/12/29/world/covid-variant-british-us.html","published":"Wed, 30 Dec 2020 00:07:50 +0000","geolocations":[{"name":"The United States","count":1,"lat":38.89037,"lng":-77.03196,"type":"country"},{"name":"Europe","count":1,"lat":-33.98201,"lng":18.58413,"type":"point"},{"name":"Scotland","count":1,"lat":55.95438,"lng":-3.20144,"type":"country"},{"name":"London","count":1,"lat":51.50643,"lng":-0.12719,"type":"point"},{"name":"France","count":1,"lat":48.85717,"lng":2.3414,"type":"country"},{"name":"Spain","count":1,"lat":40.41955,"lng":-3.69196,"type":"country"},{"name":"Ontario","count":1,"lat":43.64869,"lng":-79.38544,"type":"point"},{"name":"Canada","count":1,"lat":45.42178,"lng":-75.69116,"type":"country"}],"source":"The New York Times"},{"feed_name":"World","feed_url":"https://www.theguardian.com/world/rss","title":"How a 'tree mortgage' scheme could turn an Indian town carbon neutral","summary":"<p>Kerala villagers are reaping the benefits of a scheme that pays them to leave their trees rooted, reducing risk of deforestation</p><p>In the misty, hilly terrain of Wayanad, in the southern Indian state of Kerala, the people with any access to land in the quiet town of Meenangadi have been out counting their trees.</p><p>Sheeja CG, a 46-year-old farmer, has lived among coffee, coconut and pepper plantations all her life but last month she increased her income dramatically by mortgaging 53 of her trees at the local bank, in return for a sum of 2,650 rupees (£26.96), or 50 rupees each. She was one of the first beneficiaries of the state-sponsored scheme.</p> <a href=\"https://www.theguardian.com/global-development/2020/dec/28/how-a-tree-mortgage-scheme-could-turn-an-indian-town-carbon-neutral\">Continue reading...</a>","link":"https://www.theguardian.com/global-development/2020/dec/28/how-a-tree-mortgage-scheme-could-turn-an-indian-town-carbon-neutral","published":"Mon, 28 Dec 2020 06:00:06 GMT","geolocations":[{"name":"Kerala","count":6,"lat":8.50519,"lng":76.95139,"type":"point"},{"name":"Wayanad","count":4,"lat":11.71093,"lng":76.08737,"type":"point"},{"name":"India","count":1,"lat":28.63095,"lng":77.21721,"type":"country"},{"name":"Wayanad, Kerala","count":1,"lat":11.71093,"lng":76.08737,"type":"point"},{"name":"Sheeja","count":1,"lat":28.89609,"lng":76.60265,"type":"point"}],"source":"The Guardian"},{"feed_name":"World","feed_url":"https://rss.nytimes.com/services/xml/rss/nyt/World.xml","title":"Your Monday Briefing","summary":"Vaccines roll out across Europe.","link":"https://www.nytimes.com/2020/12/27/briefing/vaccines-europe-china-coronavirus-india.html","published":"Sun, 27 Dec 2020 20:57:31 +0000","geolocations":[{"name":"Bangalore","count":1,"lat":12.96618,"lng":77.5869,"type":"point"},{"name":"India","count":1,"lat":28.63095,"lng":77.21721,"type":"country"},{"name":"Brooklyn","count":1,"lat":40.69245,"lng":-73.99036,"type":"point"}],"source":"The New York Times"},{"feed_name":"World","feed_url":"https://www.aljazeera.com/xml/rss/all.xml","title":"White woman’s confrontation with Black teen under investigation","summary":"Woman accuses teen of theft in NY hotel, drawing comparisons to other false accusations against Black people in the US.","link":"https://www.aljazeera.com/news/2020/12/29/white-woman-confrontation-with-black-teen-under-investigation","published":"Tue, 29 Dec 2020 22:48:53 +0000","geolocations":[{"name":"Ny","count":1,"lat":40.71455,"lng":-74.00714,"type":"point"},{"name":"Us","count":1,"lat":38.89037,"lng":-77.03196,"type":"country"},{"name":"New York City","count":3,"lat":40.71455,"lng":-74.00714,"type":"point"},{"name":"Manhattan","count":3,"lat":39.17881,"lng":-96.56184,"type":"point"},{"name":"New York","count":2,"lat":40.71455,"lng":-74.00714,"type":"point"},{"name":"New York’S","count":1,"lat":40.71455,"lng":-74.00714,"type":"point"},{"name":"Central Park","count":1,"lat":40.78144,"lng":-73.96516,"type":"point"},{"name":"Louisville","count":1,"lat":38.25489,"lng":-85.76666,"type":"point"},{"name":"Kentucky","count":1,"lat":38.19507,"lng":-84.87869,"type":"point"},{"name":"Ferguson","count":1,"lat":36.08563,"lng":-81.36743,"type":"point"},{"name":"Missouri","count":1,"lat":38.57751,"lng":-92.17784,"type":"point"}],"source":"Aljazeera"},{"feed_name":"World","feed_url":"https://www.aljazeera.com/xml/rss/all.xml","title":"Nashville bomber gave away car, home before Christmas Day attack","summary":"Authorities are looking for the motive behind the explosion - bomber said &#039;the world is never going to forget me&#039;.","link":"https://www.aljazeera.com/news/2020/12/29/nashville-bomber-gave-away-car-home-before-christmas-day-attack","published":"Tue, 29 Dec 2020 14:57:12 +0000","geolocations":[{"name":"Us","count":2,"lat":38.89037,"lng":-77.03196,"type":"country"},{"name":"Nashville","count":7,"lat":36.16784,"lng":-86.77816,"type":"point"},{"name":"Tennessee","count":4,"lat":36.16784,"lng":-86.77816,"type":"point"},{"name":"California","count":1,"lat":38.57944,"lng":-121.49085,"type":"point"},{"name":"Rv","count":3,"lat":-30.90501,"lng":-55.54352,"type":"point"},{"name":"Antioch","count":1,"lat":38.01583,"lng":-121.81974,"type":"point"},{"name":"Los Angeles","count":1,"lat":34.05357,"lng":-118.24545,"type":"point"}],"source":"Aljazeera"},{"feed_name":"World","feed_url":"https://www.latimes.com/world/rss2.0.xml","title":"Biden team plans ambitious push to address racial disparities in healthcare","summary":"<p>Led by California Atty. Gen. Xavier Becerra, tapped to lead the Health and Human Services Department, Biden's healthcare team is aiming for an ambitious agenda to reshape a healthcare system that still leaves millions of Black and Latino Americans with weaker insurance protections, less access to care and poorer outcomes. </p>","link":"https://www.latimes.com/politics/story/2020-12-23/biden-team-to-lead-historic-push-to-address-racial-disparities-in-healthcare","published":"Wed, 23 Dec 2020 13:17:01 -0500","geolocations":[{"name":"California","count":1,"lat":38.57944,"lng":-121.49085,"type":"point"},{"name":"U.S.","count":1,"lat":38.89037,"lng":-77.03196,"type":"country"},{"name":"Wilmington","count":1,"lat":39.74023,"lng":-75.55084,"type":"point"},{"name":"Los Angeles","count":1,"lat":34.05357,"lng":-118.24545,"type":"point"},{"name":"South","count":1,"lat":33.56253,"lng":35.36757,"type":"point"},{"name":"The United States","count":1,"lat":38.89037,"lng":-77.03196,"type":"country"}],"source":"Los Angeles Times"},{"feed_name":"World","feed_url":"https://www.theguardian.com/world/rss","title":"Pardons sink Trump further into swamp of his own shamelessness","summary":"<p><strong>Analysis: </strong>President sanctions first federal execution of a woman in 67 years – but war criminals, fraudsters and Russia-linked cronies go free</p><p>Lisa Montgomery is set to become the first woman put to death by the US federal government in 67 years. On Tuesday senators including Cory Booker, Bernie Sanders and Elizabeth Warren wrote to the justice department <a href=\"https://www.warren.senate.gov/imo/media/doc/2020.12.21%20Letter%20to%20DOJ%20IG%20on%20federal%20executions%20FINAL.pdf\">demanding an investigation</a> into an “unprecedented spree” of federal executions on Donald Trump’s watch.</p><p>A few hours later the president <a href=\"https://www.theguardian.com/us-news/2020/dec/22/who-trump-pardon-guide-george-papadopoulos-duncan-hunter\">announced a slew of 15 pardons</a>. Strikingly they included <a href=\"https://www.theguardian.com/world/2020/dec/23/trump-pardons-blackwater-contractors-jailed-for-massacre-of-iraq-civilians\">four military contractors</a> imprisoned for the killing of unarmed men, women and children in Iraq. In short, war criminals.</p> <a href=\"https://www.theguardian.com/us-news/2020/dec/23/pardons-sink-trump-further-into-swamp-of-his-own-shamelessness\">Continue reading...</a>","link":"https://www.theguardian.com/us-news/2020/dec/23/pardons-sink-trump-further-into-swamp-of-his-own-shamelessness","published":"Wed, 23 Dec 2020 04:54:16 GMT","geolocations":[{"name":"Us","count":2,"lat":38.89037,"lng":-77.03196,"type":"country"},{"name":"Iraq","count":1,"lat":33.3421,"lng":44.39307,"type":"country"},{"name":"Blackwater","count":2,"lat":-23.58569,"lng":148.88012,"type":"point"},{"name":"Baghdad","count":1,"lat":33.3421,"lng":44.39307,"type":"point"},{"name":"The District Of Columbia","count":1,"lat":44.63305,"lng":-67.85116,"type":"point"},{"name":"Russia","count":1,"lat":55.75696,"lng":37.61502,"type":"country"},{"name":"Moscow","count":1,"lat":55.75696,"lng":37.61502,"type":"point"},{"name":"Washington","count":1,"lat":38.89037,"lng":-77.03196,"type":"point"},{"name":"America","count":1,"lat":51.43739,"lng":5.98176,"type":"point"}],"source":"The Guardian"},{"feed_name":"World","feed_url":"https://www.theguardian.com/world/rss","title":"Covid vaccines and $600 payments: key provisions in the US stimulus bill","summary":"<p>The coronavirus relief bill has finally been signed into law by Donald Trump. Here’s a look at what’s in the 5,000-page package</p><p>Donald Trump signed the new Covid-19 stimulus package <a href=\"https://www.theguardian.com/us-news/2020/dec/28/donald-trump-signs-covid-19-relief-and-spending-bill\">into law on Sunday night</a>, suddenly giving into pressure from Congress after calling the legislation a “disgrace” days earlier.</p><p> <span>Related: </span><a href=\"https://www.theguardian.com/business/2020/dec/28/dow-hits-record-high-donald-trump-signs-covid-relief-bill\">Dow hits record high after Trump belatedly signs Covid relief bill</a> </p> <a href=\"https://www.theguardian.com/us-news/2020/dec/28/us-stimulus-coronavirus-relief-package-bill\">Continue reading...</a>","link":"https://www.theguardian.com/us-news/2020/dec/28/us-stimulus-coronavirus-relief-package-bill","published":"Mon, 28 Dec 2020 19:12:48 GMT","geolocations":[{"name":"Us","count":2,"lat":38.89037,"lng":-77.03196,"type":"country"}],"source":"The Guardian"},{"feed_name":"World","feed_url":"https://rss.nytimes.com/services/xml/rss/nyt/World.xml","title":"Vaccine, Brexit, Trump: Your Monday Briefing","summary":"Here’s what you need to know.","link":"https://www.nytimes.com/2020/12/27/briefing/brexit-coronavirus-david-attenborough.html","published":"Mon, 28 Dec 2020 06:12:36 +0000","geolocations":[{"name":"United Kingdom","count":1,"lat":38.95953,"lng":-91.92768,"type":"point"},{"name":"France","count":1,"lat":48.85717,"lng":2.3414,"type":"country"},{"name":"Poland","count":1,"lat":52.2356,"lng":21.01037,"type":"country"}],"source":"The New York Times"},{"feed_name":"World","feed_url":"https://www.aljazeera.com/xml/rss/all.xml","title":"Russia charges critic Navalny with ‘fraud’ in new criminal case","summary":"Russia&#039;s most prominent opposition figure accused of spending $4.8m of donations to his organisations on personal needs.","link":"https://www.aljazeera.com/news/2020/12/29/russia-opens-new-criminal-case-against-navalny-over-fraud","published":"Tue, 29 Dec 2020 20:41:10 +0000","geolocations":[{"name":"Russia","count":5,"lat":55.75696,"lng":37.61502,"type":"country"},{"name":"Germany","count":2,"lat":52.51604,"lng":13.37691,"type":"country"},{"name":"Berlin","count":2,"lat":52.51604,"lng":13.37691,"type":"point"},{"name":"Siberia","count":1,"lat":-30.42356,"lng":28.74034,"type":"point"},{"name":"Moscow","count":2,"lat":55.75696,"lng":37.61502,"type":"point"},{"name":"Omsk","count":1,"lat":54.99471,"lng":73.36476,"type":"point"},{"name":"Novichok","count":1,"lat":48.98116,"lng":24.0199,"type":"point"},{"name":"United States","count":1,"lat":38.89037,"lng":-77.03196,"type":"country"},{"name":"Europe","count":1,"lat":-33.98201,"lng":18.58413,"type":"point"}],"source":"Aljazeera"},{"feed_name":"World","feed_url":"https://www.aljazeera.com/xml/rss/all.xml","title":"US Senate to consider override of Trump defence bill veto","summary":"If as expected the Senate follows the US House in vote, it would be first veto override of Trump&#039;s presidency.","link":"https://www.aljazeera.com/news/2020/12/29/us-senate-to-consider-override-of-trump-defence-bill-veto","published":"Tue, 29 Dec 2020 16:01:59 +0000","geolocations":[{"name":"Us","count":1,"lat":38.89037,"lng":-77.03196,"type":"country"},{"name":"America","count":1,"lat":51.43739,"lng":5.98176,"type":"point"},{"name":"China","count":1,"lat":39.90657,"lng":116.38765,"type":"country"},{"name":"Russia","count":1,"lat":55.75696,"lng":37.61502,"type":"country"},{"name":"Florida","count":1,"lat":30.43977,"lng":-84.28065,"type":"point"}],"source":"Aljazeera"},{"feed_name":"World","feed_url":"https://rss.nytimes.com/services/xml/rss/nyt/World.xml","title":"The retail industry’s tumultuous year began before the pandemic.","summary":"","link":"https://www.nytimes.com/2020/12/29/world/the-retail-industrys-tumultuous-year-began-before-the-pandemic.html","published":"Tue, 29 Dec 2020 15:47:40 +0000","geolocations":[{"name":"Walmart","count":1,"lat":23.75157,"lng":-99.15586,"type":"point"}],"source":"The New York Times"},{"feed_name":"World","feed_url":"https://www.theguardian.com/world/rss","title":"Crammed with my wife and adult kids into a tiny one-bed flat, I realised I loved my home","summary":"<p>In March, our house was a cold, rubble-strewn building site. As supply chains broke down, it became clear we wouldn’t be moving back any time soon</p><p><br />My wife is a goal-oriented person. When she learns, it is deliberate. For her, lockdown presented an opportunity, so she began learning Danish. I didn’t. I am deeply lazy: as I sit here writing, I am staring at an empty packet of Wotsits that has been sitting by my laptop for three hours; the bin is 6ft away. The notion of actively learning something seemed a bit needless. Why waste all that time when I could be doing nothing?</p><p>I did learn something, though. I learned that I love my home, which came as a surprise. I guess there is nothing quite like being trapped outside your house, as we were, to make you appreciate it rather more.</p> <a href=\"https://www.theguardian.com/lifeandstyle/2020/dec/29/crammed-tiny-one-bed-flat-realised-i-loved-my-home\">Continue reading...</a>","link":"https://www.theguardian.com/lifeandstyle/2020/dec/29/crammed-tiny-one-bed-flat-realised-i-loved-my-home","published":"Tue, 29 Dec 2020 13:00:43 GMT","geolocations":[{"name":"Italy","count":2,"lat":41.90322,"lng":12.49565,"type":"country"},{"name":"United Kingdom","count":1,"lat":38.95953,"lng":-91.92768,"type":"point"},{"name":"London","count":2,"lat":51.50643,"lng":-0.12719,"type":"point"},{"name":"Vinyl","count":1,"lat":43.76768,"lng":-79.57118,"type":"point"}],"source":"The Guardian"},{"feed_name":"World","feed_url":"https://www.latimes.com/world/rss2.0.xml","title":"Op-Ed: Trump was right to bring troops home from Afghanistan. Biden should finish the job","summary":"<p>What Trump did right in Afghanistan, Biden can do better — bring home the troops. </p>","link":"https://www.latimes.com/opinion/story/2020-12-29/afghanistan-u-s-troops-withdrawal-donald-trump-joe-biden-taliban","published":"Tue, 29 Dec 2020 06:00:06 -0500","geolocations":[{"name":"Afghanistan","count":12,"lat":34.53313,"lng":69.10223,"type":"country"},{"name":"U.S.","count":9,"lat":38.89037,"lng":-77.03196,"type":"country"},{"name":"Washington","count":3,"lat":38.89037,"lng":-77.03196,"type":"point"},{"name":"Iran","count":1,"lat":35.68877,"lng":51.41503,"type":"country"},{"name":"America","count":2,"lat":51.43739,"lng":5.98176,"type":"point"},{"name":"The United States’","count":1,"lat":38.89037,"lng":-77.03196,"type":"country"}],"source":"Los Angeles Times"},{"feed_name":"World","feed_url":"https://rss.nytimes.com/services/xml/rss/nyt/World.xml","title":"Pompeii's Savory New Finds: Snail, Fish and Sheep Soup, Anyone?","summary":"The ancient site is the archaeological gift that keeps on giving. A food shop excavated this month suggests that its ancient residents had singular culinary tastes.","link":"https://www.nytimes.com/2020/12/26/world/europe/pompeii-snack-bar-thermopolium.html","published":"Mon, 28 Dec 2020 08:26:03 +0000","geolocations":[{"name":"Rome","count":1,"lat":41.90322,"lng":12.49565,"type":"point"},{"name":"Pompeii","count":4,"lat":-23.82859,"lng":31.06975,"type":"point"},{"name":"Roman City","count":2,"lat":40.71392,"lng":-73.84605,"type":"point"},{"name":"A.D. 79","count":1,"lat":25.21849,"lng":55.31453,"type":"point"},{"name":"Mount Vesuvius","count":1,"lat":42.6473,"lng":-82.95566,"type":"point"},{"name":"Lapilli","count":1,"lat":-36.88862,"lng":174.83425,"type":"point"}],"source":"The New York Times"},{"feed_name":"World","feed_url":"https://rss.nytimes.com/services/xml/rss/nyt/World.xml","title":"Chinese Citizen Journalist Sentenced to 4 Years for Covid Reporting","summary":"Zhang Zhan, a former lawyer, is the first known person to be tried for challenging the Chinese government’s narrative about the coronavirus pandemic.","link":"https://www.nytimes.com/2020/12/28/world/asia/china-Zhang-Zhan-covid-convicted.html","published":"Mon, 28 Dec 2020 08:49:43 +0000","geolocations":[{"name":"China","count":3,"lat":39.90657,"lng":116.38765,"type":"country"},{"name":"Wuhan","count":2,"lat":30.64353,"lng":114.32472,"type":"point"},{"name":"Shanghai","count":1,"lat":39.45274,"lng":-78.15318,"type":"point"}],"source":"The New York Times"},{"feed_name":"World","feed_url":"https://rss.nytimes.com/services/xml/rss/nyt/World.xml","title":"1 of every 17 people in the U.S. has been infected, and 1 in 1,000 has died. Yet the worst may lie ahead.","summary":"","link":"https://www.nytimes.com/2020/12/27/us/1-of-every-17-people-in-the-us-has-been-infected-and-1-in-1000-has-died-yet-the-worst-may-lie-ahead.html","published":"Sun, 27 Dec 2020 16:47:55 +0000","geolocations":[{"name":"U.S.","count":1,"lat":38.89037,"lng":-77.03196,"type":"country"},{"name":"Alabama","count":1,"lat":32.38015,"lng":-86.30008,"type":"point"},{"name":"Wisconsin","count":1,"lat":43.07313,"lng":-89.38644,"type":"point"},{"name":"Arizona","count":1,"lat":33.44825,"lng":-112.0758,"type":"point"},{"name":"West Virginia","count":1,"lat":38.35016,"lng":-81.63895,"type":"point"}],"source":"The New York Times"},{"feed_name":"World","feed_url":"https://www.theguardian.com/world/rss","title":"US reports its first known case of new UK Covid variant","summary":"<p>As Covid-19 surges across the US, Colorado’s governor announced the case of B.1.1.7, a significantly more contagious strain</p><p>A man in Colorado has become the first known US case of the newly identified strain of Covid-19 circulating in the UK. The <a href=\"https://www.theguardian.com/world/2020/dec/19/what-is-the-new-covid-strain-and-will-vaccines-work-against-it\">new variant</a> is thought to be more contagious than other, established strains and has prompted some countries to restrict travel from the UK. </p><p>The Colorado man who contracted the new strain, called B.1.1.7, is in his 20s, and had no travel history, according to the state’s health department. In a statement, Governor Jared Polis said that health officials are conducting an investigation into how the man might have contracted the virus, while he recovers in isolation.</p> <a href=\"https://www.theguardian.com/world/2020/dec/29/us-first-case-new-uk-covid-variant\">Continue reading...</a>","link":"https://www.theguardian.com/world/2020/dec/29/us-first-case-new-uk-covid-variant","published":"Tue, 29 Dec 2020 22:13:30 GMT","geolocations":[{"name":"Colorado","count":5,"lat":39.74001,"lng":-104.99202,"type":"point"},{"name":"Us","count":8,"lat":38.89037,"lng":-77.03196,"type":"country"},{"name":"The United Kingdom","count":2,"lat":38.95953,"lng":-91.92768,"type":"point"},{"name":"The United States","count":2,"lat":38.89037,"lng":-77.03196,"type":"country"},{"name":"South Korea","count":1,"lat":37.55886,"lng":126.99989,"type":"country"},{"name":"Spain","count":1,"lat":40.41955,"lng":-3.69196,"type":"country"},{"name":"Australia","count":1,"lat":-35.30654,"lng":149.12655,"type":"country"},{"name":"Canada","count":1,"lat":45.42178,"lng":-75.69116,"type":"country"},{"name":"Polis","count":1,"lat":35.03688,"lng":32.40714,"type":"point"},{"name":"New Jersey","count":1,"lat":40.21788,"lng":-74.7594,"type":"point"},{"name":"China","count":1,"lat":39.90657,"lng":116.38765,"type":"country"},{"name":"California","count":1,"lat":38.57944,"lng":-121.49085,"type":"point"},{"name":"Los Angeles","count":1,"lat":34.05357,"lng":-118.24545,"type":"point"}],"source":"The Guardian"},{"feed_name":"World","feed_url":"https://www.latimes.com/world/rss2.0.xml","title":"Georgia's political change came fast but has deep roots","summary":"<p>Joe Biden's victory in Georgia surprised many, but the shift has been years in the making. Georgia has had the largest growth of Black voters of any state.</p>","link":"https://www.latimes.com/politics/story/2020-12-28/georgia-political-change-has-deep-roots","published":"Mon, 28 Dec 2020 06:00:07 -0500","geolocations":[{"name":"Detroit","count":1,"lat":42.33168,"lng":-83.048,"type":"point"},{"name":"The Bay Area","count":1,"lat":37.78986,"lng":-122.39634,"type":"point"},{"name":"Berkeley","count":1,"lat":37.86988,"lng":-122.27054,"type":"point"},{"name":"California","count":1,"lat":38.57944,"lng":-121.49085,"type":"point"},{"name":"South","count":3,"lat":33.56253,"lng":35.36757,"type":"point"},{"name":"Henry County","count":8,"lat":51.8993,"lng":-8.48179,"type":"point"},{"name":"Atlanta","count":9,"lat":33.74831,"lng":-84.39111,"type":"point"},{"name":"Washington","count":2,"lat":38.89037,"lng":-77.03196,"type":"point"},{"name":"Stockbridge","count":3,"lat":33.54382,"lng":-84.22876,"type":"point"},{"name":"Henry County’S","count":1,"lat":41.42811,"lng":-84.11593,"type":"point"},{"name":"Rockdale County","count":1,"lat":30.53888,"lng":-97.0116,"type":"point"},{"name":"North Carolina","count":2,"lat":35.78547,"lng":-78.6427,"type":"point"},{"name":"Southeast","count":1,"lat":-24.67588,"lng":25.97018,"type":"point"},{"name":"Michigan","count":1,"lat":42.73194,"lng":-84.55225,"type":"point"},{"name":"New York","count":1,"lat":40.71455,"lng":-74.00714,"type":"point"},{"name":"Northeast","count":1,"lat":-21.01075,"lng":27.57351,"type":"point"},{"name":"The West Coast","count":1,"lat":-41.40428,"lng":145.0225,"type":"point"},{"name":"Savannah","count":1,"lat":32.08091,"lng":-81.09119,"type":"point"},{"name":"Mcdonough","count":1,"lat":33.44775,"lng":-84.14796,"type":"point"},{"name":"Bethesda","count":1,"lat":38.98637,"lng":-77.09692,"type":"point"},{"name":"Md.","count":1,"lat":47.02459,"lng":28.83242,"type":"country"},{"name":"Los Angeles","count":1,"lat":34.05357,"lng":-118.24545,"type":"point"},{"name":"D.C.","count":3,"lat":4.61496,"lng":-74.06941,"type":"point"},{"name":"Maryland","count":1,"lat":38.97678,"lng":-76.49014,"type":"point"}],"source":"Los Angeles Times"},{"feed_name":"World","feed_url":"https://www.aljazeera.com/xml/rss/all.xml","title":"After Australia’s fires: A devastated community rebuilds together","summary":"The tiny settlement of Wonboyn was ravaged by fires, but its people and landscape are beginning to recover.","link":"https://www.aljazeera.com/features/2020/12/29/after-australias-fires-a-devastated-community-rebuilds-together","published":"Tue, 29 Dec 2020 23:28:38 +0000","geolocations":[{"name":"Wonboyn","count":14,"lat":-37.25146,"lng":149.91878,"type":"point"},{"name":"Australia","count":3,"lat":-35.30654,"lng":149.12655,"type":"country"},{"name":"The East Coast","count":1,"lat":12.97218,"lng":80.25807,"type":"point"}],"source":"Aljazeera"},{"feed_name":"World","feed_url":"https://rss.nytimes.com/services/xml/rss/nyt/World.xml","title":"Revisiting the Unseen Corners of the World","summary":"During a year with limited travel possibilities, our World Through a Lens series offered Times readers a weekly escape. Here are some of the highlights.","link":"https://www.nytimes.com/2020/12/28/travel/world-through-a-lens.html","published":"Mon, 28 Dec 2020 10:00:37 +0000","geolocations":[{"name":"Ecuador","count":1,"lat":-0.20565,"lng":-78.50888,"type":"country"},{"name":"Alaska","count":1,"lat":58.29973,"lng":-134.40679,"type":"point"}],"source":"The New York Times"},{"feed_name":"World","feed_url":"https://www.latimes.com/world/rss2.0.xml","title":"Families are turning obituaries into final pleas to avoid COVID-19","summary":"<p>Obituaries, once reserved for warm remembrances of the deceased, are including passionate and sometimes angry warnings about the dangers of the coronavirus and failures of government officials.</p>","link":"https://www.latimes.com/world-nation/story/2020-12-26/obituaries-include-warnings-of-covid-19","published":"Sat, 26 Dec 2020 08:00:52 -0500","geolocations":[{"name":"Evansville","count":1,"lat":37.97708,"lng":-87.56405,"type":"point"},{"name":"Ind.","count":1,"lat":28.63095,"lng":77.21721,"type":"country"},{"name":"San Francisco","count":1,"lat":37.77712,"lng":-122.41964,"type":"point"},{"name":"Phoenix","count":1,"lat":33.44825,"lng":-112.0758,"type":"point"},{"name":"Virginia","count":1,"lat":37.54068,"lng":-77.43367,"type":"point"},{"name":"Santa Cruz","count":1,"lat":28.46078,"lng":-16.2639,"type":"point"},{"name":"Scott City","count":1,"lat":37.21849,"lng":-89.51977,"type":"point"},{"name":"Kan.","count":1,"lat":18.35769,"lng":103.64398,"type":"point"},{"name":"America","count":1,"lat":51.43739,"lng":5.98176,"type":"point"}],"source":"Los Angeles Times"},{"feed_name":"World","feed_url":"https://rss.nytimes.com/services/xml/rss/nyt/World.xml","title":"Spain will register those who choose not to get vaccinated, and will share the information with the E.U.","summary":"","link":"https://www.nytimes.com/2020/12/28/world/spain-will-register-those-who-choose-not-to-get-vaccinated-and-will-share-the-information-with-the-eu.html","published":"Mon, 28 Dec 2020 23:50:22 +0000","geolocations":[{"name":"Spain","count":4,"lat":40.41955,"lng":-3.69196,"type":"country"},{"name":"Madrid","count":1,"lat":40.41955,"lng":-3.69196,"type":"point"}],"source":"The New York Times"},{"feed_name":"World","feed_url":"https://www.theguardian.com/world/rss","title":"Death row inmate who survived execution attempt dies in prison","summary":"<ul><li>Romell Broom, 64, dies of probable Covid in Ohio</li><li>Lethal injection called off in 2009 when no vein could be found</li></ul><p>An Ohio death row inmate who <a href=\"https://www.theguardian.com/world/2009/sep/17/us-failed-execution-prisoner-traumatised\">survived an attempt to execute him by lethal injection in 2009</a> has died of possible complications of Covid-19, the state prisons system said.</p><p> <span>Related: </span><a href=\"https://www.theguardian.com/us-news/2020/dec/26/us-judge-again-delays-execution-of-woman-on-federal-death-row\">US judge again delays execution of woman on federal death row</a> </p> <a href=\"https://www.theguardian.com/world/2020/dec/29/death-row-inmate-who-survived-execution-attempt-dies-romell-broom\">Continue reading...</a>","link":"https://www.theguardian.com/world/2020/dec/29/death-row-inmate-who-survived-execution-attempt-dies-romell-broom","published":"Tue, 29 Dec 2020 18:58:58 GMT","geolocations":[{"name":"Ohio","count":3,"lat":39.96199,"lng":-83.00275,"type":"point"},{"name":"Cleveland","count":1,"lat":41.50473,"lng":-81.69074,"type":"point"}],"source":"The Guardian"},{"feed_name":"World","feed_url":"https://www.latimes.com/world/rss2.0.xml","title":"A Thai dissident was kidnapped. When police had no answers, his sister began to investigate","summary":"<p>The family of Wanchalearm Satsaksit, the latest Thai democracy activist to disappear from exile, is waging a lonely search for justice.</p>","link":"https://www.latimes.com/world-nation/story/2020-12-29/thailand-dissident-missing-wanchalearm-satsaksit","published":"Tue, 29 Dec 2020 05:00:10 -0500","geolocations":[{"name":"Thailand","count":11,"lat":13.75336,"lng":100.50483,"type":"country"},{"name":"Cambodia","count":13,"lat":12.708,"lng":104.91434,"type":"country"},{"name":"Phnom Penh","count":6,"lat":11.56299,"lng":104.86522,"type":"point"},{"name":"Southeast Asia","count":2,"lat":-24.67588,"lng":25.97018,"type":"point"},{"name":"Mekong Gardens","count":1,"lat":22.27758,"lng":114.15821,"type":"point"},{"name":"Bangkok","count":4,"lat":13.75336,"lng":100.50483,"type":"point"},{"name":"Laos","count":1,"lat":17.9518,"lng":102.61892,"type":"country"},{"name":"Vietnam","count":1,"lat":21.02888,"lng":105.85464,"type":"country"},{"name":"The Mekong River","count":1,"lat":14.32335,"lng":120.88924,"type":"point"},{"name":"Sitanan","count":2,"lat":14.95947,"lng":102.08168,"type":"point"},{"name":"West","count":1,"lat":-14.3239,"lng":-170.76852,"type":"point"},{"name":"Africa","count":1,"lat":43.10832,"lng":12.77534,"type":"point"}],"source":"Los Angeles Times"},{"feed_name":"World","feed_url":"https://rss.nytimes.com/services/xml/rss/nyt/World.xml","title":"More Contagious Coronavirus Variant Found in Colorado","summary":"It’s the first confirmed U.S. case of the variant, which has overwhelmed hospitals in Britain.","link":"https://www.nytimes.com/2020/12/29/health/uk-coronavirus-variant-colorado.html","published":"Tue, 29 Dec 2020 23:50:41 +0000","geolocations":[{"name":"United Kingdom","count":1,"lat":38.95953,"lng":-91.92768,"type":"point"},{"name":"Colorado","count":1,"lat":39.74001,"lng":-104.99202,"type":"point"},{"name":"The United States","count":1,"lat":38.89037,"lng":-77.03196,"type":"country"},{"name":"Elbert County","count":1,"lat":39.19475,"lng":-104.44004,"type":"point"},{"name":"Denver","count":1,"lat":39.74001,"lng":-104.99202,"type":"point"},{"name":"The United Kingdom","count":1,"lat":38.95953,"lng":-91.92768,"type":"point"}],"source":"The New York Times"},{"feed_name":"World","feed_url":"https://www.theguardian.com/world/rss","title":"McConnell blocks initial Democratic effort for $2,000 Covid stimulus checks","summary":"<p>Growing number of Republicans back Trump’s demand to increase relief payments as party plunges into chaos and conflict</p><p>A growing number of Republicans on Tuesday backed Donald Trump’s demand to increase coronavirus relief payments to US citizens from $600 to $2,000, though the Senate majority leader, Mitch McConnell, blocked Democrats’ effort to quickly pass the measure.</p><p> <span>Related: </span><a href=\"https://www.theguardian.com/us-news/2020/dec/29/coronavirus-sharpens-economic-inequalities-america\">Coronavirus sharpens America's already stark economic inequalities</a> </p> <a href=\"https://www.theguardian.com/world/2020/dec/29/mitch-mcconnell-blocks-trump-push-covid-stimulus-checks-2000\">Continue reading...</a>","link":"https://www.theguardian.com/world/2020/dec/29/mitch-mcconnell-blocks-trump-push-covid-stimulus-checks-2000","published":"Tue, 29 Dec 2020 21:53:51 GMT","geolocations":[{"name":"Us","count":2,"lat":38.89037,"lng":-77.03196,"type":"country"},{"name":"Washington","count":1,"lat":38.89037,"lng":-77.03196,"type":"point"},{"name":"Florida","count":2,"lat":30.43977,"lng":-84.28065,"type":"point"},{"name":"Vermont","count":1,"lat":44.26029,"lng":-72.57626,"type":"point"}],"source":"The Guardian"},{"feed_name":"World","feed_url":"https://www.theguardian.com/world/rss","title":"Panic, paucity and pessimism: life on Plague Island UK | Zoe Williams","summary":"<p>With a mutant Covid variant out of control and lorries piling up in Kent, Britain feels like a country adrift and rudderless</p><p>The rest of the world is calling the UK Plague Island because it’s true: a mutant strain of the coronavirus is out of control, laying waste to fantasies that any region is out of the woods, or that the November lockdown had its desired effect, or that we might manage a “merry little Christmas”, in the words of the prime minister.</p><p>The plague phrase carries a lot of resonance, beyond being a reference to the high prevalence of infectious disease: it casts us as a far-flung place, isolated, chaotic, uncivilised, a place that wise and/or decent people stay well away from. But is that how it feels from the inside?</p> <a href=\"https://www.theguardian.com/world/2020/dec/23/people-seem-more-afraid-life-on-plague-island-uk\">Continue reading...</a>","link":"https://www.theguardian.com/world/2020/dec/23/people-seem-more-afraid-life-on-plague-island-uk","published":"Wed, 23 Dec 2020 17:30:36 GMT","geolocations":[{"name":"Kent","count":2,"lat":47.3807,"lng":-122.23741,"type":"point"},{"name":"Europe","count":1,"lat":-33.98201,"lng":18.58413,"type":"point"},{"name":"Saigon","count":1,"lat":14.26977,"lng":21.14308,"type":"point"}],"source":"The Guardian"},{"feed_name":"World","feed_url":"https://www.aljazeera.com/xml/rss/all.xml","title":"EU governments approve Brexit trade deal: Germany","summary":"EU chiefs Ursula von der Leyen and Charles Michel to sign the trade deal agreed with Britain on Wednesday.","link":"https://www.aljazeera.com/news/2020/12/29/eu-chiefs-to-sign-brexit-trade-deal-on-wednesday","published":"Tue, 29 Dec 2020 18:39:45 +0000","geolocations":[{"name":"United Kingdom","count":4,"lat":38.95953,"lng":-91.92768,"type":"point"},{"name":"London","count":2,"lat":51.50643,"lng":-0.12719,"type":"point"},{"name":"Britons","count":1,"lat":52.92891,"lng":1.22465,"type":"point"}],"source":"Aljazeera"},{"feed_name":"World","feed_url":"https://rss.nytimes.com/services/xml/rss/nyt/World.xml","title":"Battered Turkish Economy Puts a Powerful Erdogan to the Test","summary":"Turkey’s veteran leader played an aggressive hand abroad, but as the country’s economy plummets, he is feeling ire at home as many Turks struggle to buy food.","link":"https://www.nytimes.com/2020/12/27/world/europe/turkey-erdogan-economy.html","published":"Sun, 27 Dec 2020 17:40:31 +0000","geolocations":[{"name":"Istanbul","count":2,"lat":41.06201,"lng":28.98877,"type":"point"},{"name":"Turkey","count":1,"lat":39.92109,"lng":32.85391,"type":"country"}],"source":"The New York Times"},{"feed_name":"World","feed_url":"https://rss.nytimes.com/services/xml/rss/nyt/World.xml","title":"Employers are struggling to manage unused vacation days.","summary":"","link":"https://www.nytimes.com/2020/12/29/world/employers-are-struggling-to-manage-unused-vacation-days.html","published":"Tue, 29 Dec 2020 10:11:12 +0000","geolocations":[{"name":"New York","count":1,"lat":40.71455,"lng":-74.00714,"type":"point"},{"name":"America","count":1,"lat":51.43739,"lng":5.98176,"type":"point"}],"source":"The New York Times"},{"feed_name":"World - Europe","feed_url":"http://feeds.bbci.co.uk/news/world/rss.xml","title":"Will concerts come back in 2021? And other music stories to look out for","summary":"How will live shows look when they resume in 2021, and other music stories to look out for.","link":"https://www.bbc.co.uk/news/entertainment-arts-55262502","published":"Tue, 29 Dec 2020 00:09:34 GMT","geolocations":[{"name":"Glastonbury","count":1,"lat":51.1477,"lng":-2.71651,"type":"point"},{"name":"India","count":1,"lat":28.63095,"lng":77.21721,"type":"country"},{"name":"China","count":1,"lat":39.90657,"lng":116.38765,"type":"country"},{"name":"Us","count":1,"lat":38.89037,"lng":-77.03196,"type":"country"},{"name":"London","count":2,"lat":51.50643,"lng":-0.12719,"type":"point"},{"name":"New York","count":2,"lat":40.71455,"lng":-74.00714,"type":"point"},{"name":"Newcastle","count":1,"lat":54.97789,"lng":-1.61162,"type":"point"},{"name":"Arctic Monkeys","count":1,"lat":42.18723,"lng":-75.41355,"type":"point"},{"name":"The Heights","count":1,"lat":40.74882,"lng":-74.0505,"type":"point"},{"name":"The United States","count":1,"lat":38.89037,"lng":-77.03196,"type":"country"},{"name":"Sampha","count":1,"lat":7.96713,"lng":-11.73655,"type":"point"},{"name":"Berwyn","count":1,"lat":41.84329,"lng":-87.7908,"type":"point"},{"name":"Brighton","count":1,"lat":50.82868,"lng":-0.13437,"type":"point"}],"source":"BBC"},{"feed_name":"World - Europe","feed_url":"http://feeds.bbci.co.uk/news/world/rss.xml","title":"Nashville explosion: Bodycam footage shows moments before and after bomb","summary":"Video released by police shows the van playing a recorded warning moments before it exploded.","link":"https://www.bbc.co.uk/news/world-us-canada-55477743","published":"Tue, 29 Dec 2020 15:06:52 GMT","geolocations":[{"name":"Nashville","count":2,"lat":36.16784,"lng":-86.77816,"type":"point"}],"source":"BBC"},{"feed_name":"World","feed_url":"https://rss.nytimes.com/services/xml/rss/nyt/World.xml","title":"New Data Triples Russia’s Covid-19 Death Toll","summary":"The statistics agency said 230,000 more people died through November of this year than did in 2019, a hike attributable to the virus. Russia could jump to third among countries by number of Covid deaths.","link":"https://www.nytimes.com/2020/12/29/world/europe/russia-coronavirus-death-toll.html","published":"Tue, 29 Dec 2020 19:22:30 +0000","geolocations":[{"name":"Moscow","count":2,"lat":55.75696,"lng":37.61502,"type":"point"},{"name":"Russia","count":3,"lat":55.75696,"lng":37.61502,"type":"country"},{"name":"Belarus","count":1,"lat":53.90374,"lng":27.56546,"type":"country"}],"source":"The New York Times"},{"feed_name":"World","feed_url":"https://rss.nytimes.com/services/xml/rss/nyt/World.xml","title":"Your Tuesday Briefing","summary":"China clamps down on travel amid new cases.","link":"https://www.nytimes.com/2020/12/28/briefing/china-travel-virus-ethiopia-eritrea.html","published":"Mon, 28 Dec 2020 19:59:53 +0000","geolocations":[{"name":"China","count":2,"lat":39.90657,"lng":116.38765,"type":"country"},{"name":"Beijing","count":3,"lat":39.90657,"lng":116.38765,"type":"point"},{"name":"Dalian","count":2,"lat":31.00411,"lng":76.90846,"type":"point"},{"name":"Anhui Province","count":1,"lat":43.07715,"lng":-7.66689,"type":"point"}],"source":"The New York Times"},{"feed_name":"World - Europe","feed_url":"http://feeds.bbci.co.uk/news/world/rss.xml","title":"Covid-19: Biden says Trump vaccine roll-out is 'falling behind'","summary":"The US president-elect calls for vaccinations to be ramped up as he warns of a \"tough period\" ahead.","link":"https://www.bbc.co.uk/news/world-us-canada-55479590","published":"Tue, 29 Dec 2020 23:45:39 GMT","geolocations":[{"name":"Us","count":1,"lat":38.89037,"lng":-77.03196,"type":"country"}],"source":"BBC"},{"feed_name":"World - Europe","feed_url":"http://feeds.bbci.co.uk/news/world/rss.xml","title":"Croatia earthquake: Rescuers search rubble for survivors","summary":"A powerful earthquake kills at least six people and tears down buildings in central Croatia.","link":"https://www.bbc.co.uk/news/world-europe-55478529","published":"Tue, 29 Dec 2020 17:13:22 GMT","geolocations":[{"name":"Central Croatia","count":1,"lat":18.34342,"lng":-64.75528,"type":"point"},{"name":"Zagreb","count":1,"lat":45.80724,"lng":15.96757,"type":"point"},{"name":"Bosnia And Serbia","count":1,"lat":-36.78983,"lng":-73.11356,"type":"point"},{"name":"Italy","count":1,"lat":41.90322,"lng":12.49565,"type":"country"},{"name":"Croatia","count":1,"lat":45.80724,"lng":15.96757,"type":"country"}],"source":"BBC"},{"feed_name":"World","feed_url":"https://rss.nytimes.com/services/xml/rss/nyt/World.xml","title":"The truck jam at a U.K. port is easing, days after France reopened its border.","summary":"","link":"https://www.nytimes.com/2020/12/26/world/the-truck-jam-at-a-uk-port-is-easing-days-after-france-reopened-its-border.html","published":"Sat, 26 Dec 2020 17:30:06 +0000","geolocations":[{"name":"England","count":1,"lat":51.50643,"lng":-0.12719,"type":"country"},{"name":"France","count":2,"lat":48.85717,"lng":2.3414,"type":"country"},{"name":"U.K.","count":1,"lat":29.93186,"lng":77.81922,"type":"point"}],"source":"The New York Times"},{"feed_name":"World","feed_url":"https://rss.nytimes.com/services/xml/rss/nyt/World.xml","title":"Neverland Ranch Is Sold for $22 Million","summary":"Ronald W. Burkle, the billionaire co-founder of the investment firm Yucaipa Companies, bought the ranch for a reported $22 million.","link":"https://www.nytimes.com/2020/12/26/us/neverland-ranch-sold.html","published":"Sat, 26 Dec 2020 19:29:39 +0000","geolocations":[{"name":"Hollywood","count":1,"lat":26.01067,"lng":-80.16026,"type":"point"}],"source":"The New York Times"},{"feed_name":"World","feed_url":"https://rss.nytimes.com/services/xml/rss/nyt/World.xml","title":"Truck Jam Eases at U.K. Port Days After France Reopens Border","summary":"Even with new restrictions around the world to try to stop the transmission of a virus variant sweeping rapidly across Britain, the mutation has already spread to France, Spain and Japan.","link":"https://www.nytimes.com/2020/12/26/world/europe/truck-jam-uk-france-covid.html","published":"Sat, 26 Dec 2020 15:35:49 +0000","geolocations":[{"name":"London","count":1,"lat":51.50643,"lng":-0.12719,"type":"point"},{"name":"England","count":1,"lat":51.50643,"lng":-0.12719,"type":"country"},{"name":"France","count":2,"lat":48.85717,"lng":2.3414,"type":"country"},{"name":"Europe","count":1,"lat":-33.98201,"lng":18.58413,"type":"point"},{"name":"Japan","count":1,"lat":35.68408,"lng":139.80885,"type":"country"},{"name":"U.K.","count":1,"lat":29.93186,"lng":77.81922,"type":"point"}],"source":"The New York Times"},{"feed_name":"World - Europe","feed_url":"http://feeds.bbci.co.uk/news/world/rss.xml","title":"2020 and me: 'We need to learn life lessons from this'","summary":"Mahnaz Rehman lost her husband during lockdown in Karachi, Pakistan.","link":"https://www.bbc.co.uk/news/world-asia-55377423","published":"Wed, 30 Dec 2020 00:04:45 GMT","geolocations":[{"name":"Karachi","count":1,"lat":57.71375,"lng":50.09435,"type":"point"},{"name":"Pakistan","count":1,"lat":33.70964,"lng":73.07545,"type":"point"}],"source":"BBC"},{"feed_name":"World","feed_url":"https://www.latimes.com/world/rss2.0.xml","title":"As Israel faces 4th election in 2 years, Netanyahu is in the hot seat again","summary":"<p>Israel is back in election mode for the fourth time in two years, with Prime Minister Benjamin Netanyahu facing major challenges to staying in power.</p>","link":"https://www.latimes.com/world-nation/story/2020-12-28/netanyahu-hot-seat-israel-fourth-election-two-years","published":"Mon, 28 Dec 2020 04:00:15 -0500","geolocations":[{"name":"Israel","count":9,"lat":31.78003,"lng":35.21873,"type":"country"},{"name":"New Hope","count":1,"lat":40.36583,"lng":-74.95196,"type":"point"},{"name":"Washington","count":1,"lat":38.89037,"lng":-77.03196,"type":"point"},{"name":"Golan Heights","count":1,"lat":33.98848,"lng":-117.90553,"type":"point"},{"name":"U.S.","count":1,"lat":38.89037,"lng":-77.03196,"type":"country"},{"name":"Iran","count":1,"lat":35.68877,"lng":51.41503,"type":"country"},{"name":"Tel Aviv","count":1,"lat":32.08556,"lng":34.78953,"type":"point"},{"name":"Jerusalem","count":1,"lat":31.7801,"lng":35.20882,"type":"point"},{"name":"The United Arab Emirates","count":1,"lat":24.46918,"lng":54.37173,"type":"country"},{"name":"Bahrain","count":1,"lat":26.22952,"lng":50.57604,"type":"country"},{"name":"Sudan","count":1,"lat":15.58651,"lng":32.52318,"type":"point"},{"name":"Morocco","count":1,"lat":34.01791,"lng":-6.83612,"type":"country"}],"source":"Los Angeles Times"},{"feed_name":"World - Europe","feed_url":"http://feeds.bbci.co.uk/news/world/rss.xml","title":"Russia police arrest Covid-denying priest Father Sergiy","summary":"Father Sergiy seized control of a women's monastery in the Urals in June and refused to leave.","link":"https://www.bbc.co.uk/news/world-europe-55477888","published":"Tue, 29 Dec 2020 16:29:31 GMT","geolocations":[{"name":"Russia","count":1,"lat":55.75696,"lng":37.61502,"type":"country"},{"name":"Sredneuralsk","count":1,"lat":56.98429,"lng":60.47462,"type":"point"}],"source":"BBC"},{"feed_name":"World","feed_url":"https://rss.nytimes.com/services/xml/rss/nyt/World.xml","title":"Hit Hard by the Pandemic, Mexico’s Drug Cartels Tweaked Their Playbook","summary":"The brutal cartels, like legitimate companies, struggled as governments imposed border closures and lockdowns, and had to get creative.","link":"https://www.nytimes.com/2020/12/29/world/americas/mexico-pandemic-drug-trade.html","published":"Tue, 29 Dec 2020 22:57:40 +0000","geolocations":[{"name":"The United States","count":3,"lat":38.89037,"lng":-77.03196,"type":"country"},{"name":"Arizona","count":1,"lat":33.44825,"lng":-112.0758,"type":"point"},{"name":"Nogales","count":1,"lat":18.82165,"lng":-97.16297,"type":"point"},{"name":"Washington","count":1,"lat":38.89037,"lng":-77.03196,"type":"point"}],"source":"The New York Times"},{"feed_name":"World","feed_url":"https://rss.nytimes.com/services/xml/rss/nyt/World.xml","title":"Austria enters its third lockdown. Israel is set to follow suit.","summary":"","link":"https://www.nytimes.com/2020/12/26/world/austria-enters-its-third-lockdown-israel-is-set-to-follow-suit.html","published":"Sat, 26 Dec 2020 23:28:35 +0000","geolocations":[{"name":"Austria","count":2,"lat":48.20263,"lng":16.36842,"type":"country"},{"name":"Vienna","count":1,"lat":48.20263,"lng":16.36842,"type":"point"}],"source":"The New York Times"},{"feed_name":"World","feed_url":"https://rss.nytimes.com/services/xml/rss/nyt/World.xml","title":"E.U.’s Mass Vaccination Campaign Starts, With Nursing Homes as Focus","summary":"An ambitious plan to inoculate more than 450 million people comes at a precarious moment for the continent, with many countries struggling with their worst outbreaks since the start of the pandemic.","link":"https://www.nytimes.com/2020/12/27/world/europe/covid-19-eu-vaccine.html","published":"Sun, 27 Dec 2020 20:00:29 +0000","geolocations":[{"name":"Portugal","count":1,"lat":38.72639,"lng":-9.14948,"type":"country"},{"name":"Berlin","count":1,"lat":52.51604,"lng":13.37691,"type":"point"},{"name":"London","count":2,"lat":51.50643,"lng":-0.12719,"type":"point"},{"name":"Paris","count":1,"lat":48.85717,"lng":2.3414,"type":"point"},{"name":"Rome","count":1,"lat":41.90322,"lng":12.49565,"type":"point"},{"name":"Madrid","count":1,"lat":40.41955,"lng":-3.69196,"type":"point"},{"name":"Brussels","count":1,"lat":50.84439,"lng":4.35609,"type":"point"}],"source":"The New York Times"},{"feed_name":"World","feed_url":"https://www.theguardian.com/world/rss","title":"At least seven dead after strong earthquake strikes central Croatia","summary":"<p>Casualties include girl, 12, as mayor of town of Petrinja says ‘half of the city no longer exists’</p><p>At least seven people have been killed and dozens injured after a strong earthquake hit central Croatia, destroying buildings and sending panicked people fleeing into rubble-covered streets in a town south-east of the capital Zagreb.<strong> </strong></p><p>The European Mediterranean Seismological Center said an earthquake of 6.4 magnitude hit 28 miles (46km) from Zagreb at 12.19pm, at a depth of 10km. Initial reports said the earthquake caused extensive damage, causing roofs, building facades and entire buildings to collapse.</p> <a href=\"https://www.theguardian.com/world/2020/dec/29/strong-earthquake-strikes-central-croatia\">Continue reading...</a>","link":"https://www.theguardian.com/world/2020/dec/29/strong-earthquake-strikes-central-croatia","published":"Tue, 29 Dec 2020 23:33:15 GMT","geolocations":[{"name":"Petrinja","count":6,"lat":45.44043,"lng":16.27843,"type":"point"},{"name":"Central Croatia","count":1,"lat":18.34342,"lng":-64.75528,"type":"point"},{"name":"Zagreb","count":5,"lat":45.80724,"lng":15.96757,"type":"point"},{"name":"Croatia","count":9,"lat":45.80724,"lng":15.96757,"type":"country"},{"name":"Hiroshima","count":1,"lat":-11.83436,"lng":-77.13986,"type":"point"},{"name":"Sisak","count":1,"lat":45.48781,"lng":16.38041,"type":"point"},{"name":"Mediterranean","count":1,"lat":25.04446,"lng":55.13858,"type":"point"},{"name":"Adriatic","count":1,"lat":43.21017,"lng":-79.70957,"type":"point"},{"name":"Ston","count":1,"lat":42.83731,"lng":17.69681,"type":"point"},{"name":"Dinamo","count":1,"lat":25.79166,"lng":86.30809,"type":"point"},{"name":"Serbia","count":1,"lat":44.8131,"lng":20.46329,"type":"country"},{"name":"Bosnia","count":1,"lat":43.85946,"lng":18.43582,"type":"country"},{"name":"Slovenia","count":3,"lat":46.05062,"lng":14.50282,"type":"country"},{"name":"Graz","count":1,"lat":47.06861,"lng":15.44327,"type":"point"},{"name":"Austria","count":1,"lat":48.20263,"lng":16.36842,"type":"country"},{"name":"Krško","count":1,"lat":45.95888,"lng":15.49329,"type":"point"},{"name":"Balkan","count":1,"lat":40.21579,"lng":28.81133,"type":"point"}],"source":"The Guardian"},{"feed_name":"World","feed_url":"https://www.latimes.com/world/rss2.0.xml","title":"Petula Clark shocked and confused after 'Downtown' was used in Nashville bombing","summary":"<p>\"Of all the thousands of songs — why this one?\" singer Petula Clark wonders after her `1964 hit, \"Downtown,\" was played in the Nashville bombing on Christmas.</p>","link":"https://www.latimes.com/entertainment-arts/music/story/2020-12-29/petula-clark-downtown-nashville-bombing","published":"Tue, 29 Dec 2020 17:55:26 -0500","geolocations":[{"name":"Rv","count":2,"lat":-30.90501,"lng":-55.54352,"type":"point"},{"name":"Nashville","count":2,"lat":36.16784,"lng":-86.77816,"type":"point"},{"name":"Antioch","count":1,"lat":38.01583,"lng":-121.81974,"type":"point"},{"name":"Tenn.","count":1,"lat":58.61606,"lng":16.14943,"type":"point"},{"name":"Tennessee","count":2,"lat":36.16784,"lng":-86.77816,"type":"point"},{"name":"Kentucky","count":1,"lat":38.19507,"lng":-84.87869,"type":"point"},{"name":"Music City","count":1,"lat":33.62208,"lng":-86.3431,"type":"point"},{"name":"U.K.","count":1,"lat":29.93186,"lng":77.81922,"type":"point"}],"source":"Los Angeles Times"},{"feed_name":"World","feed_url":"https://rss.nytimes.com/services/xml/rss/nyt/World.xml","title":"For Covid-19 Vaccines, Some Are Too Rich — and Too Poor","summary":"Global inequality is shaping which countries get vaccines first. In South Africa, people’s best chance for vaccines anytime soon is to join an experimental trial.","link":"https://www.nytimes.com/2020/12/28/world/africa/covid-19-vaccines-south-africa.html","published":"Tue, 29 Dec 2020 00:45:01 +0000","geolocations":[{"name":"Covax","count":2,"lat":40.12734,"lng":-8.85287,"type":"point"},{"name":"Johannesburg","count":1,"lat":-26.20491,"lng":28.04006,"type":"point"},{"name":"South Africa","count":1,"lat":-25.74587,"lng":28.18764,"type":"country"},{"name":"United Kingdom","count":1,"lat":38.95953,"lng":-91.92768,"type":"point"},{"name":"Masiphumelele Township","count":1,"lat":-34.12857,"lng":18.37284,"type":"point"},{"name":"Cape Town","count":1,"lat":-33.91909,"lng":18.42198,"type":"point"}],"source":"The New York Times"},{"feed_name":"World","feed_url":"https://www.theguardian.com/world/rss","title":"US and EU pressure China over release of Wuhan citizen journalist","summary":"<p>Zhang Zhan, who reported from city at start of pandemic, was sentenced to four years in jail</p><p>The European Union and United States have demanded that China release a citizen journalist jailed for her reports on the early outbreak of the coronavirus pandemic from Wuhan.</p><p>A Chinese court <a href=\"https://www.theguardian.com/world/2020/dec/28/wuhan-citizen-journalist-jailed-for-four-years-in-chinas-christmas-crackdown\">handed down a four-year jail term on Monday to Zhang Zhan</a>, who reported at the peak of the crisis in the city where the coronavirus first emerged. Her lawyer said Zhang was jailed on the grounds of “picking quarrels and provoking trouble”.</p> <a href=\"https://www.theguardian.com/world/2020/dec/29/us-and-eu-pressure-china-over-release-of-wuhan-citizen-journalist\">Continue reading...</a>","link":"https://www.theguardian.com/world/2020/dec/29/us-and-eu-pressure-china-over-release-of-wuhan-citizen-journalist","published":"Tue, 29 Dec 2020 21:12:57 GMT","geolocations":[{"name":"United States","count":1,"lat":38.89037,"lng":-77.03196,"type":"country"},{"name":"China","count":4,"lat":39.90657,"lng":116.38765,"type":"country"},{"name":"Wuhan","count":2,"lat":30.64353,"lng":114.32472,"type":"point"},{"name":"Us","count":3,"lat":38.89037,"lng":-77.03196,"type":"country"},{"name":"Beijing","count":1,"lat":39.90657,"lng":116.38765,"type":"point"},{"name":"Hong Kong","count":2,"lat":22.2783,"lng":114.16039,"type":"point"},{"name":"Shenzhen","count":1,"lat":22.55651,"lng":114.11912,"type":"point"}],"source":"The Guardian"},{"feed_name":"World","feed_url":"https://rss.nytimes.com/services/xml/rss/nyt/World.xml","title":"Refugees Come Under Fire as Old Foes Fight in Concert in Ethiopia","summary":"Forces from neighboring Eritrea have joined the war in northern Ethiopia, and have rampaged through refugee camps committing human rights violations, officials and witnesses say.","link":"https://www.nytimes.com/2020/12/28/world/africa/Ethiopia-Eritrea-Tigray.html","published":"Mon, 28 Dec 2020 14:40:35 +0000","geolocations":[{"name":"Sweden","count":1,"lat":59.33257,"lng":18.06683,"type":"country"},{"name":"Keren","count":1,"lat":15.8044,"lng":38.42604,"type":"point"},{"name":"Eritrea","count":2,"lat":15.33638,"lng":38.93692,"type":"country"},{"name":"Tigrayan","count":1,"lat":40.1999,"lng":44.52667,"type":"point"},{"name":"Tigray","count":4,"lat":10.34021,"lng":-84.58133,"type":"point"},{"name":"United States","count":1,"lat":38.89037,"lng":-77.03196,"type":"country"},{"name":"Asmara","count":1,"lat":15.33638,"lng":38.93692,"type":"point"}],"source":"The New York Times"},{"feed_name":"World","feed_url":"https://www.aljazeera.com/xml/rss/all.xml","title":"Biden criticises pace of Trump’s COVID vaccine roll-out","summary":"The president-elect says that at the current pace it will &#039;take years, not months&#039; to get all Americans vaccinated.","link":"https://www.aljazeera.com/news/2020/12/29/biden-criticises-pace-of-trumps-covid-vaccine-rollout","published":"Tue, 29 Dec 2020 22:22:39 +0000","geolocations":[{"name":"Wilmington","count":1,"lat":39.74023,"lng":-75.55084,"type":"point"},{"name":"Delaware","count":1,"lat":39.15803,"lng":-75.52473,"type":"point"},{"name":"Us","count":2,"lat":38.89037,"lng":-77.03196,"type":"country"},{"name":"Washington, Dc","count":1,"lat":38.89037,"lng":-77.03196,"type":"point"},{"name":"The United States","count":1,"lat":38.89037,"lng":-77.03196,"type":"country"}],"source":"Aljazeera"},{"feed_name":"World","feed_url":"https://www.theguardian.com/world/rss","title":"Mayor review – grappling with reality inside Ramallah city hall","summary":"<p>Ramallah’s leader Musa Hadid navigates diplomatic stresses and day-to-day problems in this love letter to the West Bank </p><p>Musa Hadid is the popular Palestinian mayor of Ramallah in the West Bank, and this thoughtful, sympathetic documentary tracks his stressful day-to-day working life – shown suddenly getting a lot more stressful in 2017 <a href=\"https://www.theguardian.com/us-news/2017/dec/06/donald-trump-us-jerusalem-israel-capital\">when President Trump announced</a> his recognition of Jerusalem as Israel’s capital, moving the US embassy there from Tel Aviv. Hadid feels strongly that this move emboldened Israel’s military to be more menacing in Ramallah, with soldiers marching into stores and demanding to see security camera footage on the grounds that there could be images of terrorists – and even doing the same at city hall.</p><p>The film lets you appreciate Hadid’s delicate and complex situation. He is often receiving high-profile international visitors and relishes the opportunity to show off the city he loves – the opening and closing sequences of this film, incidentally, almost feel like the introduction to Woody Allen’s Manhattan. One such VIP is Prince William, though some of Hadid’s colleagues are less than happy: “All the problems of our country come from Britain!” says one, referring to the <a href=\"https://en.wikipedia.org/wiki/Mandate_for_Palestine\">1923 Mandate</a>.</p> <a href=\"https://www.theguardian.com/film/2020/dec/29/mayor-review-ramallah-west-bank\">Continue reading...</a>","link":"https://www.theguardian.com/film/2020/dec/29/mayor-review-ramallah-west-bank","published":"Tue, 29 Dec 2020 14:00:44 GMT","geolocations":[{"name":"Ramallah","count":3,"lat":31.90132,"lng":35.19985,"type":"point"},{"name":"The West Bank","count":1,"lat":-33.0312,"lng":27.90943,"type":"point"},{"name":"Jerusalem","count":2,"lat":31.7801,"lng":35.20882,"type":"point"},{"name":"Israel","count":4,"lat":31.78003,"lng":35.21873,"type":"country"},{"name":"Us","count":1,"lat":38.89037,"lng":-77.03196,"type":"country"},{"name":"Tel Aviv","count":1,"lat":32.08556,"lng":34.78953,"type":"point"},{"name":"Manhattan","count":1,"lat":39.17881,"lng":-96.56184,"type":"point"},{"name":"United Kingdom","count":1,"lat":38.95953,"lng":-91.92768,"type":"point"},{"name":"Palestine","count":1,"lat":31.7617,"lng":-95.632,"type":"point"},{"name":"Vegas","count":1,"lat":57.04542,"lng":21.86918,"type":"point"}],"source":"The Guardian"},{"feed_name":"World","feed_url":"https://www.aljazeera.com/xml/rss/all.xml","title":"Argentina on the cusp of historic vote to legalise abortion","summary":"Senate debates bill that could make Argentina the largest country in Latin America to legalise abortion.","link":"https://www.aljazeera.com/news/2020/12/29/argentina-senate-to-debate-a-bill-that-could-legalise-abortion","published":"Tue, 29 Dec 2020 19:03:02 +0000","geolocations":[{"name":"Argentina","count":9,"lat":-34.60849,"lng":-58.37344,"type":"country"},{"name":"Uruguay","count":1,"lat":-34.87417,"lng":-56.16293,"type":"country"},{"name":"Cuba","count":1,"lat":23.13211,"lng":-82.36749,"type":"country"},{"name":"Guyana","count":1,"lat":6.80859,"lng":-58.16125,"type":"country"},{"name":"Mexico City","count":1,"lat":19.27691,"lng":-99.13939,"type":"point"},{"name":"Oaxaca","count":1,"lat":17.06173,"lng":-96.7261,"type":"point"},{"name":"New York","count":1,"lat":40.71455,"lng":-74.00714,"type":"point"},{"name":"Brazil","count":1,"lat":-15.77829,"lng":-47.92909,"type":"country"},{"name":"Colombia","count":1,"lat":4.61496,"lng":-74.06941,"type":"country"},{"name":"Chile","count":1,"lat":-33.43722,"lng":-70.65002,"type":"country"},{"name":"Carino","count":1,"lat":43.73658,"lng":-7.87464,"type":"point"}],"source":"Aljazeera"},{"feed_name":"World","feed_url":"https://www.theguardian.com/world/rss","title":"'Let's get vaccinated': Europe rolls out Covid-19 vaccine – video report","summary":"<p>European nations launched a massive vaccination drive on Sunday, with pensioners and medics lining up to take the first shots to see off the coronavirus pandemic that has claimed more than 1.7 million lives worldwide. With surveys pointing to high levels of hesitancy about the vaccine in countries from France to Poland, leaders of the EU27 are promoting it as the best chance of getting back to something like normal life in 2021</p><ul><li><a href=\"https://www.theguardian.com/world/live/2020/dec/27/coronavirus-live-covid-vaccine-inoculation-lockdown-eu-uk-news-latest-updates\">Coronavirus news&nbsp;– live updates</a><br /></li><li><a href=\"https://www.theguardian.com/world/2020/dec/27/eu-launches-mass-covid-19-vaccination-new-variant-spreads-pfizer-vaccine\">EU launches mass Covid-19 vaccination as new variant spreads</a><br /></li><li><a href=\"https://www.theguardian.com/world/2020/dec/27/vaccination-rolls-out-across-europe-but-anger-remains-over-late-start\">Covid-19 vaccination rolls out across Europe, but anger remains over late start</a><br /></li></ul> <a href=\"https://www.theguardian.com/world/video/2020/dec/27/europe-rolls-out-covid-19-vaccine-video-report\">Continue reading...</a>","link":"https://www.theguardian.com/world/video/2020/dec/27/europe-rolls-out-covid-19-vaccine-video-report","published":"Sun, 27 Dec 2020 16:15:19 GMT","geolocations":[{"name":"France","count":1,"lat":48.85717,"lng":2.3414,"type":"country"},{"name":"Poland","count":1,"lat":52.2356,"lng":21.01037,"type":"country"}],"source":"The Guardian"},{"feed_name":"World","feed_url":"https://rss.nytimes.com/services/xml/rss/nyt/World.xml","title":"The big question for the U.S. vaccine campaign: Who’s next?","summary":"Not all states will follow the guidance of the Centers for Disease Control and Prevention.","link":"https://www.nytimes.com/2020/12/27/world/the-big-question-for-the-us-vaccine-campaign-whos-next.html","published":"Mon, 28 Dec 2020 10:00:25 +0000","geolocations":[{"name":"Ohio","count":1,"lat":39.96199,"lng":-83.00275,"type":"point"}],"source":"The New York Times"},{"feed_name":"World","feed_url":"https://www.theguardian.com/world/rss","title":"Boy is pulled alive from rubble after 6.3-magnitude earthquake in Croatia – video","summary":"<p>A young boy was rescued after a collapsed building fell on a car during a powerful earthquake in Croatia. Authorities said a girl was killed and at least 20 people were treated in hospital in the town of Petrinja by the quake. 'My town has been completely destroyed. We have dead children,' Darinko Dumbović, the mayor of Petrinja, said in a statement. 'Half of the city no longer exists.'&nbsp;</p><ul><li><a href=\"https://www.theguardian.com/world/2020/dec/29/strong-earthquake-strikes-central-croatia\">Strong earthquake strikes central Croatia</a></li></ul> <a href=\"https://www.theguardian.com/world/video/2020/dec/29/boy-pulled-alive-from-rubble-after-earthquake-in-croatia-video\">Continue reading...</a>","link":"https://www.theguardian.com/world/video/2020/dec/29/boy-pulled-alive-from-rubble-after-earthquake-in-croatia-video","published":"Tue, 29 Dec 2020 18:04:48 GMT","geolocations":[{"name":"Croatia","count":1,"lat":45.80724,"lng":15.96757,"type":"country"},{"name":"Petrinja","count":1,"lat":45.44043,"lng":16.27843,"type":"point"}],"source":"The Guardian"},{"feed_name":"World","feed_url":"https://www.theguardian.com/world/rss","title":"Harry and Meghan put son Archie centre stage in first podcast","summary":"<p>Surprise at end of episode featuring Sir Elton John, comedian James Corden and tennis star Naomi Osaka</p><p>When the Duke and Duchess of Sussex announced that they would put guest speakers at centre stage in their new podcast, few would have expected to hear from their toddler Archie.</p><p>But Prince Harry and Meghan’s 19-month-old son made a surprise cameo appearance at the end of the first episode, released on Tuesday, revealing a slight American accent as he wished listeners a happy new year.</p> <a href=\"https://www.theguardian.com/uk-news/2020/dec/29/harry-and-meghan-put-son-archie-centrestage-in-first-podcast\">Continue reading...</a>","link":"https://www.theguardian.com/uk-news/2020/dec/29/harry-and-meghan-put-son-archie-centrestage-in-first-podcast","published":"Tue, 29 Dec 2020 18:39:27 GMT","geolocations":[{"name":"Canada","count":1,"lat":45.42178,"lng":-75.69116,"type":"country"},{"name":"California","count":1,"lat":38.57944,"lng":-121.49085,"type":"point"}],"source":"The Guardian"},{"feed_name":"World","feed_url":"https://www.aljazeera.com/xml/rss/all.xml","title":"Wall Street tempers bonus expectations in the times of COVID-19","summary":"The biggest US lenders are tempering expectations for employee payouts after the pandemic sent revenues soaring.","link":"https://www.aljazeera.com/economy/2020/12/29/wall-street-tempers-bonus-expectations-in-year-of-covid","published":"Tue, 29 Dec 2020 19:14:34 +0000","geolocations":[{"name":"Us","count":1,"lat":38.89037,"lng":-77.03196,"type":"country"},{"name":"U.S.","count":3,"lat":38.89037,"lng":-77.03196,"type":"country"},{"name":"New York","count":1,"lat":40.71455,"lng":-74.00714,"type":"point"}],"source":"Aljazeera"},{"feed_name":"World","feed_url":"https://rss.nytimes.com/services/xml/rss/nyt/World.xml","title":"Your Tuesday Briefing","summary":"A terrorism suspect, disguised as a refugee.","link":"https://www.nytimes.com/2020/12/29/briefing/germany-terrorism-coronavirus-tigray.html","published":"Tue, 29 Dec 2020 06:42:59 +0000","geolocations":[{"name":"Vienna","count":1,"lat":48.20263,"lng":16.36842,"type":"point"},{"name":"Germany","count":2,"lat":52.51604,"lng":13.37691,"type":"country"}],"source":"The New York Times"},{"feed_name":"World","feed_url":"https://www.theguardian.com/world/rss","title":"Pierre Cardin helped define modernity in the 1960s and beyond","summary":"<p>Fashion designer will forever be associated with the decade that embraced his space-age aesthetic</p><ul><li><a href=\"https://www.theguardian.com/fashion/2020/dec/29/french-designer-pierre-cardin-dies-aged-98\">French designer Pierre Cardin dies aged 98</a></li></ul><p>The Beatles smiling for an early group portrait in 1963, their pixie handsomeness perfectly framed by four snappy collarless jackets. US first lady, Jackie Kennedy, unimpeachably elegant in a boxy scarlet wool day-suit on a visit to Canada in 1962. Marisa Berenson in a groovy sunset-hued kaftan, gazing through matchstick lashes at the lens of Irving Penn for a 1967 cover of Vogue.</p> <a href=\"https://www.theguardian.com/fashion/2020/dec/29/pierre-cardin-helped-define-modernity-in-the-1960s-and-beyond\">Continue reading...</a>","link":"https://www.theguardian.com/fashion/2020/dec/29/pierre-cardin-helped-define-modernity-in-the-1960s-and-beyond","published":"Tue, 29 Dec 2020 16:57:46 GMT","geolocations":[{"name":"Us","count":1,"lat":38.89037,"lng":-77.03196,"type":"country"},{"name":"Canada","count":1,"lat":45.42178,"lng":-75.69116,"type":"country"},{"name":"New York","count":1,"lat":40.71455,"lng":-74.00714,"type":"point"},{"name":"France","count":1,"lat":48.85717,"lng":2.3414,"type":"country"}],"source":"The Guardian"},{"feed_name":"World","feed_url":"https://www.aljazeera.com/xml/rss/all.xml","title":"Is Iraqi PM able to confront pro-Iran militia?","summary":"Mustafa al-Kadhimi&#039;s leadership put to test after recent wave of attacks.","link":"https://www.aljazeera.com/program/inside-story/2020/12/29/is-iraqi-pm-able-to-confront-pro-iran-militia","published":"Tue, 29 Dec 2020 21:02:22 +0000","geolocations":[{"name":"Iran","count":1,"lat":35.68877,"lng":51.41503,"type":"country"}],"source":"Aljazeera"},{"feed_name":"World - Europe","feed_url":"http://feeds.bbci.co.uk/news/world/rss.xml","title":"Nashulai: The community trying to conserve Kenya's wildlife","summary":"The Nashulai conservancy, on the edge of the Maasai Mara, is reviving ancient practices to protect the ecosystem.","link":"https://www.bbc.co.uk/news/world-africa-55477272","published":"Tue, 29 Dec 2020 16:32:13 GMT","geolocations":[{"name":"Kenya","count":2,"lat":-1.28352,"lng":36.82379,"type":"country"}],"source":"BBC"},{"feed_name":"World","feed_url":"https://www.aljazeera.com/xml/rss/all.xml","title":"Fuel or flour? Lebanon to ration $2bn in subsidies, PM says","summary":"A looming end to subsidies in Lebanon has triggered UN warnings of &#039;social catastrophe&#039;.","link":"https://www.aljazeera.com/economy/2020/12/29/lebanon-can-stretch-reserves-for-subsidies-for-6-months-pm-says","published":"Tue, 29 Dec 2020 21:39:47 +0000","geolocations":[{"name":"Lebanon","count":8,"lat":33.89607,"lng":35.50678,"type":"country"},{"name":"Iran","count":1,"lat":35.68877,"lng":51.41503,"type":"country"},{"name":"Beirut","count":1,"lat":33.89607,"lng":35.50678,"type":"point"},{"name":"Gulf","count":1,"lat":-30.07321,"lng":152.15272,"type":"point"}],"source":"Aljazeera"},{"feed_name":"World - Europe","feed_url":"http://feeds.bbci.co.uk/news/world/rss.xml","title":"Tigray crisis: Eritrea's role in Ethiopian conflict","summary":"Ethiopia's leader says Eritrea armed his troops when they first came under attack in Tigray region.","link":"https://www.bbc.co.uk/news/world-africa-55295650","published":"Mon, 28 Dec 2020 00:43:18 GMT","geolocations":[{"name":"Tigray","count":1,"lat":10.34021,"lng":-84.58133,"type":"point"},{"name":"Asmara","count":1,"lat":15.33638,"lng":38.93692,"type":"point"}],"source":"BBC"},{"feed_name":"World","feed_url":"https://rss.nytimes.com/services/xml/rss/nyt/World.xml","title":"Austrian Lockdown Covers Schools and Stores, but Not Ski Hills","summary":"A sunny holiday weekend drew a crush of skiers to Austria’s slopes, with crowded lift lines and parking lots making a mockery of social distancing rules.","link":"https://www.nytimes.com/2020/12/28/world/europe/austria-ski-crowds-lockdown.html","published":"Mon, 28 Dec 2020 20:21:38 +0000","geolocations":[{"name":"Austria","count":1,"lat":48.20263,"lng":16.36842,"type":"country"},{"name":"Alps","count":1,"lat":37.99371,"lng":-77.18015,"type":"point"}],"source":"The New York Times"},{"feed_name":"World","feed_url":"https://rss.nytimes.com/services/xml/rss/nyt/World.xml","title":"Boeing 737 Max Resumes Flying U.S. Passengers After 2-Year Halt","summary":"American Airlines used the plane, which was grounded in March 2019 after two fatal crashes, on a flight from Miami to New York.","link":"https://www.nytimes.com/2020/12/29/business/boeing-737-max-return.html","published":"Tue, 29 Dec 2020 22:44:59 +0000","geolocations":[{"name":"Miami","count":1,"lat":25.77481,"lng":-80.19773,"type":"point"},{"name":"Denver","count":1,"lat":39.74001,"lng":-104.99202,"type":"point"},{"name":"Houston","count":2,"lat":29.76078,"lng":-95.36952,"type":"point"},{"name":"Los Angeles","count":2,"lat":34.05357,"lng":-118.24545,"type":"point"},{"name":"Orlando","count":2,"lat":28.53823,"lng":-81.37739,"type":"point"},{"name":"San Diego","count":1,"lat":32.71568,"lng":-117.16171,"type":"point"},{"name":"Tampa","count":1,"lat":27.94653,"lng":-82.45927,"type":"point"}],"source":"The New York Times"},{"feed_name":"World","feed_url":"https://www.aljazeera.com/xml/rss/all.xml","title":"EU demands China release 12 Hong Kong activists as trial begins","summary":"EU statement comes as Brussels gears up to agree a significant investment deal with China.","link":"https://www.aljazeera.com/news/2020/12/29/eu-demands-china-release-12-hong-kong-activists-as-trial-starts","published":"Tue, 29 Dec 2020 15:35:01 +0000","geolocations":[{"name":"Brussels","count":2,"lat":50.84439,"lng":4.35609,"type":"point"},{"name":"China","count":3,"lat":39.90657,"lng":116.38765,"type":"country"},{"name":"Beijing","count":3,"lat":39.90657,"lng":116.38765,"type":"point"},{"name":"Hong Kong","count":3,"lat":22.2783,"lng":114.16039,"type":"point"},{"name":"Shenzhen","count":3,"lat":22.55651,"lng":114.11912,"type":"point"},{"name":"Yantian District","count":1,"lat":23.19287,"lng":120.31472,"type":"point"},{"name":"Taiwan","count":1,"lat":25.03737,"lng":121.56355,"type":"country"},{"name":"Hong Kong’S","count":1,"lat":22.2783,"lng":114.16039,"type":"point"}],"source":"Aljazeera"},{"feed_name":"World","feed_url":"https://rss.nytimes.com/services/xml/rss/nyt/World.xml","title":"U.K. Virus Variant Found in Japan, Spain and France","summary":"The discovery of the U.K. variant has prompted more travel restrictions.","link":"https://www.nytimes.com/2020/12/26/world/japan-spain-france-virus-variant.html","published":"Tue, 29 Dec 2020 22:43:35 +0000","geolocations":[{"name":"Japan","count":2,"lat":35.68408,"lng":139.80885,"type":"country"},{"name":"Spain","count":1,"lat":40.41955,"lng":-3.69196,"type":"country"},{"name":"France","count":1,"lat":48.85717,"lng":2.3414,"type":"country"},{"name":"Sweden","count":1,"lat":59.33257,"lng":18.06683,"type":"country"},{"name":"Canada","count":1,"lat":45.42178,"lng":-75.69116,"type":"country"},{"name":"United Kingdom","count":4,"lat":38.95953,"lng":-91.92768,"type":"point"},{"name":"London","count":1,"lat":51.50643,"lng":-0.12719,"type":"point"},{"name":"England","count":1,"lat":51.50643,"lng":-0.12719,"type":"country"}],"source":"The New York Times"},{"feed_name":"World","feed_url":"https://www.theguardian.com/world/rss","title":"'That was easy': Kamala Harris receives Covid-19 vaccine – video","summary":"<p>The US vice-president-elect received her first injected dose of the coronavirus vaccine live on television, one week after Joe Biden received his. Describing the process as 'relatively painless', Harris urged all Americans to get vaccinated. 'It's about saving your life, the life of your family members, and the life of your community,' she said</p><ul><li><a href=\"https://www.theguardian.com/world/live/2020/dec/29/coronavirus-live-news-more-countries-alert-suspected-cases-new-uk-covid-variant\">&nbsp;Coronavirus live news</a></li><li><a href=\"https://video.gutools.co.uk/videos/974ac213-7fac-49f8-a36b-15d8e65b682d\">Joe Biden receives coronavirus vaccine&nbsp;</a></li></ul> <a href=\"https://www.theguardian.com/us-news/video/2020/dec/29/kamala-harris-receives-covid-19-vaccine-video\">Continue reading...</a>","link":"https://www.theguardian.com/us-news/video/2020/dec/29/kamala-harris-receives-covid-19-vaccine-video","published":"Tue, 29 Dec 2020 17:45:20 GMT","geolocations":[{"name":"Us","count":1,"lat":38.89037,"lng":-77.03196,"type":"country"}],"source":"The Guardian"},{"feed_name":"World","feed_url":"https://www.theguardian.com/world/rss","title":"'I'm going back to carnage': a junior doctor on working under Covid","summary":"<p>As England hospital admissions increase, emotional reserves of frontline NHS staff diminish</p><ul><li><a href=\"https://www.theguardian.com/world/series/coronavirus-live/latest\">Coronavirus – latest updates</a></li><li><a href=\"https://www.theguardian.com/world/coronavirus-outbreak\">See all our coronavirus coverage</a></li></ul><p>It’s 5pm in a busy London hospital and a patient who came in a few days ago has deteriorated rapidly. The woman in her 60s has coronavirus. In a few days, she has gone from coping well to her oxygen levels dropping dramatically.</p><p>This is a moment that replays in the mind of Ian (not his real name), a junior doctor who works in an infectious diseases unit in the capital. It stands out for a number of reasons: Ian had barely eaten that day, surviving an unrelenting shift on coffee, and his unit – which usually has 30 patients a day when things are busy – was full with 55 patients. The woman’s deterioration was unexpected and she was someone who would normally be fit and healthy, with years of life ahead of her.</p> <a href=\"https://www.theguardian.com/world/2020/dec/29/im-going-back-to-carnage-a-junior-doctor-on-working-under-covid\">Continue reading...</a>","link":"https://www.theguardian.com/world/2020/dec/29/im-going-back-to-carnage-a-junior-doctor-on-working-under-covid","published":"Tue, 29 Dec 2020 15:09:17 GMT","geolocations":[{"name":"London","count":1,"lat":51.50643,"lng":-0.12719,"type":"point"},{"name":"Kent","count":1,"lat":47.3807,"lng":-122.23741,"type":"point"},{"name":"Bristol","count":1,"lat":51.45379,"lng":-2.59168,"type":"point"}],"source":"The Guardian"},{"feed_name":"World","feed_url":"https://www.theguardian.com/world/rss","title":"Georgia Senate runoff elections: a guide on how they work and why they matter","summary":"<p>The two runoffs on 5 January will decide whether the Republicans continue to control the Senate, with profound implications for Joe Biden’s presidency</p><p>On 5 January the US state of Georgia will vote, again, on who to send to the Senate.</p><p>The control of the Senate is up for grabs, and thus the prospects for the Biden administration – at least for the next two years.</p> <a href=\"https://www.theguardian.com/us-news/2020/dec/28/georgia-senate-runoff-elections-a-guide-for-non-americans-on-how-they-work-and-why-they-matter\">Continue reading...</a>","link":"https://www.theguardian.com/us-news/2020/dec/28/georgia-senate-runoff-elections-a-guide-for-non-americans-on-how-they-work-and-why-they-matter","published":"Tue, 29 Dec 2020 22:47:30 GMT","geolocations":[{"name":"Us","count":1,"lat":38.89037,"lng":-77.03196,"type":"country"},{"name":"Maine","count":1,"lat":44.31803,"lng":-69.77621,"type":"point"},{"name":"Vermont","count":1,"lat":44.26029,"lng":-72.57626,"type":"point"},{"name":"Atlanta","count":1,"lat":33.74831,"lng":-84.39111,"type":"point"}],"source":"The Guardian"},{"feed_name":"World","feed_url":"https://www.latimes.com/world/rss2.0.xml","title":"Trump signs sweeping coronavirus relief measure after bipartisan appeals","summary":"<p>After confounding Congress by holding off on a COVID relief bill, Trump signs.</p>","link":"https://www.latimes.com/politics/story/2020-12-27/unemployment-benefits-expire-for-millions-as-trump-rages","published":"Sun, 27 Dec 2020 10:23:19 -0500","geolocations":[{"name":"Florida","count":1,"lat":30.43977,"lng":-84.28065,"type":"point"},{"name":"Maryland","count":1,"lat":38.97678,"lng":-76.49014,"type":"point"},{"name":"Utah","count":1,"lat":40.76031,"lng":-111.88822,"type":"point"},{"name":"U.S.","count":1,"lat":38.89037,"lng":-77.03196,"type":"country"},{"name":"The United States","count":1,"lat":38.89037,"lng":-77.03196,"type":"country"},{"name":"Illinois","count":1,"lat":39.8013,"lng":-89.6436,"type":"point"},{"name":"Washington","count":1,"lat":38.89037,"lng":-77.03196,"type":"point"},{"name":"California","count":1,"lat":38.57944,"lng":-121.49085,"type":"point"}],"source":"Los Angeles Times"},{"feed_name":"World","feed_url":"https://www.theguardian.com/world/rss","title":"Indigenous environmental defender killed in latest Honduras attack","summary":"<ul><li>Félix Vásquez, 60, shot in own home in front of family</li><li>Killing followed death threats linked to work on environment</li></ul><p>Another indigenous environmentalist has been killed in <a href=\"https://www.theguardian.com/world/honduras\">Honduras</a>, cementing the country’s inglorious ranking as the deadliest place in the world to defend land and natural resources from exploitation.</p><p>Félix Vásquez, 60, a veteran leader of the indigenous Lenca people, was shot dead at home in Santiago de Puringla, a rural community in the department of La Paz, western Honduras on the night of 26 December – just weeks after reporting death threats linked to his work. His adult children were beaten and threatened by the four armed assailants in balaclavas, but survived the ordeal.</p> <a href=\"https://www.theguardian.com/environment/2020/dec/29/indigenous-environmental-defender-killed-felix-vasquez\">Continue reading...</a>","link":"https://www.theguardian.com/environment/2020/dec/29/indigenous-environmental-defender-killed-felix-vasquez","published":"Tue, 29 Dec 2020 18:32:54 GMT","geolocations":[{"name":"Honduras","count":5,"lat":14.08192,"lng":-87.20547,"type":"country"},{"name":"Santiago De Puringla","count":1,"lat":14.35453,"lng":-87.90832,"type":"point"},{"name":"Candelaria","count":1,"lat":-29.67019,"lng":-52.78603,"type":"point"},{"name":"Yoro","count":1,"lat":15.13679,"lng":-87.13164,"type":"point"},{"name":"Marlen Corea","count":1,"lat":48.52286,"lng":7.82372,"type":"point"}],"source":"The Guardian"},{"feed_name":"World","feed_url":"https://www.aljazeera.com/xml/rss/all.xml","title":"Gabon approves constitutional change if president incapacitated","summary":"Question of constitutional vacuum emerged two years ago when President Ali Bongo Ondimba suffered a stroke.","link":"https://www.aljazeera.com/news/2020/12/29/gabon-backs-constitutional-change-if-president-incapacitated","published":"Tue, 29 Dec 2020 20:29:23 +0000","geolocations":[{"name":"Gabon","count":1,"lat":0.39324,"lng":9.44633,"type":"country"},{"name":"Libreville","count":1,"lat":0.39324,"lng":9.44633,"type":"point"}],"source":"Aljazeera"},{"feed_name":"World","feed_url":"https://www.aljazeera.com/xml/rss/all.xml","title":"Brexit: UK markets rally on first full day of trading post-deal","summary":"Casting aside concern for now, investors poured into UK markets on the first full day of trading post-Brexit deal.","link":"https://www.aljazeera.com/economy/2020/12/29/uk-markets-rally-in-first-full-trading-day-after-brexit-deal","published":"Tue, 29 Dec 2020 16:12:34 +0000","geolocations":[{"name":"U.K.","count":9,"lat":29.93186,"lng":77.81922,"type":"point"},{"name":"United Kingdom","count":1,"lat":38.95953,"lng":-91.92768,"type":"point"},{"name":"U.S.","count":1,"lat":38.89037,"lng":-77.03196,"type":"country"},{"name":"London","count":1,"lat":51.50643,"lng":-0.12719,"type":"point"}],"source":"Aljazeera"},{"feed_name":"World - Europe","feed_url":"http://feeds.bbci.co.uk/news/world/rss.xml","title":"Alexei Navalny: Russian officials bring new fraud charges","summary":"The opposition leader, still recovering in Germany after his poisoning, says the case is fabricated.","link":"https://www.bbc.co.uk/news/world-europe-55477891","published":"Tue, 29 Dec 2020 21:15:07 GMT","geolocations":[{"name":"Russia","count":1,"lat":55.75696,"lng":37.61502,"type":"country"}],"source":"BBC"},{"feed_name":"World","feed_url":"https://www.theguardian.com/world/rss","title":"Australia news live: NSW reports 18 new Covid cases as Gladys Berejiklian gives update","summary":"<p>Gladys Berejiklian gives updates as state on alert over cases in Sydney suburbs and Wollongong. All the latest news and updates, live</p><ul><li><a href=\"https://www.theguardian.com/world/live/2020/dec/29/coronavirus-live-news-more-countries-alert-suspected-cases-new-uk-covid-variant\">Follow our global coronavirus live blog</a></li><li><a href=\"https://www.theguardian.com/australia-news/2020/oct/20/coronavirus-nsw-hotspots-list-regional-sydney-covid-19-outbreak-locations\">NSW hotspots list</a></li><li><a href=\"https://www.theguardian.com/technology/ng-interactive/2018/may/15/the-guardian-app?CMP=cvau_sfl\">Download the free Guardian app to get the most important news notifications</a></li></ul><p class=\"block-time published-time\"> <time datetime=\"2020-12-30T00:03:52.094Z\">12.03am <span class=\"timezone\">GMT</span></time> </p><p>Premier Gladys Berejiklian announces that nine of the new cases are linked to the Avalon cluster and were already in isolation. </p><p>The 18 new cases were detected from 17,267 tests conducted in the 24 hours to Tuesday night.</p><p class=\"block-time published-time\"> <time datetime=\"2020-12-29T23:58:59.990Z\">11.58pm <span class=\"timezone\">GMT</span></time> </p><p>New South Wales premier <strong>Gladys Berejiklian </strong>is about to provide a coronavirus update.</p> <a href=\"https://www.theguardian.com/australia-news/live/2020/dec/30/australia-news-live-nsw-alert-wollongong-corona-cases-covid-19-sydney-variant-police-queensland-victoria\">Continue reading...</a>","link":"https://www.theguardian.com/australia-news/live/2020/dec/30/australia-news-live-nsw-alert-wollongong-corona-cases-covid-19-sydney-variant-police-queensland-victoria","published":"Wed, 30 Dec 2020 00:03:52 GMT","geolocations":[{"name":"Sydney","count":1,"lat":-33.8696,"lng":151.20691,"type":"point"},{"name":"Wollongong","count":1,"lat":-34.42485,"lng":150.89303,"type":"point"}],"source":"The Guardian"},{"feed_name":"World","feed_url":"https://rss.nytimes.com/services/xml/rss/nyt/World.xml","title":"Arrest of Cameraman in Ethiopia Signals Wider Crackdown","summary":"The government of Prime Minister Abiy Ahmed has stepped up the arrests of journalists since going to war in the country’s northern region of Tigray.","link":"https://www.nytimes.com/2020/12/29/world/africa/Ethiopia-Reuters-journalist.html","published":"Tue, 29 Dec 2020 23:15:53 +0000","geolocations":[{"name":"Dakar","count":1,"lat":14.66927,"lng":-17.43661,"type":"point"},{"name":"Senegal","count":1,"lat":14.66927,"lng":-17.43661,"type":"country"},{"name":"Addis Ababa","count":1,"lat":9.01358,"lng":38.76286,"type":"point"},{"name":"Ethiopia","count":1,"lat":9.01358,"lng":38.76286,"type":"country"}],"source":"The New York Times"},{"feed_name":"World","feed_url":"https://rss.nytimes.com/services/xml/rss/nyt/World.xml","title":"U.K. Says It Can't Guarantee Help for Nazanin Zaghari-Ratcliffe, Citizen Held in Iran","summary":"Britain’s stance on the case of Nazanin Zaghari-Ratcliffe, who awaits trial in Tehran, has drawn criticism as it weighs its international role outside the European Union.","link":"https://www.nytimes.com/2020/12/29/world/europe/uk-iran-nazanin-zaghari-ratcliffe.html","published":"Tue, 29 Dec 2020 18:42:57 +0000","geolocations":[{"name":"Iran","count":5,"lat":35.68877,"lng":51.41503,"type":"country"},{"name":"United Kingdom","count":4,"lat":38.95953,"lng":-91.92768,"type":"point"},{"name":"Tehran","count":1,"lat":35.68877,"lng":51.41503,"type":"point"}],"source":"The New York Times"},{"feed_name":"World","feed_url":"https://www.latimes.com/world/rss2.0.xml","title":"Trump gives Congress chaos for Christmas, with aid to millions up in the air","summary":"<p>With a veto of a massive defense bill and threatening the spending bill that includes COVID relief, Trump leaves for Mar-a-Lago, chaos in his wake.</p>","link":"https://www.latimes.com/politics/story/2020-12-23/trump-gives-congress-chaos-for-christmas-with-aid-to-millions-up-in-the-air","published":"Wed, 23 Dec 2020 18:45:35 -0500","geolocations":[{"name":"Washington","count":3,"lat":38.89037,"lng":-77.03196,"type":"point"},{"name":"Okla","count":1,"lat":51.99817,"lng":-103.22328,"type":"point"},{"name":"Missouri","count":1,"lat":38.57751,"lng":-92.17784,"type":"point"},{"name":"Vermont","count":1,"lat":44.26029,"lng":-72.57626,"type":"point"},{"name":"Ky","count":1,"lat":19.29657,"lng":-81.38175,"type":"country"},{"name":"Kentucky","count":1,"lat":38.19507,"lng":-84.87869,"type":"point"},{"name":"Egypt","count":1,"lat":30.04427,"lng":31.23525,"type":"country"},{"name":"Bakersfield","count":1,"lat":35.36723,"lng":-119.01886,"type":"point"}],"source":"Los Angeles Times"},{"feed_name":"World","feed_url":"https://www.aljazeera.com/xml/rss/all.xml","title":"US sanctions no obstacle to Russia-Turkey military ties: Lavrov","summary":"Russian foreign minister says Moscow and Ankara will not be deterred by sanctions over acquiring S-400 missile system.","link":"https://www.aljazeera.com/news/2020/12/29/us-sanctions-not-an-obstacle-to-russia-turkey-relations-lavrov","published":"Tue, 29 Dec 2020 16:06:03 +0000","geolocations":[{"name":"Moscow","count":2,"lat":55.75696,"lng":37.61502,"type":"point"},{"name":"Ankara","count":4,"lat":39.92109,"lng":32.85391,"type":"point"},{"name":"Russia","count":8,"lat":55.75696,"lng":37.61502,"type":"country"},{"name":"Turkey","count":11,"lat":39.92109,"lng":32.85391,"type":"country"},{"name":"The United States","count":1,"lat":38.89037,"lng":-77.03196,"type":"country"},{"name":"Us","count":6,"lat":38.89037,"lng":-77.03196,"type":"country"},{"name":"Washington","count":2,"lat":38.89037,"lng":-77.03196,"type":"point"},{"name":"Greece","count":1,"lat":37.97614,"lng":23.7364,"type":"country"},{"name":"Cyprus","count":1,"lat":35.17197,"lng":33.36489,"type":"country"},{"name":"Mediterranean","count":1,"lat":25.04446,"lng":55.13858,"type":"point"},{"name":"Libya","count":1,"lat":32.89534,"lng":13.18105,"type":"country"},{"name":"Syria","count":1,"lat":33.51656,"lng":36.31708,"type":"point"},{"name":"Armenia","count":1,"lat":40.17871,"lng":44.513,"type":"country"},{"name":"Azerbaijan","count":1,"lat":40.41066,"lng":49.87222,"type":"country"},{"name":"Istanbul","count":1,"lat":41.06201,"lng":28.98877,"type":"point"}],"source":"Aljazeera"},{"feed_name":"World","feed_url":"https://www.theguardian.com/world/rss","title":"Mugabe's love of cricket and Thatcher's 70th: stories revealed in National Archives papers","summary":"<p>Proposed MCC membership for Mugabe and Thatcher’s birthday party plans among stories kept under wraps – until now</p><p>John Major vetoed a Foreign Office idea to offer honorary membership of the MCC to Zimbabwean president Robert Mugabe, saying it was a “dodgy precedent”, records released by the <a href=\"https://www.nationalarchives.gov.uk/\">National Archives</a> reveal. The FCO proposed the offer for Mugabe’s 1994 state visit to the UK, stating he was “reportedly keen on cricket”.</p> <a href=\"https://www.theguardian.com/uk-news/2020/dec/30/mugabes-love-of-cricket-and-thatchers-70th-stories-revealed-in-national-archives-papers\">Continue reading...</a>","link":"https://www.theguardian.com/uk-news/2020/dec/30/mugabes-love-of-cricket-and-thatchers-70th-stories-revealed-in-national-archives-papers","published":"Wed, 30 Dec 2020 00:01:03 GMT","geolocations":[{"name":"Saudi Arabia","count":2,"lat":24.68211,"lng":46.68722,"type":"country"},{"name":"The Middle East","count":1,"lat":39.29996,"lng":-76.58967,"type":"point"},{"name":"Washington","count":1,"lat":38.89037,"lng":-77.03196,"type":"point"},{"name":"Us","count":2,"lat":38.89037,"lng":-77.03196,"type":"country"},{"name":"Iran","count":1,"lat":35.68877,"lng":51.41503,"type":"country"}],"source":"The Guardian"},