[{"feed_name":"World","feed_url":"https://rss.nytimes.com/services/xml/rss/nyt/World.xml","title":"Evictions return, and a sheriff in Massachusetts hunts for a humane approach.","summary":"","link":"https://www.nytimes.com/2020/12/18/world/evictions-return-and-a-sheriff-in-massachusetts-hunts-for-a-humane-approach.html","published":"Fri, 18 Dec 2020 15:51:43 +0000","geolocations":[{"name":"America","count":1,"lat":51.43739,"lng":5.98176,"type":"point"}],"source":"The New York Times"},{"feed_name":"World","feed_url":"https://www.theguardian.com/world/rss","title":"Nigerian schoolboys meet president after kidnap ordeal","summary":"<p>Some of 344 children recount their ordeal as they meet with Muhammdu Buhari in Katsina<br /></p><p>Nigeria’s president, Muhammdu Buhari, has met with more than 300 schoolboys kidnapped a week ago in the country’s restive north-west as authorities celebrated their freedom amid widespread anger in the country at deepening insecurity.</p><p>The 344 boys arrived in the city of Katsina on Friday morning, relieved to be free but exhausted from a week spent in captivity following their abduction by local bandit groups in a raid claimed by the Islamist militants Boko Haram. They were rescued on Thursday night from a forest enclave, according to the governor of Katsina state, Aminu Masari.</p> <a href=\"https://www.theguardian.com/world/2020/dec/18/hundreds-of-freed-nigerian-schoolboys-to-be-reunited-with-families\">Continue reading...</a>","link":"https://www.theguardian.com/world/2020/dec/18/hundreds-of-freed-nigerian-schoolboys-to-be-reunited-with-families","published":"Fri, 18 Dec 2020 17:12:39 GMT","geolocations":[{"name":"Nigeria","count":5,"lat":9.06344,"lng":7.46228,"type":"country"},{"name":"Katsina","count":4,"lat":12.99129,"lng":7.59995,"type":"point"},{"name":"Kankara","count":3,"lat":11.9323,"lng":7.41021,"type":"point"},{"name":"Kankara Town","count":1,"lat":11.9323,"lng":7.41021,"type":"point"},{"name":"Niger","count":1,"lat":13.51627,"lng":2.11633,"type":"country"}],"source":"The Guardian"},{"feed_name":"World","feed_url":"https://rss.nytimes.com/services/xml/rss/nyt/World.xml","title":"He Spent 20 Years in Prison, Until a Serial Killer Confessed to the Crime","summary":"Yoon Sung-yeo was sentenced to life for a crime he did not commit in South Korea. He was able to clear his name after a notorious serial killer confessed last year.","link":"https://www.nytimes.com/2020/12/17/world/asia/korea-murder-acquittal-hwaseong.html","published":"Thu, 17 Dec 2020 12:32:48 +0000","geolocations":[{"name":"Seoul","count":2,"lat":37.55886,"lng":126.99989,"type":"point"},{"name":"South Korea","count":2,"lat":37.55886,"lng":126.99989,"type":"country"},{"name":"Hwaseong","count":1,"lat":37.25236,"lng":126.91989,"type":"point"},{"name":"South Korea’S","count":1,"lat":37.55886,"lng":126.99989,"type":"country"}],"source":"The New York Times"},{"feed_name":"World","feed_url":"https://rss.nytimes.com/services/xml/rss/nyt/World.xml","title":"Once a Slogan of Unity, ‘Je Suis Charlie’ Now Divides France","summary":"After the 2015 terrorist attack on Charlie Hebdo, “I am Charlie” became a unifying slogan of free speech. Now it fuels divisions in an increasingly polarized country.","link":"https://www.nytimes.com/2020/12/19/world/europe/france-charlie-hebdo-slogan.html","published":"Sat, 19 Dec 2020 11:18:09 +0000","geolocations":[{"name":"Paris","count":1,"lat":48.85717,"lng":2.3414,"type":"point"},{"name":"France","count":4,"lat":48.85717,"lng":2.3414,"type":"country"},{"name":"Hollywood","count":1,"lat":26.01067,"lng":-80.16026,"type":"point"}],"source":"The New York Times"},{"feed_name":"World","feed_url":"https://rss.nytimes.com/services/xml/rss/nyt/World.xml","title":"A Canadian’s Gripping Tale Withers Under Scrutiny","summary":"A Burlington, Ontario, man told elaborate and gruesome stories of life in the Islamic State for a New York Times podcast. An examination revealed a pattern of misrepresentation.","link":"https://www.nytimes.com/2020/12/18/world/canada/canada-caliphate-chaudhry.html","published":"Fri, 18 Dec 2020 22:17:47 +0000","geolocations":[{"name":"Syria","count":2,"lat":33.51656,"lng":36.31708,"type":"point"},{"name":"Podcast","count":1,"lat":48.15764,"lng":-4.13881,"type":"point"},{"name":"Burlington","count":1,"lat":43.32619,"lng":-79.79862,"type":"point"},{"name":"Ontario","count":1,"lat":43.64869,"lng":-79.38544,"type":"point"}],"source":"The New York Times"},{"feed_name":"World","feed_url":"https://www.latimes.com/world/rss2.0.xml","title":"Column: Why the U.S. still hasn't solved its mask and glove shortages","summary":"<p>How can it be that we helped develop a vaccine against COVID-19, but front-line healthcare workers still face shortages of simple protective equipment?</p>","link":"https://www.latimes.com/politics/story/2020-12-16/column-why-the-u-s-still-hasnt-solved-its-mask-and-glove-shortages","published":"Wed, 16 Dec 2020 07:00:30 -0500","geolocations":[{"name":"U.S.","count":1,"lat":38.89037,"lng":-77.03196,"type":"country"},{"name":"The United States","count":2,"lat":38.89037,"lng":-77.03196,"type":"country"}],"source":"Los Angeles Times"},{"feed_name":"World","feed_url":"https://rss.nytimes.com/services/xml/rss/nyt/World.xml","title":"California counts the dead by the hour as its I.C.U.s fill up.","summary":"","link":"https://www.nytimes.com/2020/12/18/world/covid-california-icu-capacity.html","published":"Fri, 18 Dec 2020 20:09:54 +0000","geolocations":[{"name":"California","count":1,"lat":38.57944,"lng":-121.49085,"type":"point"},{"name":"Los Angeles County","count":2,"lat":34.28089,"lng":-119.14472,"type":"point"}],"source":"The New York Times"},{"feed_name":"World","feed_url":"https://www.theguardian.com/world/rss","title":"Progressives are a minority in America. To win, they need to compromise | Michael Lind","summary":"<p>Rebuilding something like the New Deal coalition may require winning back socially moderate and conservative voters</p><p>“If we are victorious in one more battle with the Romans, we shall be utterly ruined,” lamented King Pyrrhus of Epirus, whose costly triumph in 279 BC inspired the phrase “Pyrrhic victory”. In 2020, the Democratic party learned what King Pyrrhus was talking about. They recaptured the White House and narrowly held on to the House of Representatives. And if the Democrats win both Senate runoffs in Georgia, they may yet capture the Senate. But Republicans increased their share of the House, making it easier for them to recapture it in 2022, and they control a majority of state legislatures whose redistricting plans for the US Congress can help the Republican party.</p><p>Perhaps the greatest blow has been to the progressive interpretation of American politics. Most progressives have understood Trumpism as the last gasp of a dwindling, reactionary white male population. The future of the Democrats, it was said, lay with women and minorities. And yet in 2020 white men shifted more toward Biden than white women did. Black and brown Americans still voted mostly for Democrats, but there were significant shifts toward the Republicans among black and Hispanic voters and all of the Republicans who took contested seats from the Democrats were minority group members or women.</p> <a href=\"https://www.theguardian.com/us-news/commentisfree/2020/dec/19/progressives-us-democrats-power-new-deal\">Continue reading...</a>","link":"https://www.theguardian.com/us-news/commentisfree/2020/dec/19/progressives-us-democrats-power-new-deal","published":"Sat, 19 Dec 2020 11:21:47 GMT","geolocations":[{"name":"Us","count":1,"lat":38.89037,"lng":-77.03196,"type":"country"}],"source":"The Guardian"},{"feed_name":"World","feed_url":"https://www.latimes.com/world/rss2.0.xml","title":"What could Trump have done to produce a different election outcome?","summary":"<p>One can't help but wonder: What could Trump have done — other than his tragicomic efforts after the fact — to produce a different election outcome?</p>","link":"https://www.latimes.com/politics/story/2020-12-15/what-could-trump-have-done-to-produce-a-different-election-outcome","published":"Tue, 15 Dec 2020 08:00:06 -0500","geolocations":[{"name":"Arizona","count":1,"lat":33.44825,"lng":-112.0758,"type":"point"},{"name":"Wisconsin","count":1,"lat":43.07313,"lng":-89.38644,"type":"point"},{"name":"New York","count":2,"lat":40.71455,"lng":-74.00714,"type":"point"},{"name":"China","count":1,"lat":39.90657,"lng":116.38765,"type":"country"},{"name":"Los Angeles","count":1,"lat":34.05357,"lng":-118.24545,"type":"point"},{"name":"N.Y.","count":2,"lat":40.71455,"lng":-74.00714,"type":"point"},{"name":"Ky","count":1,"lat":19.29657,"lng":-81.38175,"type":"country"},{"name":"Gastonia","count":2,"lat":35.26221,"lng":-81.18702,"type":"point"},{"name":"N.C.","count":1,"lat":-22.24292,"lng":166.46133,"type":"country"}],"source":"Los Angeles Times"},{"feed_name":"World","feed_url":"https://www.latimes.com/world/rss2.0.xml","title":"How the COVID-19 vaccines from Moderna and Pfizer compare head to head","summary":"<p>If the COVID-19 vaccine from Pfizer and BioNTech was good enough to get a nod from the FDA, the vaccine from Moderna and the NIH almost certainly is as well.</p>","link":"https://www.latimes.com/science/story/2020-12-15/how-the-covid-19-vaccines-from-moderna-and-pfizer-compare-head-to-head","published":"Tue, 15 Dec 2020 20:44:52 -0500","geolocations":[{"name":"California","count":1,"lat":38.57944,"lng":-121.49085,"type":"point"},{"name":"Moderna","count":1,"lat":25.69993,"lng":-100.28336,"type":"point"}],"source":"Los Angeles Times"},{"feed_name":"World - Europe","feed_url":"http://feeds.bbci.co.uk/news/world/rss.xml","title":"Prato: The Italian town turning rags into new clothes","summary":"A small Italian town has built its fortune on transforming the world's old scraps into new clothes.","link":"https://www.bbc.co.uk/news/world-europe-55267992","published":"Wed, 16 Dec 2020 00:00:42 GMT","geolocations":[{"name":"Italy","count":1,"lat":41.90322,"lng":12.49565,"type":"country"}],"source":"BBC"},{"feed_name":"World","feed_url":"https://rss.nytimes.com/services/xml/rss/nyt/World.xml","title":"Protestant Church That Found Refuge in Italy’s Hills Helps Syrians Do the Same","summary":"Mindful of a history of persecution, members of the Waldensian Church have been at the forefront of a push to bring refugees from Syria to Italy.","link":"https://www.nytimes.com/2020/12/18/world/europe/protestant-church-that-found-refuge-in-italys-hills-helps-syrians-do-the-same.html","published":"Fri, 18 Dec 2020 21:26:37 +0000","geolocations":[{"name":"Italy","count":1,"lat":41.90322,"lng":12.49565,"type":"country"},{"name":"Syria","count":2,"lat":33.51656,"lng":36.31708,"type":"point"},{"name":"Europe","count":1,"lat":-33.98201,"lng":18.58413,"type":"point"},{"name":"Mediterranean","count":1,"lat":25.04446,"lng":55.13858,"type":"point"},{"name":"Lebanon","count":1,"lat":33.89607,"lng":35.50678,"type":"country"},{"name":"Rome","count":1,"lat":41.90322,"lng":12.49565,"type":"point"},{"name":"Alpine","count":1,"lat":32.83466,"lng":-116.7525,"type":"point"},{"name":"Western Piedmont","count":1,"lat":35.97476,"lng":-83.9716,"type":"point"},{"name":"Piedmont","count":1,"lat":34.70051,"lng":-82.46735,"type":"point"},{"name":"France","count":1,"lat":48.85717,"lng":2.3414,"type":"country"}],"source":"The New York Times"},{"feed_name":"World","feed_url":"https://www.latimes.com/world/rss2.0.xml","title":"This year was not supposed to be anything like 2019 — and COVID made sure of it","summary":"<p>In 2020, we could witness stars being born in a distant galaxy. We could find moments of grace. But we could do little to alter the course of the coronavirus.</p>","link":"https://www.latimes.com/california/story/2020-12-13/2020-year-review-covid-made-sure-year-wasnt-anything-like-2019","published":"Sun, 13 Dec 2020 13:42:36 -0500","geolocations":[{"name":"New Zealand","count":1,"lat":-41.28949,"lng":174.77694,"type":"country"},{"name":"San Jose","count":1,"lat":37.33865,"lng":-121.88542,"type":"point"},{"name":"Australia","count":1,"lat":-35.30654,"lng":149.12655,"type":"country"},{"name":"Baghdad","count":1,"lat":33.3421,"lng":44.39307,"type":"point"},{"name":"Dallas","count":1,"lat":32.77822,"lng":-96.79512,"type":"point"},{"name":"South Los Angeles","count":1,"lat":33.97458,"lng":-118.30042,"type":"point"},{"name":"Kobe","count":1,"lat":-31.6521,"lng":28.04023,"type":"point"},{"name":"Calabasas","count":1,"lat":34.15233,"lng":-118.69328,"type":"point"},{"name":"Culver City","count":1,"lat":34.02161,"lng":-118.39621,"type":"point"},{"name":"Huntington Beach","count":1,"lat":33.67893,"lng":-118.00157,"type":"point"},{"name":"Sturgis","count":1,"lat":44.4153,"lng":-103.50898,"type":"point"},{"name":"S.D.","count":1,"lat":44.36905,"lng":-100.35,"type":"point"},{"name":"Americas","count":1,"lat":19.28196,"lng":-99.6453,"type":"point"},{"name":"Hollywood","count":1,"lat":26.01067,"lng":-80.16026,"type":"point"},{"name":"Tel Aviv","count":1,"lat":32.08556,"lng":34.78953,"type":"point"},{"name":"Thailand","count":1,"lat":13.75336,"lng":100.50483,"type":"country"},{"name":"Queens","count":1,"lat":46.2576,"lng":-63.11851,"type":"point"},{"name":"The United States","count":1,"lat":38.89037,"lng":-77.03196,"type":"country"},{"name":"Indigenous","count":1,"lat":-17.88178,"lng":30.96549,"type":"point"},{"name":"Inglewood","count":1,"lat":33.96178,"lng":-118.35653,"type":"point"},{"name":"Pasadena","count":1,"lat":34.14745,"lng":-118.14427,"type":"point"},{"name":"Rome","count":1,"lat":41.90322,"lng":12.49565,"type":"point"},{"name":"San Diego","count":1,"lat":32.71568,"lng":-117.16171,"type":"point"},{"name":"Silver Lake","count":1,"lat":42.54924,"lng":-88.16699,"type":"point"},{"name":"Minneapolis","count":3,"lat":44.97902,"lng":-93.26494,"type":"point"},{"name":"Los Angeles","count":2,"lat":34.05357,"lng":-118.24545,"type":"point"},{"name":"Washington","count":1,"lat":38.89037,"lng":-77.03196,"type":"point"},{"name":"D.C.","count":1,"lat":4.61496,"lng":-74.06941,"type":"point"},{"name":"Portland","count":1,"lat":45.51179,"lng":-122.67563,"type":"point"},{"name":"Ore.","count":1,"lat":6.76139,"lng":4.8762,"type":"point"},{"name":"Mississippi","count":2,"lat":32.29887,"lng":-90.18045,"type":"point"},{"name":"Manhattan Beach","count":1,"lat":33.8872,"lng":-118.41086,"type":"point"},{"name":"America","count":1,"lat":51.43739,"lng":5.98176,"type":"point"}],"source":"Los Angeles Times"},{"feed_name":"World","feed_url":"https://rss.nytimes.com/services/xml/rss/nyt/World.xml","title":"Du Bin, Chinese Journalist, Is Detained in Beijing","summary":"Friends of Du Bin said that his detention might have been related to book projects critical of the history of Communism and China’s Communist Party.","link":"https://www.nytimes.com/2020/12/18/world/asia/chinese-journalist-du-bin-detained.html","published":"Fri, 18 Dec 2020 09:59:40 +0000","geolocations":[{"name":"China","count":1,"lat":39.90657,"lng":116.38765,"type":"country"},{"name":"Beijing","count":1,"lat":39.90657,"lng":116.38765,"type":"point"},{"name":"Du Jirong","count":1,"lat":25.91249,"lng":91.5851,"type":"point"},{"name":"Taiwan","count":2,"lat":25.03737,"lng":121.56355,"type":"country"},{"name":"Changchun","count":1,"lat":28.51231,"lng":105.32651,"type":"point"}],"source":"The New York Times"},{"feed_name":"World","feed_url":"https://www.latimes.com/world/rss2.0.xml","title":"Unwelcome in other countries, Americans are fleeing lockdowns and flocking to Mexico","summary":"<p>Tourism is quickly recovering in Mexico, as Americans flock south for an easy escape. But it's also bringing an uptick in COVID-19 cases.</p>","link":"https://www.latimes.com/world-nation/story/2020-12-13/unwelcome-in-other-countries-and-amid-lockdowns-at-home-americans-are-flocking-to-mexico","published":"Sun, 13 Dec 2020 06:00:37 -0500","geolocations":[{"name":"Cabo San Lucas","count":5,"lat":22.89406,"lng":-109.92628,"type":"point"},{"name":"Houston","count":2,"lat":29.76078,"lng":-95.36952,"type":"point"},{"name":"U.S.","count":1,"lat":38.89037,"lng":-77.03196,"type":"country"},{"name":"Mexico","count":8,"lat":23.94757,"lng":-102.5411,"type":"country"},{"name":"Pacific","count":2,"lat":38.48359,"lng":-90.74141,"type":"point"},{"name":"Caribbean","count":2,"lat":30.47333,"lng":-86.42132,"type":"point"},{"name":"Canada","count":3,"lat":45.42178,"lng":-75.69116,"type":"country"},{"name":"Europe","count":1,"lat":-33.98201,"lng":18.58413,"type":"point"},{"name":"The United States","count":3,"lat":38.89037,"lng":-77.03196,"type":"country"},{"name":"San Jose","count":3,"lat":37.33865,"lng":-121.88542,"type":"point"},{"name":"Cabo","count":3,"lat":42.23805,"lng":1.24898,"type":"point"},{"name":"California","count":2,"lat":38.57944,"lng":-121.49085,"type":"point"},{"name":"Carpinteria","count":1,"lat":34.39152,"lng":-119.50831,"type":"point"},{"name":"Los Cabos","count":7,"lat":23.06158,"lng":-109.69529,"type":"point"},{"name":"Cancun","count":1,"lat":21.12741,"lng":-86.83753,"type":"point"},{"name":"Puerto Vallarta","count":1,"lat":20.60841,"lng":-105.23525,"type":"point"},{"name":"Tulum","count":1,"lat":20.21087,"lng":-87.46322,"type":"point"},{"name":"New York","count":1,"lat":40.71455,"lng":-74.00714,"type":"point"},{"name":"Miami","count":1,"lat":25.77481,"lng":-80.19773,"type":"point"},{"name":"Orange Villas","count":1,"lat":29.10582,"lng":-80.99153,"type":"point"},{"name":"Wisconsin","count":1,"lat":43.07313,"lng":-89.38644,"type":"point"},{"name":"Gulf","count":1,"lat":35.18009,"lng":-119.17264,"type":"point"},{"name":"Austin","count":1,"lat":30.26759,"lng":-97.74299,"type":"point"},{"name":"Texas","count":1,"lat":30.26759,"lng":-97.74299,"type":"point"}],"source":"Los Angeles Times"},{"feed_name":"World","feed_url":"https://www.theguardian.com/world/rss","title":"Tunisia and the Arab spring 10 years on: 'We tried to rise'","summary":"<p>When a young street seller set himself on fire to protest lack of employment opportunities and government corruption, Tunisia became the cradle of the Arab spring revolutions that swept the middle east. Less than a month later, the dictator Ben Ali had to flee the country he had ruled for 23 years. Ten years on, what change has the revolution brought and was the sacrifice of so many worth the price?</p><ul><li>Some captions and subtitles accompanying this video were amended on 17 December 2020 to more clearly state that radical Islamist protesters depicted were affiliated to Ansar al-Sharia, and to clarify the results of the 2014 election.</li></ul> <a href=\"https://www.theguardian.com/world/video/2020/dec/17/tunisia-and-the-arab-spring-10-years-on-we-tried-to-rise\">Continue reading...</a>","link":"https://www.theguardian.com/world/video/2020/dec/17/tunisia-and-the-arab-spring-10-years-on-we-tried-to-rise","published":"Thu, 17 Dec 2020 09:02:33 GMT","geolocations":[{"name":"Tunisia","count":1,"lat":36.80001,"lng":10.1827,"type":"country"},{"name":"The Middle East","count":1,"lat":39.29996,"lng":-76.58967,"type":"point"}],"source":"The Guardian"},{"feed_name":"World","feed_url":"https://www.latimes.com/world/rss2.0.xml","title":"2020 was the year America embraced Black Lives Matter as a movement, not just a moment","summary":"<p>What most Californians will remember about summer 2020 will be George Floyd and the protests over racial injustice. But will the movement survive? </p>","link":"https://www.latimes.com/california/story/2020-12-16/black-lives-matter-protests-george-floyd-coronavirus-covid-2020","published":"Wed, 16 Dec 2020 08:00:59 -0500","geolocations":[{"name":"Venice","count":1,"lat":45.43811,"lng":12.31815,"type":"point"},{"name":"Minneapolis","count":2,"lat":44.97902,"lng":-93.26494,"type":"point"},{"name":"Los Angeles","count":1,"lat":34.05357,"lng":-118.24545,"type":"point"},{"name":"California","count":1,"lat":38.57944,"lng":-121.49085,"type":"point"},{"name":"Santa Ana","count":1,"lat":9.93432,"lng":-84.18176,"type":"point"},{"name":"Louisville","count":1,"lat":38.25489,"lng":-85.76666,"type":"point"},{"name":"Ky.","count":1,"lat":19.29657,"lng":-81.38175,"type":"country"},{"name":"Gardena","count":1,"lat":33.88379,"lng":-118.30702,"type":"point"},{"name":"Santa Monica","count":1,"lat":34.01158,"lng":-118.49227,"type":"point"},{"name":"Beverly Hills","count":1,"lat":34.0736,"lng":-118.40046,"type":"point"},{"name":"America","count":1,"lat":51.43739,"lng":5.98176,"type":"point"}],"source":"Los Angeles Times"},{"feed_name":"World","feed_url":"https://www.latimes.com/world/rss2.0.xml","title":"A lifelong Republican stood up to Trump. His reward: Death threats","summary":"<p>Georgia election official Gabriel Sterling is girding for another battle with conspiracy theories and lies about the integrity of the voting system. </p>","link":"https://www.latimes.com/world-nation/story/2020-12-14/why-a-life-long-republican-took-on-trump-and-his-job-isnt-yet-done","published":"Mon, 14 Dec 2020 07:00:35 -0500","geolocations":[{"name":"Nevada","count":1,"lat":39.16506,"lng":-119.76697,"type":"point"},{"name":"Fulton County","count":1,"lat":43.19048,"lng":-84.70875,"type":"point"},{"name":"Philadelphia","count":1,"lat":39.95222,"lng":-75.16218,"type":"point"},{"name":"Sandy Springs","count":1,"lat":33.92483,"lng":-84.37908,"type":"point"},{"name":"Atlanta","count":2,"lat":33.74831,"lng":-84.39111,"type":"point"},{"name":"Washington","count":1,"lat":38.89037,"lng":-77.03196,"type":"point"},{"name":"Jarvie","count":1,"lat":54.45442,"lng":-113.98794,"type":"point"}],"source":"Los Angeles Times"},{"feed_name":"World","feed_url":"https://www.latimes.com/world/rss2.0.xml","title":"Column: Here's what Sen. Mike Lee got wrong about a Smithsonian Latino museum","summary":"<p>The Utah senator described the Smithsonian's proposed National Museum of the American Latino as divisive. More divisive: a society that erases Latinos</p>","link":"https://www.latimes.com/entertainment-arts/story/2020-12-17/utah-senator-mike-lee-blocks-smithsonian-latino-museum","published":"Thu, 17 Dec 2020 03:01:33 -0500","geolocations":[{"name":"Washington","count":1,"lat":38.89037,"lng":-77.03196,"type":"point"},{"name":"Utah","count":3,"lat":40.76031,"lng":-111.88822,"type":"point"},{"name":"New Jersey","count":2,"lat":40.21788,"lng":-74.7594,"type":"point"},{"name":"U.S.","count":7,"lat":38.89037,"lng":-77.03196,"type":"country"},{"name":"Europe","count":1,"lat":-33.98201,"lng":18.58413,"type":"point"},{"name":"Latin America","count":1,"lat":41.62788,"lng":13.34278,"type":"point"},{"name":"Southwest","count":1,"lat":17.68981,"lng":-64.86195,"type":"point"},{"name":"Mexico","count":1,"lat":23.94757,"lng":-102.5411,"type":"country"},{"name":"Hollywood","count":1,"lat":26.01067,"lng":-80.16026,"type":"point"},{"name":"Texas","count":1,"lat":30.26759,"lng":-97.74299,"type":"point"},{"name":"El Paso","count":1,"lat":31.75916,"lng":-106.48749,"type":"point"},{"name":"California","count":3,"lat":38.57944,"lng":-121.49085,"type":"point"}],"source":"Los Angeles Times"},{"feed_name":"World","feed_url":"https://rss.nytimes.com/services/xml/rss/nyt/World.xml","title":"In the U.K., Johnson resists ‘canceling’ Christmas to stem the coronavirus.","summary":"","link":"https://www.nytimes.com/2020/12/17/world/in-the-uk-johnson-resists-canceling-christmas-to-stem-the-coronavirus.html","published":"Thu, 17 Dec 2020 11:13:29 +0000","geolocations":[{"name":"United Kingdom","count":1,"lat":38.95953,"lng":-91.92768,"type":"point"},{"name":"London","count":1,"lat":51.50643,"lng":-0.12719,"type":"point"}],"source":"The New York Times"},{"feed_name":"World","feed_url":"https://www.theguardian.com/world/rss","title":"Blind date: ‘I got all I was hoping for. No question’","summary":"<p>Florrie, 47, makeup artist, and James, 47, singer/songwriter and music teacher</p><p><strong>What were you hoping for?</strong><br />To meet Prince Charming, be rescued from my loveless life and live happily ever after. I grew up on fairytales.</p> <a href=\"https://www.theguardian.com/lifeandstyle/2020/dec/19/blind-date-i-got-all-i-was-hoping-for-no-question-florrie-james\">Continue reading...</a>","link":"https://www.theguardian.com/lifeandstyle/2020/dec/19/blind-date-i-got-all-i-was-hoping-for-no-question-florrie-james","published":"Sat, 19 Dec 2020 06:00:42 GMT","geolocations":[{"name":"Ibiza","count":1,"lat":38.90625,"lng":1.41954,"type":"point"},{"name":"London","count":1,"lat":51.50643,"lng":-0.12719,"type":"point"},{"name":"La","count":1,"lat":17.9518,"lng":102.61892,"type":"country"}],"source":"The Guardian"},{"feed_name":"World","feed_url":"https://rss.nytimes.com/services/xml/rss/nyt/World.xml","title":"U.K. Lawmaker Under Fire for Calling UNICEF’s Free Meals a ‘Political Stunt’","summary":"Jacob Rees-Mogg said the agency should be ashamed of itself for providing free meals to 15,000 children in Britain, prompting a backlash.","link":"https://www.nytimes.com/2020/12/18/world/europe/uk-lawmaker-under-fire-for-calling-unicefs-free-meals-a-political-stunt.html","published":"Fri, 18 Dec 2020 15:21:42 +0000","geolocations":[{"name":"London","count":2,"lat":51.50643,"lng":-0.12719,"type":"point"},{"name":"United Kingdom","count":2,"lat":38.95953,"lng":-91.92768,"type":"point"}],"source":"The New York Times"},{"feed_name":"World","feed_url":"https://www.theguardian.com/world/rss","title":"Africa steps up fight against HIV with trial of new combination vaccines","summary":"<p>African-led study expected to involve 1,600 people over next three years in Uganda, Tanzania, Mozambique and South Africa<br /></p><p>The first trial in Africa to test two new vaccines to protect against HIV got under way in Uganda this week, raising hopes of an end to the epidemic that affects millions of people across the continent.</p><p>The African-led <a href=\"https://www.prepvacc.org/\">PrEPVacc study</a> will test two experimental combination vaccines to see if they can provide any protection against HIV in people most at risk of infection.</p> <a href=\"https://www.theguardian.com/global-development/2020/dec/18/africa-steps-up-fight-against-hiv-with-trial-of-new-combination-vaccines\">Continue reading...</a>","link":"https://www.theguardian.com/global-development/2020/dec/18/africa-steps-up-fight-against-hiv-with-trial-of-new-combination-vaccines","published":"Fri, 18 Dec 2020 06:45:01 GMT","geolocations":[{"name":"Uganda","count":8,"lat":0.31589,"lng":32.57501,"type":"country"},{"name":"Tanzania","count":2,"lat":-6.1735,"lng":35.74689,"type":"country"},{"name":"Mozambique","count":2,"lat":-25.97456,"lng":32.57327,"type":"country"},{"name":"South Africa","count":3,"lat":-25.74587,"lng":28.18764,"type":"country"},{"name":"Africa","count":5,"lat":43.10832,"lng":12.77534,"type":"point"},{"name":"Europe","count":1,"lat":-33.98201,"lng":18.58413,"type":"point"},{"name":"Us","count":1,"lat":38.89037,"lng":-77.03196,"type":"country"},{"name":"Masaka","count":1,"lat":-0.31706,"lng":31.74184,"type":"point"}],"source":"The Guardian"},{"feed_name":"World","feed_url":"https://www.theguardian.com/world/rss","title":"'If a smuggler says do it, you do': refugees on trying to rescue their friends from the Channel","summary":"<p>Two Kurdish asylum seekers made frantic attempts to save lives of family whose boat capsized in rough conditions </p><p>Two asylum seekers who were in the same boat as a Kurdish Iranian family who <a href=\"https://www.theguardian.com/uk-news/2020/oct/29/maybe-we-will-reach-the-uk-or-maybe-we-will-die-in-the-sea-say-asylum-seekers\">drowned</a> trying to cross the Channel have spoken out about their frantic attempts to save the family’s lives after the vessel capsized.</p><p>Rasul Iran Nezhad, his wife, Shiva Mohammad Panahi, both 35, and their children: Anita, nine, Armin, six, and 15-month-old Artin, were among 22 people who boarded the boat, a rigid polyester structure about 20ft long, in October.</p> <a href=\"https://www.theguardian.com/uk-news/2020/dec/19/if-a-smuggler-says-do-it-you-do-refugees-on-trying-to-rescue-their-friends-from-the-channel\">Continue reading...</a>","link":"https://www.theguardian.com/uk-news/2020/dec/19/if-a-smuggler-says-do-it-you-do-refugees-on-trying-to-rescue-their-friends-from-the-channel","published":"Sat, 19 Dec 2020 07:00:43 GMT","geolocations":[{"name":"Sardasht","count":1,"lat":37.18721,"lng":43.53521,"type":"point"},{"name":"Iran","count":4,"lat":35.68877,"lng":51.41503,"type":"country"},{"name":"Calais","count":1,"lat":50.95319,"lng":1.85366,"type":"point"},{"name":"Artin","count":1,"lat":45.846,"lng":1.76912,"type":"point"},{"name":"Jungle","count":1,"lat":46.04497,"lng":-0.05649,"type":"point"}],"source":"The Guardian"},{"feed_name":"World - Europe","feed_url":"http://feeds.bbci.co.uk/news/world/rss.xml","title":"Covid-19: Explosion kills nine coronavirus patients in Turkey","summary":"Nine people are killed as an oxygen ventilator explodes at a coronavirus ward of a private hospital.","link":"https://www.bbc.co.uk/news/world-europe-55376008","published":"Sat, 19 Dec 2020 11:49:01 GMT","geolocations":[{"name":"Russia","count":1,"lat":55.75696,"lng":37.61502,"type":"country"}],"source":"BBC"},{"feed_name":"World","feed_url":"https://rss.nytimes.com/services/xml/rss/nyt/World.xml","title":"Cold storage, crucial to the vaccine, has caught Wall Street’s eye.","summary":"","link":"https://www.nytimes.com/2020/12/16/world/cold-storage-crucial-to-the-vaccine-has-caught-wall-streets-eye.html","published":"Thu, 17 Dec 2020 09:46:13 +0000","geolocations":[{"name":"The South Pole","count":1,"lat":-34.99193,"lng":147.20553,"type":"point"},{"name":"The United States","count":1,"lat":38.89037,"lng":-77.03196,"type":"country"}],"source":"The New York Times"},{"feed_name":"World","feed_url":"https://rss.nytimes.com/services/xml/rss/nyt/World.xml","title":"Putin says Russians may get one vaccine shot, not two, to speed things up.","summary":"","link":"https://www.nytimes.com/2020/12/17/world/putin-says-russians-may-get-one-vaccine-shot-not-two-to-speed-things-up.html","published":"Thu, 17 Dec 2020 18:19:31 +0000","geolocations":[{"name":"Russia","count":2,"lat":55.75696,"lng":37.61502,"type":"country"},{"name":"Sputnik","count":1,"lat":53.26467,"lng":50.41254,"type":"point"}],"source":"The New York Times"},{"feed_name":"World - Europe","feed_url":"http://feeds.bbci.co.uk/news/world/rss.xml","title":"US charges ex-Zoom employee with shutting down Tiananmen Square events","summary":"US prosecutors say the China-based executive terminated meetings discussing the 1989 crackdown.","link":"https://www.bbc.co.uk/news/world-us-canada-55372493","published":"Sat, 19 Dec 2020 03:04:46 GMT","geolocations":[{"name":"China","count":1,"lat":39.90657,"lng":116.38765,"type":"country"}],"source":"BBC"},{"feed_name":"World","feed_url":"https://www.theguardian.com/world/rss","title":"Jackie Kay meets Brit Bennett: ‘I can't write about the pandemic. No part of me wants to revisit this year’","summary":"<p>The poet laureate of Scotland and the author of The Vanishing Half talk about featuring on ‘black reading lists’, the fear of wasting time and that tricky second novel</p><ul><li><a href=\"https://www.theguardian.com/lifeandstyle/series/real-talk--a-conversation-special\">Read the other conversations in this series</a></li></ul><p>During the resurgence of the Black Lives Matter movement this summer, books written by black authors were suddenly on everyone’s wishlists and timelines. They climbed to the top of the bestsellers charts and were picked up by avid anti-racists and clueless Instagram influencers alike. They were also left on the shelves by those who ordered them in a blinding flash of white guilt and didn’t bother to read them. Google “black authors 2020” and you’ll get dozens of reading lists. On many, you’ll see Brit Bennett’s novel, <a href=\"https://www.theguardian.com/books/2020/jun/23/the-vanishing-half-by-brit-bennett-review-two-faces-of-the-black-experience\" title=\"\">The Vanishing Half</a>, published in June. And on others, you’ll find the work of <a href=\"https://www.theguardian.com/books/2020/may/22/scottish-national-poet-jackie-kay-talks-about-racism-she-endured-as-a-child\" title=\"\">Jackie Kay, the Scots Makar</a> (Scotland’s poet laureate).</p><p>Bennett’s second novel, which I read in the throes of a lonely summer, did not resonate for me just because it focuses on the complexities of race; nor did Jackie Kay’s book Strawgirl, published in 2002, become one of my favourite childhood books purely because it featured a Nigerian-Scottish protagonist whose racial identity I could relate to. Instead, both these books resonated because their authors are warm storytellers with a rich interest in how and why people move through the world. These are writers full of ideas and heart, who will make you care as deeply about their characters as they do, whether a grizzled man injured up a Scottish mountain, or a scared American housewife baking a lopsided cake.</p> <a href=\"https://www.theguardian.com/lifeandstyle/2020/dec/19/jackie-kay-brit-bennett-scottish-poet-laureate-vanishing-half\">Continue reading...</a>","link":"https://www.theguardian.com/lifeandstyle/2020/dec/19/jackie-kay-brit-bennett-scottish-poet-laureate-vanishing-half","published":"Sat, 19 Dec 2020 10:30:46 GMT","geolocations":[{"name":"Scotland","count":3,"lat":55.95438,"lng":-3.20144,"type":"country"},{"name":"Atlantic","count":1,"lat":39.36287,"lng":-74.42637,"type":"point"},{"name":"California","count":1,"lat":38.57944,"lng":-121.49085,"type":"point"},{"name":"Highlands","count":1,"lat":35.05342,"lng":-83.19668,"type":"point"},{"name":"New York","count":1,"lat":40.71455,"lng":-74.00714,"type":"point"},{"name":"Louisiana","count":1,"lat":30.44335,"lng":-91.18664,"type":"point"},{"name":"Gay Edinburgh","count":1,"lat":55.95438,"lng":-3.20144,"type":"point"},{"name":"France","count":2,"lat":48.85717,"lng":2.3414,"type":"country"},{"name":"Nigeria","count":1,"lat":9.06344,"lng":7.46228,"type":"country"},{"name":"The United States","count":1,"lat":38.89037,"lng":-77.03196,"type":"country"},{"name":"America","count":1,"lat":51.43739,"lng":5.98176,"type":"point"},{"name":"Mallard","count":1,"lat":42.93774,"lng":-94.68176,"type":"point"}],"source":"The Guardian"},{"feed_name":"World","feed_url":"https://www.theguardian.com/world/rss","title":"Keir Starmer: Christmas relaxation of Covid rules is Boris Johnson's 'next big mistake' – video","summary":"<p>Plans to relax Covid restrictions over Christmas are an error, says the Labour leader, as swathes of England have either entered or will enter tier 3 this week, and with mounting cases and hospitalisations. But Boris Johnson has resisted calls to reverse the five-day relaxation, instead urging the public to take individual responsibility. 'The prime minister should take the hard decisions, not hand them over to individuals,' says Starmer.</p><ul><li><a href=\"https://www.theguardian.com/politics/live/2020/dec/18/brexit-coronavirus-covid-uk-michel-barnier-boris-johnson-eu-trade-talks-news-live-updates\">UK coronavirus live</a></li><li><a href=\"https://www.theguardian.com/politics/2020/dec/18/boris-johnson-refuses-to-rule-out-third-covid-lockdown-for-england\">Boris Johnson refuses to rule out third Covid lockdown for England</a></li></ul> <a href=\"https://www.theguardian.com/world/video/2020/dec/18/keir-starmer-christmas-relaxation-of-covid-rules-is-boris-johnsons-next-big-mistake-video\">Continue reading...</a>","link":"https://www.theguardian.com/world/video/2020/dec/18/keir-starmer-christmas-relaxation-of-covid-rules-is-boris-johnsons-next-big-mistake-video","published":"Fri, 18 Dec 2020 18:46:58 GMT","geolocations":[{"name":"England","count":1,"lat":51.50643,"lng":-0.12719,"type":"country"}],"source":"The Guardian"},{"feed_name":"World","feed_url":"https://rss.nytimes.com/services/xml/rss/nyt/World.xml","title":"Nursing home residents rejoice over first coronavirus vaccines.","summary":"","link":"https://www.nytimes.com/2020/12/17/world/nursing-home-residents-rejoice-over-first-coronavirus-vaccines.html","published":"Thu, 17 Dec 2020 17:14:27 +0000","geolocations":[{"name":"West Virginia","count":1,"lat":38.35016,"lng":-81.63895,"type":"point"},{"name":"Morgantown","count":1,"lat":39.63053,"lng":-79.95771,"type":"point"},{"name":"W.Va","count":1,"lat":36.9522,"lng":-92.65993,"type":"point"},{"name":"The United States","count":1,"lat":38.89037,"lng":-77.03196,"type":"country"}],"source":"The New York Times"},{"feed_name":"World","feed_url":"https://rss.nytimes.com/services/xml/rss/nyt/World.xml","title":"What’s It Like to Cruise in the Covid Era? To Find Out, I Went Aboard","summary":"A “cruise to nowhere” offered one correspondent a chance to understand an interesting trend, and to interview people in person.","link":"https://www.nytimes.com/2020/12/18/insider/covid-cruise-to-nowhere.html","published":"Fri, 18 Dec 2020 10:00:22 +0000","geolocations":[{"name":"Singapore","count":4,"lat":1.29041,"lng":103.85211,"type":"country"},{"name":"Beijing","count":1,"lat":39.90657,"lng":116.38765,"type":"point"},{"name":"China","count":1,"lat":39.90657,"lng":116.38765,"type":"country"},{"name":"United Kingdom","count":1,"lat":38.95953,"lng":-91.92768,"type":"point"},{"name":"The United States","count":1,"lat":38.89037,"lng":-77.03196,"type":"country"}],"source":"The New York Times"},{"feed_name":"World","feed_url":"https://rss.nytimes.com/services/xml/rss/nyt/World.xml","title":"Indian Call-Center Plot Fooled Americans Into Paying Over $14 Million","summary":"The scammers told victims that their assets and bank accounts had been linked to drug cartels and would be seized if they didn’t pay up, the authorities in India said.","link":"https://www.nytimes.com/2020/12/17/world/asia/india-call-center-scam.html","published":"Thu, 17 Dec 2020 22:04:32 +0000","geolocations":[{"name":"New Delhi","count":3,"lat":28.63095,"lng":77.21721,"type":"point"},{"name":"U.S.","count":1,"lat":38.89037,"lng":-77.03196,"type":"country"},{"name":"Mexico","count":1,"lat":23.94757,"lng":-102.5411,"type":"country"},{"name":"Colombia","count":1,"lat":4.61496,"lng":-74.06941,"type":"country"}],"source":"The New York Times"},{"feed_name":"World - Europe","feed_url":"http://feeds.bbci.co.uk/news/world/rss.xml","title":"Nigeria school attack: Was it really Boko Haram?","summary":"Militant activity is spreading across northern Nigeria with other groups expressing allegiance to Boko Haram","link":"https://www.bbc.co.uk/news/world-africa-55317021","published":"Fri, 18 Dec 2020 10:53:38 GMT","geolocations":[{"name":"Chibok","count":1,"lat":10.87173,"lng":12.84493,"type":"point"},{"name":"Yobe","count":1,"lat":12.29913,"lng":11.43043,"type":"point"}],"source":"BBC"},{"feed_name":"World","feed_url":"https://www.theguardian.com/world/rss","title":"South Sudan faces 'catastrophic' famine unless conflict ended","summary":"<p>UN agencies say millions at risk if aid can’t reach areas of country stricken by floods, violence and Covid-19</p><p>Parts of South Sudan are facing a “catastrophic” conflict-fuelled famine, humanitarian groups warned on Friday.</p><p>Three UN agencies have called for a halt to violence to allow urgent access to parts of Jonglei state, where they said people have already run out of food because of insecurity, flooding and the coronavirus pandemic.</p> <a href=\"https://www.theguardian.com/global-development/2020/dec/18/south-sudan-faces-catastrophic-famine-unless-conflict-ended\">Continue reading...</a>","link":"https://www.theguardian.com/global-development/2020/dec/18/south-sudan-faces-catastrophic-famine-unless-conflict-ended","published":"Fri, 18 Dec 2020 15:55:34 GMT","geolocations":[{"name":"Sudan","count":2,"lat":15.58651,"lng":32.52318,"type":"point"},{"name":"South Sudan","count":7,"lat":4.83975,"lng":31.59758,"type":"country"},{"name":"Unicef","count":1,"lat":9.01528,"lng":38.76898,"type":"point"},{"name":"Pibor County","count":1,"lat":59.35756,"lng":14.9719,"type":"point"},{"name":"Warrap","count":1,"lat":18.61606,"lng":73.12697,"type":"point"},{"name":"United Kingdom","count":1,"lat":38.95953,"lng":-91.92768,"type":"point"},{"name":"South Sudan’S","count":1,"lat":4.83975,"lng":31.59758,"type":"country"}],"source":"The Guardian"},{"feed_name":"World - Europe","feed_url":"http://feeds.bbci.co.uk/news/world/rss.xml","title":"Covid: Italy latest European country to order Christmas lockdown","summary":"Non-essential shops will be closed with travel only allowed for work, health and emergency reasons.","link":"https://www.bbc.co.uk/news/world-europe-55372491","published":"Sat, 19 Dec 2020 04:37:11 GMT","geolocations":[{"name":"Sweden","count":1,"lat":59.33257,"lng":18.06683,"type":"country"}],"source":"BBC"},{"feed_name":"World","feed_url":"https://www.theguardian.com/world/rss","title":"Covid is a chance to build a world where everyone has access to basic vaccines | David Miliband and Anuradha Gupta","summary":"<p>Preventable diseases still plague those missing out on vaccines. Efforts to halt coronavirus could help crack this issue</p><ul><li><a href=\"https://www.theguardian.com/world/series/coronavirus-live/latest\">Coronavirus – latest updates</a></li><li><a href=\"https://www.theguardian.com/world/coronavirus-outbreak\">See all our coronavirus coverage</a></li></ul><p>The massive public, private and foundation investments in a coronavirus vaccine are producing results at a record pace. And countries are reacting accordingly. A <a href=\"https://globalhealth.duke.edu/news/will-low-income-countries-be-left-behind-when-covid-19-vaccines-arrive\">recent global assessment </a>of purchasing agreements for Covid-19 vaccines reveals that high-income countries, as well as a few middle-income countries with high manufacturing capacity, have already bought enough doses for their populations.</p><p>But delivery of the vaccine needs a new level of focus. This is especially the case for populations in poor and war-torn countries, where the health system is weak or nonexistent. <a href=\"https://www.who.int/news/item/15-07-2019-20-million-children-miss-out-on-lifesaving-measles-diphtheria-and-tetanus-vaccines-in-2018\">Even before the pandemic</a>, approximately 20 million infants a year, often some of the most vulnerable in the world, were missing out on basic vaccines. For example, there are estimated to be more than <a href=\"https://www.gavi.org/news/media-room/gavi-helps-immunise-65-million-children-2019-though-covid-19-puts-progress-under\">10.6 million children</a> in the world’s poorest countries who in 2019 did not receive even a first dose of a diphtheria-pertussis-tetanus vaccine (DPT).</p> <a href=\"https://www.theguardian.com/global-development/2020/dec/18/covid-is-a-chance-to-build-a-world-where-everyone-has-access-to-basic-vaccines\">Continue reading...</a>","link":"https://www.theguardian.com/global-development/2020/dec/18/covid-is-a-chance-to-build-a-world-where-everyone-has-access-to-basic-vaccines","published":"Fri, 18 Dec 2020 08:15:03 GMT","geolocations":[{"name":"Yemen","count":1,"lat":15.3667,"lng":44.21122,"type":"point"},{"name":"Bazar","count":1,"lat":22.56628,"lng":88.36115,"type":"point"},{"name":"Bangladesh","count":1,"lat":23.71325,"lng":90.39959,"type":"country"},{"name":"Myanmar","count":1,"lat":21.11892,"lng":96.51169,"type":"country"},{"name":"Kenya","count":1,"lat":-1.28352,"lng":36.82379,"type":"country"}],"source":"The Guardian"},{"feed_name":"World","feed_url":"https://www.theguardian.com/world/rss","title":"Armenia begins period of mourning for victims of Azerbaijan clashes","summary":"<p>Three-day event comes as calls grow for PM to resign for handling of conflict over Nagorno-Karabakh</p><p>Armenia began three days of mourning on Saturday for the victims of clashes with Azerbaijan as the opposition kept up pressure on the country’s leader to resign over the handling of the conflict.</p><p>More than 5,000 people including civilians were killed in Armenia and Azerbaijan when clashes erupted between the ex-Soviet enemies in late September over the breakaway region of Nagorno-Karabakh.</p> <a href=\"https://www.theguardian.com/world/2020/dec/19/armenia-begins-period-of-mourning-for-victims-of-azerbaijan-clashes\">Continue reading...</a>","link":"https://www.theguardian.com/world/2020/dec/19/armenia-begins-period-of-mourning-for-victims-of-azerbaijan-clashes","published":"Sat, 19 Dec 2020 12:52:55 GMT","geolocations":[{"name":"Armenia","count":4,"lat":40.17871,"lng":44.513,"type":"country"},{"name":"Azerbaijan","count":5,"lat":40.41066,"lng":49.87222,"type":"country"},{"name":"Moscow","count":2,"lat":55.75696,"lng":37.61502,"type":"point"},{"name":"Turkey","count":1,"lat":39.92109,"lng":32.85391,"type":"country"},{"name":"Yerevan","count":1,"lat":40.17871,"lng":44.513,"type":"point"},{"name":"Russia","count":1,"lat":55.75696,"lng":37.61502,"type":"country"}],"source":"The Guardian"},{"feed_name":"World","feed_url":"https://www.theguardian.com/world/rss","title":"Mexico: assassin shoots former state governor in restaurant bathroom","summary":"<p>Aristóteles Sandoval was shot in the back in bathroom in Puerto Vallarta, and died soon afterwards at local hospital</p><p>The former governor of <a href=\"https://www.theguardian.com/world/mexico\">Mexico</a>’s violence-wracked western state of Jalisco has been shot dead in a restaurant bathroom in the popular beach resort of Puerto Vallarta.</p><p>Aristóteles Sandoval was dining with four others when at around 1.40 on Friday he got up from the table and went to the toilet, where the killer shot him in the back, said the state attorney general, Gerardo Octavio Solís.</p> <a href=\"https://www.theguardian.com/world/2020/dec/18/aristoteles-sandoval-mexico-jalisco-shot-dead-puerto-vallarta\">Continue reading...</a>","link":"https://www.theguardian.com/world/2020/dec/18/aristoteles-sandoval-mexico-jalisco-shot-dead-puerto-vallarta","published":"Fri, 18 Dec 2020 16:22:47 GMT","geolocations":[{"name":"Mexico","count":1,"lat":23.94757,"lng":-102.5411,"type":"country"},{"name":"Jalisco","count":4,"lat":20.58078,"lng":-103.61323,"type":"point"},{"name":"Puerto Vallarta","count":2,"lat":20.60841,"lng":-105.23525,"type":"point"},{"name":"Colima","count":1,"lat":19.24249,"lng":-103.7273,"type":"point"},{"name":"Sinaloa","count":1,"lat":25.82104,"lng":-108.22266,"type":"point"},{"name":"Guadalajara","count":1,"lat":20.68758,"lng":-103.35104,"type":"point"}],"source":"The Guardian"},{"feed_name":"World","feed_url":"https://rss.nytimes.com/services/xml/rss/nyt/World.xml","title":"The Least for Those Who Need It Most","summary":"And what else you need to know today.","link":"https://www.nytimes.com/2020/12/18/briefing/moderna-vaccine-biden-deb-haaland-hacking.html","published":"Fri, 18 Dec 2020 11:31:41 +0000","geolocations":[{"name":"West Kentucky","count":1,"lat":38.2423,"lng":-85.79129,"type":"point"},{"name":"Mississippi","count":1,"lat":32.29887,"lng":-90.18045,"type":"point"},{"name":"Florida","count":1,"lat":30.43977,"lng":-84.28065,"type":"point"},{"name":"New York","count":1,"lat":40.71455,"lng":-74.00714,"type":"point"}],"source":"The New York Times"},{"feed_name":"World","feed_url":"https://rss.nytimes.com/services/xml/rss/nyt/World.xml","title":"Gunman Sentenced to Life in Prison for 2015 Attack on Paris-Bound Train","summary":"The trial of the main assailant, Ayoub El Khazzani, and three accomplices provided a rare opportunity for prosecutors to delve into the operations of the Islamic State in Europe.","link":"https://www.nytimes.com/2020/12/17/world/europe/france-train-attack-trial.html","published":"Fri, 18 Dec 2020 09:33:38 +0000","geolocations":[{"name":"Paris","count":2,"lat":48.85717,"lng":2.3414,"type":"point"},{"name":"Europe","count":2,"lat":-33.98201,"lng":18.58413,"type":"point"},{"name":"Iraq","count":1,"lat":33.3421,"lng":44.39307,"type":"country"},{"name":"Syria","count":1,"lat":33.51656,"lng":36.31708,"type":"point"}],"source":"The New York Times"},{"feed_name":"World","feed_url":"https://www.theguardian.com/world/rss","title":"Going the extra milestone: Mumbai preserves remnants of colonial past","summary":"<p>Over the decades many of the city’s stone markers have been submerged in concrete, but a plan is underway to restore them</p><p>Buried for years under Mumbai’s new roads and ever-increasing layers of development, the British passion for cartography is set to rise up on the city’s streets again thanks to a project to preserve its colonial milestones.</p><p>When workers from Mumbai municipal corporation (BMC) were demolishing unauthorised buildings three years ago, they unearthed a basalt stone marker with a pyramidal top and a Roman numeral on it – a British milestone and one of 16 laid out in the early 19th century on the road between Horniman Circle and Sion, then the city’s outer limit.</p> <a href=\"https://www.theguardian.com/global-development/2020/dec/18/going-the-extra-milestone-mumbai-preserves-remnants-of-colonial-past\">Continue reading...</a>","link":"https://www.theguardian.com/global-development/2020/dec/18/going-the-extra-milestone-mumbai-preserves-remnants-of-colonial-past","published":"Fri, 18 Dec 2020 02:00:15 GMT","geolocations":[{"name":"Mumbai","count":5,"lat":19.14045,"lng":72.88235,"type":"point"},{"name":"Fort","count":1,"lat":35.00667,"lng":-80.94316,"type":"point"},{"name":"Bombay","count":1,"lat":19.14045,"lng":72.88235,"type":"point"},{"name":"India","count":2,"lat":28.63095,"lng":77.21721,"type":"country"},{"name":"Prabhadevi","count":1,"lat":19.01423,"lng":72.82776,"type":"point"},{"name":"Kanta Terrace","count":1,"lat":53.54225,"lng":-113.43229,"type":"point"}],"source":"The Guardian"},{"feed_name":"World","feed_url":"https://www.theguardian.com/world/rss","title":"Guardians of the galaxy: Mike Pence names members of new US space force","summary":"<p>Vice-president’s announcement marks first birthday of signature Trump program but social media mockery follows</p><p>Members of the new US space force will be known as “guardians”, Vice-President Mike Pence announced on Friday, at a ceremony to mark the first birthday of the <a href=\"https://www.spaceforce.mil/\">newest branch</a> of the US armed forces, one of Donald Trump’s signature policy initiatives.</p><p> <span>Related: </span><a href=\"https://www.theguardian.com/us-news/2020/jan/24/trump-unveils-logo-for-starfleet-er-space-force-and-trekkers-take-to-twitter\">Trump unveils logo for Starfleet ... er, Space Force ... and Trekkers take to Twitter</a> </p> <a href=\"https://www.theguardian.com/us-news/2020/dec/18/space-force-guardians-mike-pence-us-military\">Continue reading...</a>","link":"https://www.theguardian.com/us-news/2020/dec/18/space-force-guardians-mike-pence-us-military","published":"Sat, 19 Dec 2020 00:29:59 GMT","geolocations":[{"name":"Us","count":4,"lat":38.89037,"lng":-77.03196,"type":"country"},{"name":"The United States","count":1,"lat":38.89037,"lng":-77.03196,"type":"country"}],"source":"The Guardian"},{"feed_name":"World","feed_url":"https://www.latimes.com/world/rss2.0.xml","title":"Column: Will the 2020 presidential campaign turn out to be the low point in modern political civility?","summary":"<p>Polarization has been part of American politics for decades, but in 2020, President Trump took us into dangerous new territory.</p>","link":"https://www.latimes.com/politics/story/2020-12-16/year-in-review-americans-polarization-2020-presidential-campaign","published":"Wed, 16 Dec 2020 08:00:51 -0500","geolocations":[{"name":"St. John’S Church","count":1,"lat":49.93258,"lng":-97.1598,"type":"point"},{"name":"The United States","count":1,"lat":38.89037,"lng":-77.03196,"type":"country"},{"name":"Minneapolis","count":1,"lat":44.97902,"lng":-93.26494,"type":"point"},{"name":"Portland","count":1,"lat":45.51179,"lng":-122.67563,"type":"point"},{"name":"Ore.","count":1,"lat":6.76139,"lng":4.8762,"type":"point"},{"name":"Pennsylvania","count":1,"lat":40.25986,"lng":-76.88223,"type":"point"},{"name":"Wisconsin","count":1,"lat":43.07313,"lng":-89.38644,"type":"point"},{"name":"Buffalo","count":2,"lat":42.88544,"lng":-78.87846,"type":"point"},{"name":"N.Y.","count":2,"lat":40.71455,"lng":-74.00714,"type":"point"}],"source":"Los Angeles Times"},{"feed_name":"World","feed_url":"https://www.latimes.com/world/rss2.0.xml","title":"Tyson Foods fires 7 managers accused of betting on employee COVID-19 infections at Iowa plant","summary":"<p>Seven Tyson Foods plant managers who were accused of betting on how many employees would get coronavirus were fired Wednesday, the company said.</p>","link":"https://www.latimes.com/world-nation/story/2020-12-17/tyson-foods-fires-7-managers-accused-of-betting-on-employee-covid-19-infections-at-io","published":"Thu, 17 Dec 2020 04:19:06 -0500","geolocations":[{"name":"Tyson","count":1,"lat":28.23991,"lng":-81.19455,"type":"point"},{"name":"Waterloo","count":1,"lat":43.46339,"lng":-80.52075,"type":"point"},{"name":"Iowa","count":3,"lat":41.58981,"lng":-93.61538,"type":"point"},{"name":"U.S.","count":3,"lat":38.89037,"lng":-77.03196,"type":"country"}],"source":"Los Angeles Times"},{"feed_name":"World","feed_url":"https://www.theguardian.com/world/rss","title":"'There’s nobody here': Covid turns Wall Street into a ghost town","summary":"<p>Exodus that started after 9/11 has accelerated — and many fear New York’s financial district will not recover</p><ul><li><a href=\"https://www.theguardian.com/world/series/coronavirus-live/latest\">Coronavirus – latest updates</a></li><li><a href=\"https://www.theguardian.com/world/coronavirus-outbreak\">See all our coronavirus coverage</a></li></ul><p>“They used to stand at the bar three deep,” says John Moran, surveying the long, empty counter at Killarney Rose, a Wall Street bar that would, in another era, have been stuffed with early-shift construction workers and, at lunch and late into the evening, suited bankers.</p><p>The world’s pre-eminent financial thoroughfare – at least throughout the 20th century – is a ghost of what it once was. The New York Stock Exchange and Nasdaq are still located here, but dozens of financial institutions have emptied out from New York’s financial district in an exodus that started in the wake of 9/11 and has been hastened by Covid.</p> <a href=\"https://www.theguardian.com/us-news/2020/dec/19/theres-nobody-here-covid-turns-wall-street-into-a-ghost-town\">Continue reading...</a>","link":"https://www.theguardian.com/us-news/2020/dec/19/theres-nobody-here-covid-turns-wall-street-into-a-ghost-town","published":"Sat, 19 Dec 2020 08:00:44 GMT","geolocations":[{"name":"New York’S","count":5,"lat":40.71455,"lng":-74.00714,"type":"point"},{"name":"Manhattan","count":6,"lat":39.17881,"lng":-96.56184,"type":"point"},{"name":"Columbus Circle","count":1,"lat":40.76844,"lng":-73.98197,"type":"point"},{"name":"Central Park","count":1,"lat":40.78144,"lng":-73.96516,"type":"point"},{"name":"New York","count":2,"lat":40.71455,"lng":-74.00714,"type":"point"},{"name":"Florida","count":2,"lat":30.43977,"lng":-84.28065,"type":"point"},{"name":"Us","count":1,"lat":38.89037,"lng":-77.03196,"type":"country"},{"name":"Tennessee","count":1,"lat":36.16784,"lng":-86.77816,"type":"point"},{"name":"North Carolina","count":1,"lat":35.78547,"lng":-78.6427,"type":"point"},{"name":"Utah","count":1,"lat":40.76031,"lng":-111.88822,"type":"point"},{"name":"Americas","count":1,"lat":19.28196,"lng":-99.6453,"type":"point"},{"name":"Wakefield","count":1,"lat":53.67994,"lng":-1.51033,"type":"point"},{"name":"West Coast","count":1,"lat":-41.40428,"lng":145.0225,"type":"point"}],"source":"The Guardian"},{"feed_name":"World - Europe","feed_url":"http://feeds.bbci.co.uk/news/world/rss.xml","title":"Japan snowstorm: 'I had to eat snow'","summary":"Hundreds of drivers were stranded when heavy snow blanketed part of the Kanetsu expressway.","link":"https://www.bbc.co.uk/news/world-asia-55361003","published":"Fri, 18 Dec 2020 12:55:10 GMT","geolocations":[{"name":"Japan","count":1,"lat":35.68408,"lng":139.80885,"type":"country"},{"name":"Tokyo","count":1,"lat":35.68408,"lng":139.80885,"type":"point"},{"name":"Niigata","count":1,"lat":37.93006,"lng":139.08084,"type":"point"}],"source":"BBC"},{"feed_name":"World","feed_url":"https://www.theguardian.com/world/rss","title":"Winter in the coldest city on Earth – in pictures","summary":"<p>Located south of the Arctic Circle, in Russia’s far east, Yakutsk is known for its severe climate</p> <a href=\"https://www.theguardian.com/world/gallery/2020/dec/18/winter-in-the-coldest-city-on-earth-in-pictures\">Continue reading...</a>","link":"https://www.theguardian.com/world/gallery/2020/dec/18/winter-in-the-coldest-city-on-earth-in-pictures","published":"Fri, 18 Dec 2020 07:00:02 GMT","geolocations":[{"name":"The Yana River","count":1,"lat":-1.49136,"lng":40.03294,"type":"point"},{"name":"Antarctica","count":1,"lat":51.99164,"lng":4.23464,"type":"point"}],"source":"The Guardian"},{"feed_name":"World","feed_url":"https://rss.nytimes.com/services/xml/rss/nyt/World.xml","title":"Freed Nigeria Schoolboys Meet President Muhammadu Buhari","summary":"Capitalizing on a rare victory, the Nigerian government publicly displayed the more than 300 boys who had been released, and insisted it had not paid ransom.","link":"https://www.nytimes.com/2020/12/18/world/africa/nigeria-abducted-schoolboys-freed.html","published":"Sat, 19 Dec 2020 13:00:53 +0000","geolocations":[{"name":"Nigeria","count":2,"lat":9.06344,"lng":7.46228,"type":"country"},{"name":"Katsina","count":1,"lat":12.99129,"lng":7.59995,"type":"point"},{"name":"Kankara","count":1,"lat":11.9323,"lng":7.41021,"type":"point"}],"source":"The New York Times"},{"feed_name":"World","feed_url":"https://rss.nytimes.com/services/xml/rss/nyt/World.xml","title":"Sesame Street Creates New Muppets for Rohingya Refugees","summary":"Noor and Aziz are Rohingya Muppets who will feature in educational programming that will be shown in refugee camps.","link":"https://www.nytimes.com/2020/12/19/world/asia/sesame-street-rohingya-muppets.html","published":"Sat, 19 Dec 2020 07:03:42 +0000","geolocations":[{"name":"Bangkok","count":1,"lat":13.75336,"lng":100.50483,"type":"point"},{"name":"Myanmar","count":2,"lat":21.11892,"lng":96.51169,"type":"country"},{"name":"Bangladesh","count":1,"lat":23.71325,"lng":90.39959,"type":"country"}],"source":"The New York Times"},{"feed_name":"World","feed_url":"https://www.theguardian.com/world/rss","title":"Huge Antarctic iceberg headed towards South Georgia breaks in two","summary":"<p>Researchers fear iceberg may disrupt underwater ecosystems and block penguins looking for food</p><p>Strong currents have taken hold of <a href=\"https://www.theguardian.com/environment/2020/nov/04/giant-antarctic-iceberg-on-collision-course-with-british-territory-of-south-georgia\">a massive Antarctic iceberg that is on a collision course with South Georgia island</a>, causing it to shift direction and lose a major chunk of mass, a scientist tracking its journey said on Friday.</p><p>As the iceberg, dubbed A68A, approached the western shelf edge of the south Atlantic island this week, it encountered strong currents, causing it to pivot nearly 180 degrees, according to Geraint Tarling, a biological oceanographer with the British Antarctic Survey.</p> <a href=\"https://www.theguardian.com/world/2020/dec/18/massive\">Continue reading...</a>","link":"https://www.theguardian.com/world/2020/dec/18/massive","published":"Fri, 18 Dec 2020 20:50:31 GMT","geolocations":[{"name":"Antarctic","count":1,"lat":-15.5762,"lng":-56.12377,"type":"point"},{"name":"South Georgia","count":1,"lat":31.58606,"lng":-84.11348,"type":"point"},{"name":"South Atlantic","count":1,"lat":44.6325,"lng":-63.57477,"type":"point"},{"name":"The Antarctic Peninsula","count":1,"lat":32.92591,"lng":-79.84821,"type":"point"}],"source":"The Guardian"},{"feed_name":"World","feed_url":"https://www.theguardian.com/world/rss","title":"'Important and symbolic': US vice-president Mike Pence vaccinated for Covid – video","summary":"<p>The US vice-president, Mike Pence, received his Covid-19 vaccine on Friday morning. Dr Anthony Fauci, who was present for the 'symbolic' inoculation, said it should serve as an example for all Americans called to do so to get vaccinated.&nbsp;</p><p>US&nbsp;deaths from coronavirus topped 3,000 for a third straight day and the country reported a record number of new infections</p><ul><li><a href=\"https://www.theguardian.com/world/live/2020/dec/18/coronavirus-live-news-covid-updates-european-leaders-self-isolate-after-macron-tests-positive?page=with:block-5fdcaa308f08f114e00bebf9#block-5fdcaa308f08f114e00bebf9\">Coronavirus live news</a></li></ul> <a href=\"https://www.theguardian.com/us-news/video/2020/dec/18/important-and-symbolic-us-vice-president-mike-pence-vaccinated-for-covid-video\">Continue reading...</a>","link":"https://www.theguardian.com/us-news/video/2020/dec/18/important-and-symbolic-us-vice-president-mike-pence-vaccinated-for-covid-video","published":"Fri, 18 Dec 2020 14:33:06 GMT","geolocations":[{"name":"Us","count":2,"lat":38.89037,"lng":-77.03196,"type":"country"}],"source":"The Guardian"},{"feed_name":"World","feed_url":"https://www.latimes.com/world/rss2.0.xml","title":"FDA authorizes vaccine from Moderna and NIH, ramping up fight against COVID-19","summary":"<p>The Food and Drug Administration grants emergency-use authorization to the COVID-19 vaccine from Moderna and the National Institutes of Health.</p>","link":"https://www.latimes.com/science/story/2020-12-18/fda-authorizes-covid-vaccine-moderna-nih","published":"Fri, 18 Dec 2020 19:49:52 -0500","geolocations":[{"name":"Pfizer","count":1,"lat":51.26584,"lng":-0.25106,"type":"point"},{"name":"The United States","count":3,"lat":38.89037,"lng":-77.03196,"type":"country"},{"name":"Southern California","count":1,"lat":41.77455,"lng":-84.88371,"type":"point"},{"name":"The San Joaquin Valley","count":1,"lat":34.28543,"lng":-118.68464,"type":"point"},{"name":"U.S.","count":1,"lat":38.89037,"lng":-77.03196,"type":"country"},{"name":"California","count":1,"lat":38.57944,"lng":-121.49085,"type":"point"},{"name":"Washington","count":1,"lat":38.89037,"lng":-77.03196,"type":"point"},{"name":"Fairfield","count":1,"lat":38.24924,"lng":-122.0443,"type":"point"},{"name":"Conn.","count":1,"lat":43.99815,"lng":-80.56848,"type":"point"}],"source":"Los Angeles Times"},{"feed_name":"World","feed_url":"https://www.latimes.com/world/rss2.0.xml","title":"McManus: Trump has changed tactics in his election fight. His new approach is more dangerous","summary":"<p>Trump's challenge to vote counts has become a brazen demand to award him the election — and strengthen his control of the Republican Party.</p>","link":"https://www.latimes.com/politics/story/2020-12-13/trump-has-changed-tactics-in-his-election-fight-his-new-approach-is-more-dangerous","published":"Sun, 13 Dec 2020 07:00:58 -0500","geolocations":[{"name":"Texas","count":1,"lat":30.26759,"lng":-97.74299,"type":"point"},{"name":"Pennsylvania","count":2,"lat":40.25986,"lng":-76.88223,"type":"point"},{"name":"Wisconsin","count":1,"lat":43.07313,"lng":-89.38644,"type":"point"},{"name":"Michigan","count":1,"lat":42.73194,"lng":-84.55225,"type":"point"}],"source":"Los Angeles Times"},{"feed_name":"World","feed_url":"https://rss.nytimes.com/services/xml/rss/nyt/World.xml","title":"We looked inside Britain’s pandemic spending, and found waste, negligence and cronyism.","summary":"","link":"https://www.nytimes.com/2020/12/17/world/we-looked-inside-britains-pandemic-spending-and-found-waste-negligence-and-cronyism.html","published":"Thu, 17 Dec 2020 15:55:42 +0000","geolocations":[{"name":"United Kingdom","count":1,"lat":38.95953,"lng":-91.92768,"type":"point"}],"source":"The New York Times"},{"feed_name":"World","feed_url":"https://www.latimes.com/world/rss2.0.xml","title":"Biden's Cabinet: Expertise, diversity and an Obama class reunion","summary":"<p>As a candidate, Joe Biden promised to restore \"normal\" government and transform America. To help, his Cabinet will be historically diverse but heavy on Obama alumni.</p>","link":"https://www.latimes.com/politics/story/2020-12-19/bidens-cabinet-expertise-diversity-and-an-obama-class-reunion","published":"Sat, 19 Dec 2020 06:00:13 -0500","geolocations":[{"name":"America","count":3,"lat":51.43739,"lng":5.98176,"type":"point"},{"name":"New Mexico","count":1,"lat":35.69177,"lng":-105.93824,"type":"point"},{"name":"Haaland","count":1,"lat":60.67418,"lng":4.95931,"type":"point"},{"name":"Massachusetts","count":1,"lat":42.35866,"lng":-71.05674,"type":"point"},{"name":"California","count":1,"lat":38.57944,"lng":-121.49085,"type":"point"},{"name":"North Carolina","count":1,"lat":35.78547,"lng":-78.6427,"type":"point"},{"name":"Rhode Island","count":1,"lat":41.82387,"lng":-71.41199,"type":"point"},{"name":"U.S.","count":1,"lat":38.89037,"lng":-77.03196,"type":"country"},{"name":"Washington","count":1,"lat":38.89037,"lng":-77.03196,"type":"point"},{"name":"Vermont","count":1,"lat":44.26029,"lng":-72.57626,"type":"point"},{"name":"Ohio","count":1,"lat":39.96199,"lng":-83.00275,"type":"point"},{"name":"Chicago","count":1,"lat":41.88425,"lng":-87.63245,"type":"point"}],"source":"Los Angeles Times"},{"feed_name":"World","feed_url":"https://rss.nytimes.com/services/xml/rss/nyt/World.xml","title":"‘Nightmare’ lockdown in Australian towers is called a breach of human rights.","summary":"","link":"https://www.nytimes.com/2020/12/17/world/nightmare-lockdown-in-australian-towers-is-called-a-breach-of-human-rights.html","published":"Thu, 17 Dec 2020 14:30:33 +0000","geolocations":[{"name":"Melbourne","count":2,"lat":-37.81739,"lng":144.96751,"type":"point"},{"name":"Australia","count":2,"lat":-35.30654,"lng":149.12655,"type":"country"},{"name":"Victoria","count":1,"lat":48.42855,"lng":-123.36445,"type":"point"}],"source":"The New York Times"},{"feed_name":"World","feed_url":"https://rss.nytimes.com/services/xml/rss/nyt/World.xml","title":"California Coronavirus Cases Rise Despite Strict Measures","summary":"","link":"https://www.nytimes.com/2020/12/17/world/california-covid-cases.html","published":"Fri, 18 Dec 2020 19:26:23 +0000","geolocations":[{"name":"California","count":1,"lat":38.57944,"lng":-121.49085,"type":"point"},{"name":"Los Angeles County","count":2,"lat":34.28089,"lng":-119.14472,"type":"point"}],"source":"The New York Times"},{"feed_name":"World","feed_url":"https://rss.nytimes.com/services/xml/rss/nyt/World.xml","title":"French President Macron Says Covid Symptoms Have Slowed Him Down","summary":"","link":"https://www.nytimes.com/2020/12/18/world/france-macron-covid-video.html","published":"Fri, 18 Dec 2020 17:53:16 +0000","geolocations":[{"name":"France","count":2,"lat":48.85717,"lng":2.3414,"type":"country"}],"source":"The New York Times"},{"feed_name":"World - Europe","feed_url":"http://feeds.bbci.co.uk/news/world/rss.xml","title":"US judge says parents owe son over trashed porn collection","summary":"The 42-year-old sued his parents, saying they threw away an \"irreplaceable\" collection worth $25,000.","link":"https://www.bbc.co.uk/news/world-us-canada-55370919","published":"Fri, 18 Dec 2020 21:35:35 GMT","geolocations":[{"name":"Nevada","count":1,"lat":39.16506,"lng":-119.76697,"type":"point"}],"source":"BBC"},{"feed_name":"World","feed_url":"https://rss.nytimes.com/services/xml/rss/nyt/World.xml","title":"As Singapore Ventures Back Out, Migrant Workers Are Kept In","summary":"The low-wage workers, almost half of whom have contracted the coronavirus, continue to be mostly confined to dormitories even as the city-state eases restrictions.","link":"https://www.nytimes.com/2020/12/17/world/asia/coronavirus-singapore-migrant-workers.html","published":"Thu, 17 Dec 2020 17:34:21 +0000","geolocations":[{"name":"Singapore","count":2,"lat":1.29041,"lng":103.85211,"type":"country"},{"name":"South Asia","count":1,"lat":34.3074,"lng":-79.41071,"type":"point"}],"source":"The New York Times"},{"feed_name":"World","feed_url":"https://www.latimes.com/world/rss2.0.xml","title":"A Hong Kong pastor tried to protect democracy activists. Now his bank account is frozen","summary":"<p>China is targeting government opponents through financial institutions using a draconian national security law that's already led to U.S. sanctions. </p>","link":"https://www.latimes.com/world-nation/story/2020-12-16/hong-kong-bank-accounts-frozen","published":"Wed, 16 Dec 2020 04:30:33 -0500","geolocations":[{"name":"Hong Kong’S","count":6,"lat":22.2783,"lng":114.16039,"type":"point"},{"name":"United Kingdom","count":4,"lat":38.95953,"lng":-91.92768,"type":"point"},{"name":"Hong Kong","count":16,"lat":22.2783,"lng":114.16039,"type":"point"},{"name":"China","count":11,"lat":39.90657,"lng":116.38765,"type":"country"},{"name":"Asia","count":2,"lat":-12.76551,"lng":-76.61171,"type":"point"},{"name":"Beijing","count":3,"lat":39.90657,"lng":116.38765,"type":"point"},{"name":"Hong Kongers","count":1,"lat":22.2783,"lng":114.16039,"type":"point"},{"name":"U.K.","count":1,"lat":29.93186,"lng":77.81922,"type":"point"},{"name":"U.S.","count":5,"lat":38.89037,"lng":-77.03196,"type":"country"},{"name":"London","count":1,"lat":51.50643,"lng":-0.12719,"type":"point"},{"name":"Europe","count":1,"lat":-33.98201,"lng":18.58413,"type":"point"}],"source":"Los Angeles Times"},{"feed_name":"World","feed_url":"https://www.theguardian.com/world/rss","title":"737 Max: Boeing 'inappropriately coached' test pilots, say senators","summary":"<p>Planemaker and US regulator may have tried to cover up important information relating to deadly crashes – official report</p><p>Boeing officials “inappropriately coached” test pilots during recertification efforts after two fatal 737 MAX crashes killed 346 people, a US congressional report has concluded.</p><p>The report by the Senate commerce committee raised questions about testing in 2020 of a key safety system known as MCAS tied to both fatal crashes.</p> <a href=\"https://www.theguardian.com/us-news/2020/dec/19/737-max-boeing-inappropriately-coached-test-pilots-say-senators\">Continue reading...</a>","link":"https://www.theguardian.com/us-news/2020/dec/19/737-max-boeing-inappropriately-coached-test-pilots-say-senators","published":"Sat, 19 Dec 2020 03:50:50 GMT","geolocations":[{"name":"Us","count":2,"lat":38.89037,"lng":-77.03196,"type":"country"},{"name":"Southwest","count":1,"lat":17.68981,"lng":-64.86195,"type":"point"},{"name":"Brazil","count":1,"lat":-15.77829,"lng":-47.92909,"type":"country"}],"source":"The Guardian"},{"feed_name":"World - Europe","feed_url":"http://feeds.bbci.co.uk/news/world/rss.xml","title":"Covid: The countries worried they won't get the vaccine","summary":"Countries such as Zimbabwe, Mexico and Pakistan are likely to have to wait for the coronavirus vaccine.","link":"https://www.bbc.co.uk/news/world-55325450","published":"Sat, 19 Dec 2020 00:06:25 GMT","geolocations":[{"name":"Pakistan","count":1,"lat":33.70964,"lng":73.07545,"type":"point"}],"source":"BBC"},{"feed_name":"World","feed_url":"https://rss.nytimes.com/services/xml/rss/nyt/World.xml","title":"A Riveting ISIS Story, Told in a Times Podcast, Falls Apart","summary":"A Canadian’s gruesome account as an Islamic State executioner in Syria, which was the subject of the “Caliphate” podcast by The New York Times, was fabricated, officials say. A Times review found no corroboration of his claim to have committed atrocities.","link":"https://www.nytimes.com/2020/12/18/world/middleeast/caliphate-chaudhry-hoax.html","published":"Fri, 18 Dec 2020 22:24:12 +0000","geolocations":[{"name":"Syria","count":7,"lat":33.51656,"lng":36.31708,"type":"point"},{"name":"Turkey","count":2,"lat":39.92109,"lng":32.85391,"type":"country"},{"name":"Pakistan","count":2,"lat":33.70964,"lng":73.07545,"type":"point"},{"name":"The Ottoman Empire","count":1,"lat":37.70098,"lng":-76.52037,"type":"point"},{"name":"Lahore","count":2,"lat":31.53945,"lng":74.30348,"type":"point"},{"name":"Toronto","count":2,"lat":43.64869,"lng":-79.38544,"type":"point"}],"source":"The New York Times"},{"feed_name":"World","feed_url":"https://www.latimes.com/world/rss2.0.xml","title":"A notorious child rapist was released from prison. Hordes of YouTube vigilantes awaited","summary":"<p>The growing popularity of YouTube in South Korea has led to questionable attempts by users to gain viewers, including promises of vigilante justice.</p>","link":"https://www.latimes.com/world-nation/story/2020-12-18/youtubers-vigilante-justice-child-rapist-south-korea","published":"Fri, 18 Dec 2020 10:05:19 -0500","geolocations":[{"name":"South Korea","count":2,"lat":37.55886,"lng":126.99989,"type":"country"},{"name":"Ansan","count":1,"lat":31.9518,"lng":35.94042,"type":"point"}],"source":"Los Angeles Times"},{"feed_name":"World","feed_url":"https://rss.nytimes.com/services/xml/rss/nyt/World.xml","title":"‘A Social Species’: How Kangaroos Communicate With People","summary":"Researchers say that kangaroos are the first wild animals to exhibit interspecies communication that is more commonly seen in animals that have evolved alongside humans.","link":"https://www.nytimes.com/2020/12/18/world/australia/kangaroos-communicate.html","published":"Fri, 18 Dec 2020 13:45:32 +0000","geolocations":[{"name":"Melbourne","count":1,"lat":-37.81739,"lng":144.96751,"type":"point"},{"name":"Australia","count":2,"lat":-35.30654,"lng":149.12655,"type":"country"},{"name":"United Kingdom","count":1,"lat":38.95953,"lng":-91.92768,"type":"point"}],"source":"The New York Times"},{"feed_name":"World","feed_url":"https://www.theguardian.com/world/rss","title":"US sets new record for daily Covid cases as Moderna vaccine approved","summary":"<ul><li>Nearly 250,000 new cases on Friday; more than 2,800 deaths</li><li><a href=\"https://www.theguardian.com/us-news/2020/dec/18/california-coronavirus-hospital-icu-cases-deaths\">California healthcare system on brink as cases surge</a></li><li><a href=\"https://www.theguardian.com/world/live/2020/dec/19/coronavirus-live-news-uk-deaths-climb-as-australia-battles-to-contain-covid-19-cluster\">Coronavirus – live coverage</a></li></ul><p>The US set yet another record for new coronavirus cases on Friday, at almost 250,000, even as a second vaccine, from Moderna, was <a href=\"https://www.theguardian.com/world/2020/dec/18/fda-authorizes-moderna-coronavirus-vaccine-emergency-use-across-the-us\">approved</a>.</p><p> <span>Related: </span><a href=\"https://www.theguardian.com/world/2020/dec/18/fda-authorizes-moderna-coronavirus-vaccine-emergency-use-across-the-us\">FDA authorizes Moderna coronavirus vaccine for emergency use across the US</a> </p> <a href=\"https://www.theguardian.com/world/2020/dec/19/us-new-record-covid-cases-moderna-vaccine-approved-california-michigan\">Continue reading...</a>","link":"https://www.theguardian.com/world/2020/dec/19/us-new-record-covid-cases-moderna-vaccine-approved-california-michigan","published":"Sat, 19 Dec 2020 12:37:31 GMT","geolocations":[{"name":"Us","count":3,"lat":38.89037,"lng":-77.03196,"type":"country"},{"name":"California","count":3,"lat":38.57944,"lng":-121.49085,"type":"point"},{"name":"Los Angeles","count":1,"lat":34.05357,"lng":-118.24545,"type":"point"},{"name":"Napa","count":1,"lat":38.29911,"lng":-122.28541,"type":"point"},{"name":"Michigan","count":1,"lat":42.73194,"lng":-84.55225,"type":"point"},{"name":"Washington","count":1,"lat":38.89037,"lng":-77.03196,"type":"point"}],"source":"The Guardian"},{"feed_name":"World","feed_url":"https://rss.nytimes.com/services/xml/rss/nyt/World.xml","title":"Pompeo Says Russia Was Behind Cyberattack on U.S.","summary":"Secretary of State Mike Pompeo is the first member of the Trump administration to publicly link the Kremlin to the hacking of dozens of government and private systems.","link":"https://www.nytimes.com/2020/12/19/us/pompeo-says-russia-was-behind-cyberattack-on-us.html","published":"Sat, 19 Dec 2020 13:12:01 +0000","geolocations":[{"name":"The Middle East","count":1,"lat":39.29996,"lng":-76.58967,"type":"point"},{"name":"Europe","count":1,"lat":-33.98201,"lng":18.58413,"type":"point"},{"name":"Washington","count":1,"lat":38.89037,"lng":-77.03196,"type":"point"},{"name":"The United States","count":1,"lat":38.89037,"lng":-77.03196,"type":"country"},{"name":"U.S.","count":1,"lat":38.89037,"lng":-77.03196,"type":"country"},{"name":"Russia","count":1,"lat":55.75696,"lng":37.61502,"type":"country"}],"source":"The New York Times"},{"feed_name":"World","feed_url":"https://rss.nytimes.com/services/xml/rss/nyt/World.xml","title":"A day of hope, and warning, as a vaccine is rolled out in the U.S.","summary":"","link":"https://www.nytimes.com/2020/12/17/world/a-day-of-hope-and-warning-as-a-vaccine-is-rolled-out-in-the-us.html","published":"Thu, 17 Dec 2020 18:13:29 +0000","geolocations":[{"name":"The United States","count":1,"lat":38.89037,"lng":-77.03196,"type":"country"},{"name":"Los Angeles County","count":1,"lat":34.28089,"lng":-119.14472,"type":"point"},{"name":"Calif.","count":1,"lat":3.43402,"lng":-76.52645,"type":"point"},{"name":"Lee County","count":1,"lat":55.37561,"lng":13.14748,"type":"point"}],"source":"The New York Times"},{"feed_name":"World","feed_url":"https://rss.nytimes.com/services/xml/rss/nyt/World.xml","title":"An Agonizing Wait After Nigeria Abductions, Then a Flood of Relief","summary":"The seizure of more than 300 boys brought immediate comparisons to the 2014 kidnapping of hundreds of schoolgirls. But an anguishing six days later, a state governor said the boys had been released.","link":"https://www.nytimes.com/2020/12/17/world/africa/nigeria-kidnapping-boko-haram.html","published":"Fri, 18 Dec 2020 03:58:04 +0000","geolocations":[{"name":"Dakar","count":1,"lat":14.66927,"lng":-17.43661,"type":"point"},{"name":"Senegal","count":1,"lat":14.66927,"lng":-17.43661,"type":"country"},{"name":"Nigeria","count":1,"lat":9.06344,"lng":7.46228,"type":"country"},{"name":"Kankara","count":1,"lat":11.9323,"lng":7.41021,"type":"point"},{"name":"Chibok","count":1,"lat":10.87173,"lng":12.84493,"type":"point"}],"source":"The New York Times"},{"feed_name":"World","feed_url":"https://www.latimes.com/world/rss2.0.xml","title":"The most important company you've never heard of is being dragged into the U.S.-China rivalry","summary":"<p>Taiwan Semiconductor Manufacturing Co. makes chips for iPhones, video game consoles and fighter jets. Now it's being forced to choose sides.</p>","link":"https://www.latimes.com/world-nation/story/2020-12-17/taiwan-chips-tsmc-china-us","published":"Thu, 17 Dec 2020 04:30:21 -0500","geolocations":[{"name":"Taiwan","count":16,"lat":25.03737,"lng":121.56355,"type":"country"},{"name":"Silicon Shield","count":1,"lat":55.01085,"lng":-1.448,"type":"point"},{"name":"U.S.","count":18,"lat":38.89037,"lng":-77.03196,"type":"country"},{"name":"China","count":29,"lat":39.90657,"lng":116.38765,"type":"country"},{"name":"Beijing","count":8,"lat":39.90657,"lng":116.38765,"type":"point"},{"name":"Shanghai","count":1,"lat":39.45274,"lng":-78.15318,"type":"point"},{"name":"Arizona","count":1,"lat":33.44825,"lng":-112.0758,"type":"point"},{"name":"Nanjing","count":1,"lat":-23.38327,"lng":150.6275,"type":"point"},{"name":"The United States","count":1,"lat":38.89037,"lng":-77.03196,"type":"country"},{"name":"Washington","count":4,"lat":38.89037,"lng":-77.03196,"type":"point"},{"name":"Manhattan","count":1,"lat":39.17881,"lng":-96.56184,"type":"point"},{"name":"South Korea","count":1,"lat":37.55886,"lng":126.99989,"type":"country"},{"name":"Taipei","count":4,"lat":25.03293,"lng":121.56705,"type":"point"},{"name":"Silicon Valley","count":1,"lat":37.24667,"lng":-121.77279,"type":"point"},{"name":"Maryland","count":1,"lat":38.97678,"lng":-76.49014,"type":"point"},{"name":"Switzerland","count":2,"lat":46.94843,"lng":7.44046,"type":"country"},{"name":"Hong Kong","count":2,"lat":22.2783,"lng":114.16039,"type":"point"},{"name":"Ningbo","count":1,"lat":29.86569,"lng":121.53916,"type":"point"},{"name":"Singapore","count":1,"lat":1.29041,"lng":103.85211,"type":"country"},{"name":"Hsinchu","count":1,"lat":24.81662,"lng":120.97054,"type":"point"}],"source":"Los Angeles Times"},{"feed_name":"World","feed_url":"https://www.theguardian.com/world/rss","title":"Closure of iconic Cliff House ends a remarkable era of San Francisco's history","summary":"<p>The 157-year-old restaurant with breathtaking ocean views was known for its location on Lands End as ‘the place that draws you’</p><p>At the place where San Francisco drops into the ocean, a door is shutting on a vibrant chapter of the city’s history.</p><p>The longtime proprietors of the Cliff House, a 157-year-old iconic San Francisco restaurant with breathtaking ocean views once enjoyed by Mark Twain, announced this week that they would be forced to close by the end of the year. They cited both coronavirus restrictions and their landlord, the federal government, stalling on a long-term lease, as factors in their decision.</p> <a href=\"https://www.theguardian.com/us-news/2020/dec/19/closure-of-iconic-cliff-house-ends-a-remarkable-era-of-san-franciscos-history\">Continue reading...</a>","link":"https://www.theguardian.com/us-news/2020/dec/19/closure-of-iconic-cliff-house-ends-a-remarkable-era-of-san-franciscos-history","published":"Sat, 19 Dec 2020 11:00:48 GMT","geolocations":[{"name":"San Francisco","count":5,"lat":37.77712,"lng":-122.41964,"type":"point"},{"name":"Ocean Beach","count":1,"lat":40.64936,"lng":-73.15689,"type":"point"},{"name":"Pacific","count":1,"lat":38.48359,"lng":-90.74141,"type":"point"},{"name":"San Franciscans","count":1,"lat":37.72252,"lng":-122.06119,"type":"point"},{"name":"Hontalas","count":3,"lat":40.30244,"lng":-2.28439,"type":"point"},{"name":"Greece","count":1,"lat":37.97614,"lng":23.7364,"type":"country"},{"name":"The Cliff Cafe","count":1,"lat":37.17314,"lng":-89.78256,"type":"point"},{"name":"San Francisco’S","count":1,"lat":37.77712,"lng":-122.41964,"type":"point"}],"source":"The Guardian"},{"feed_name":"World","feed_url":"https://www.theguardian.com/world/rss","title":"Fisheries still main obstacle in final hours of Brexit talks, says Barnier – video","summary":"<p>Michel Barnier has said the main obstacle to a deal in the final ‘few hours’ of the post-Brexit trade negotiation is whether Brussels will be able to hit British goods with tariffs if the government closes UK waters to EU fishing fleets.</p><p>The European parliament has requested a deal by midnight on Sunday. Barnier added that sooner or later the UK and EU would have to have a strong alliance even if an agreement is not reached by the deadline</p><ul><li><a href=\"https://www.theguardian.com/politics/2020/dec/18/barnier-fishing-row-obstacle-final-hours-brexit-talks\">Barnier: fishing row is main obstacle in 'final hours' of Brexit talks</a></li><li><a href=\"https://www.theguardian.com/politics/live/2020/dec/18/brexit-coronavirus-covid-uk-michel-barnier-boris-johnson-eu-trade-talks-news-live-updates\">Brexit news – latest updates</a></li></ul> <a href=\"https://www.theguardian.com/world/video/2020/dec/18/fisheries-still-main-obstacle-in-final-hours-of-brexit-talks-says-barnier-video\">Continue reading...</a>","link":"https://www.theguardian.com/world/video/2020/dec/18/fisheries-still-main-obstacle-in-final-hours-of-brexit-talks-says-barnier-video","published":"Fri, 18 Dec 2020 11:12:17 GMT","geolocations":[{"name":"Brussels","count":1,"lat":50.84439,"lng":4.35609,"type":"point"}],"source":"The Guardian"},{"feed_name":"World","feed_url":"https://www.theguardian.com/world/rss","title":"Brexit trade talks may continue after MEPs' deadline, says France","summary":"<p>European affairs minister, Clément Beaune, says Paris will not be rushed into deal over next 48 hours</p><p>The European parliament’s Sunday deadline may pass without agreement on a post-Brexit trade and security deal, France’s European affairs minister, Clément Beaune, has said, as British and EU negotiators continued to haggle over fishing rights.</p><p>MEPs have said they will stage a vote of consent on 28 December if terms are agreed by the two sides by midnight central European time on Sunday, raising the stakes for a weekend deal.</p> <a href=\"https://www.theguardian.com/politics/2020/dec/19/brexit-trade-talks-may-continue-after-meps-deadline-says-france\">Continue reading...</a>","link":"https://www.theguardian.com/politics/2020/dec/19/brexit-trade-talks-may-continue-after-meps-deadline-says-france","published":"Sat, 19 Dec 2020 13:13:36 GMT","geolocations":[{"name":"France","count":1,"lat":48.85717,"lng":2.3414,"type":"country"},{"name":"Brussels","count":1,"lat":50.84439,"lng":4.35609,"type":"point"}],"source":"The Guardian"},{"feed_name":"World","feed_url":"https://rss.nytimes.com/services/xml/rss/nyt/World.xml","title":"Your Friday Briefing","summary":"European leaders self-quarantine after meeting with Macron.","link":"https://www.nytimes.com/2020/12/17/briefing/macron-coronavirus-aleksei-navalny-chartreuse.html","published":"Fri, 18 Dec 2020 07:24:58 +0000","geolocations":[{"name":"U.S.","count":2,"lat":38.89037,"lng":-77.03196,"type":"country"},{"name":"Arctic","count":1,"lat":42.18723,"lng":-75.41355,"type":"point"},{"name":"Bangladesh","count":1,"lat":23.71325,"lng":90.39959,"type":"country"},{"name":"Brussels","count":1,"lat":50.84439,"lng":4.35609,"type":"point"}],"source":"The New York Times"},{"feed_name":"World - Europe","feed_url":"http://feeds.bbci.co.uk/news/world/rss.xml","title":"Blindian Project: Celebrating black and South Asian relationships","summary":"Blindian Project runs workshops to prepare couples for tricky family introductions.","link":"https://www.bbc.co.uk/news/world-us-canada-55370482","published":"Sat, 19 Dec 2020 00:00:32 GMT","geolocations":[{"name":"The United States","count":1,"lat":38.89037,"lng":-77.03196,"type":"country"},{"name":"Us","count":1,"lat":38.89037,"lng":-77.03196,"type":"country"}],"source":"BBC"},{"feed_name":"World","feed_url":"https://www.theguardian.com/world/rss","title":"Coronavirus live news: Boris Johnson to hold press conference at 4pm amid fears over new virus strain; Swiss approve Pfizer vaccine","summary":"<p>Italy and Australia announce new lockdowns; France death toll surpasses 60,000; Sweden introduces tough new measures</p><ul><li><a href=\"https://www.theguardian.com/world/2020/dec/19/new-coronavirus-strain-in-south-east-england-prompts-fears-of-third-lockdown\">New strain in south-east England prompts fears of third lockdown</a></li><li><a href=\"https://www.theguardian.com/world/2020/dec/19/india-covid-10m-country-plans-vaccination-coronavirus\">Covid cases in India reach 10m as country plans vaccination programme</a></li><li><a href=\"https://www.theguardian.com/world/2020/dec/19/italy-to-go-into-covid-lockdown-over-festive-period\">Italy to go into Covid lockdown over festive period</a></li><li><a href=\"https://www.theguardian.com/us-news/2020/dec/18/mike-pence-receives-covid-19-vaccine-live-tv\">Mike Pence receives Covid-19 vaccine on live TV: ‘I didn’t feel a thing’</a></li><li><a href=\"https://www.theguardian.com/education/2020/dec/18/covid-unions-say-mass-testing-of-englands-pupils-undeliverable\">Unions say mass testing of England’s pupils ‘undeliverable’</a><br /></li></ul><p class=\"block-time published-time\"> <time datetime=\"2020-12-19T13:46:29.418Z\">1.46pm <span class=\"timezone\">GMT</span></time> </p><p>Police are attempting to disperse anti lockdown protesters who have gathered outside parliament in <strong>London</strong>. </p><p>The Metropolitan police said protesters were gathering in Parliament square in significant numbers on Saturday afternoon. According to the force, organisers have not submitted a risk assessment for the demonstration.</p><p dir=\"ltr\" lang=\"en\">The Met will continue to work through the 4E approach with those in Parliament Square . We will move to enforcement should people not disperse.</p><p class=\"block-time published-time\"> <time datetime=\"2020-12-19T13:19:13.462Z\">1.19pm <span class=\"timezone\">GMT</span></time> </p><p><strong>Nicola Sturgeon</strong> has announced she will hold a cabinet meeting this afternoon to discuss the new virus strain, adding that preventative action may be needed to stop it taking hold.</p><p dir=\"ltr\" lang=\"en\">Following a 4 nations COVID call earlier, I’ll chair <a href=\"https://twitter.com/scotgov?ref_src=twsrc%5Etfw\">@scotgov</a> Cabinet meeting this afternoon to discuss emerging evidence on new variant. Cases currently at lower level in Scotland than rUK - but preventative action may be necessary to stop faster spreading strain taking hold. <a href=\"https://t.co/kGLC5ZMboA\">https://t.co/kGLC5ZMboA</a></p> <a href=\"https://www.theguardian.com/world/live/2020/dec/19/coronavirus-live-news-uk-deaths-climb-as-australia-battles-to-contain-covid-19-cluster\">Continue reading...</a>","link":"https://www.theguardian.com/world/live/2020/dec/19/coronavirus-live-news-uk-deaths-climb-as-australia-battles-to-contain-covid-19-cluster","published":"Sat, 19 Dec 2020 13:47:43 GMT","geolocations":[{"name":"Greece","count":4,"lat":37.97614,"lng":23.7364,"type":"country"},{"name":"Athens","count":2,"lat":37.97614,"lng":23.7364,"type":"point"}],"source":"The Guardian"},{"feed_name":"World","feed_url":"https://www.latimes.com/world/rss2.0.xml","title":"Another COVID-19 casualty: Mexico's traditional celebration of the Virgin of Guadalupe","summary":"<p>This year's celebration honoring the Virgin of Guadalupe, Mexico's patron saint, is another casualty of the COVID-19 pandemic — though some persist. </p>","link":"https://www.latimes.com/world-nation/story/2020-12-12/covid-cancels-another-tradition-mexicos-celebration-of-the-virgen-of-guadalupe","published":"Sat, 12 Dec 2020 18:13:13 -0500","geolocations":[{"name":"La Virgencita","count":1,"lat":19.2378,"lng":-103.69981,"type":"point"},{"name":"Mexico City","count":6,"lat":19.27691,"lng":-99.13939,"type":"point"},{"name":"Mexico","count":8,"lat":23.94757,"lng":-102.5411,"type":"country"},{"name":"The Virgin Of Guadalupe","count":1,"lat":10.74899,"lng":124.7912,"type":"point"},{"name":"Americas","count":1,"lat":19.28196,"lng":-99.6453,"type":"point"},{"name":"The United States","count":2,"lat":38.89037,"lng":-77.03196,"type":"country"},{"name":"Brazil","count":1,"lat":-15.77829,"lng":-47.92909,"type":"country"},{"name":"India","count":1,"lat":28.63095,"lng":77.21721,"type":"country"},{"name":"Nezahualcoyotl","count":1,"lat":19.40785,"lng":-99.01895,"type":"point"},{"name":"Pachuca","count":1,"lat":20.12171,"lng":-98.73678,"type":"point"},{"name":"Mexico City’S","count":1,"lat":25.91513,"lng":-112.06282,"type":"country"}],"source":"Los Angeles Times"},{"feed_name":"World","feed_url":"https://www.latimes.com/world/rss2.0.xml","title":"U.S. cybersecurity agency warns of 'grave' threat from hack","summary":"<p>U.S. authorities are expressing increased alarm about an intrusion into computer systems around the globe that officials suspect Russia is behind.</p>","link":"https://www.latimes.com/world-nation/story/2020-12-17/us-cybersecurity-agency-warns-of-grave-threat-from-hack","published":"Thu, 17 Dec 2020 13:30:30 -0500","geolocations":[{"name":"Russia","count":3,"lat":55.75696,"lng":37.61502,"type":"country"},{"name":"Moscow","count":1,"lat":55.75696,"lng":37.61502,"type":"point"},{"name":"U.S.","count":3,"lat":38.89037,"lng":-77.03196,"type":"country"},{"name":"Texas","count":1,"lat":30.26759,"lng":-97.74299,"type":"point"}],"source":"Los Angeles Times"},{"feed_name":"World","feed_url":"https://www.latimes.com/world/rss2.0.xml","title":"A tale of two cities: the cautious refugees hit by COVID-19 and those who call it a hoax and refuse masks","summary":"<p>In South Dakota's largest city, the coronavirus was once largely seen as something that infected refugees and immigrants at the Smithfield pork plant. Now, it has spread far and wide across one of the worst-hit states.</p>","link":"https://www.latimes.com/world-nation/story/2020-12-18/south-dakota-sioux-falls-coronavirus","published":"Fri, 18 Dec 2020 05:00:32 -0500","geolocations":[{"name":"South Dakota","count":3,"lat":44.36905,"lng":-100.35,"type":"point"},{"name":"Smithfield","count":15,"lat":35.51175,"lng":-78.34729,"type":"point"},{"name":"Sioux Falls","count":7,"lat":43.54577,"lng":-96.73128,"type":"point"},{"name":"Urwan","count":12,"lat":24.346,"lng":85.46229,"type":"point"},{"name":"South Dakota’S","count":1,"lat":44.36905,"lng":-100.35,"type":"point"},{"name":"Windy City","count":1,"lat":41.61723,"lng":-78.87866,"type":"point"},{"name":"Plains","count":1,"lat":33.18661,"lng":-102.81865,"type":"point"},{"name":"Midwest","count":1,"lat":43.41272,"lng":-106.27664,"type":"point"},{"name":"Bhutan","count":1,"lat":27.41483,"lng":90.42623,"type":"country"},{"name":"Nepal","count":1,"lat":27.69329,"lng":85.32227,"type":"country"},{"name":"Sioux","count":2,"lat":42.4999,"lng":-96.42086,"type":"point"},{"name":"Ethiopia","count":2,"lat":9.01358,"lng":38.76286,"type":"country"},{"name":"Sudan","count":1,"lat":15.58651,"lng":32.52318,"type":"point"},{"name":"Sioux River","count":1,"lat":42.52187,"lng":-96.48322,"type":"point"},{"name":"California","count":1,"lat":38.57944,"lng":-121.49085,"type":"point"},{"name":"Greeley","count":1,"lat":40.42327,"lng":-104.69446,"type":"point"},{"name":"Virginia","count":1,"lat":37.54068,"lng":-77.43367,"type":"point"},{"name":"Queens","count":1,"lat":46.2576,"lng":-63.11851,"type":"point"},{"name":"Aayo Badaa Dina","count":1,"lat":25.22709,"lng":81.67618,"type":"point"},{"name":"Falls Smithfield","count":1,"lat":41.48321,"lng":-75.85466,"type":"point"}],"source":"Los Angeles Times"},{"feed_name":"World","feed_url":"https://rss.nytimes.com/services/xml/rss/nyt/World.xml","title":"Spanish Lawmakers Pass Bill Allowing Euthanasia and Assisted Suicide","summary":"The draft law goes to the Senate, where it is likely to pass. The country would join a handful of others allowing terminally ill patients to obtain aid to end their lives.","link":"https://www.nytimes.com/2020/12/17/world/europe/spain-euthanasia-assisted-suicide.html","published":"Fri, 18 Dec 2020 09:02:08 +0000","geolocations":[{"name":"Madrid","count":1,"lat":40.41955,"lng":-3.69196,"type":"point"},{"name":"Spain","count":3,"lat":40.41955,"lng":-3.69196,"type":"country"}],"source":"The New York Times"},{"feed_name":"World","feed_url":"https://rss.nytimes.com/services/xml/rss/nyt/World.xml","title":"The F.D.A.’s emergency authorization of Moderna’s vaccine is expected today.","summary":"","link":"https://www.nytimes.com/2020/12/18/world/the-fdas-emergency-authorization-of-modernas-vaccine-is-expected-today.html","published":"Fri, 18 Dec 2020 20:28:31 +0000","geolocations":[{"name":"U.S.","count":1,"lat":38.89037,"lng":-77.03196,"type":"country"},{"name":"Cambridge","count":1,"lat":52.20992,"lng":0.11161,"type":"point"}],"source":"The New York Times"},{"feed_name":"World","feed_url":"https://www.latimes.com/world/rss2.0.xml","title":"Coronavirus vaccinations begin in historic U.S. campaign","summary":"<p>The first coronavirus vaccinations arrive nearly 11 months after the nation's first case was diagnosed. </p>","link":"https://www.latimes.com/world-nation/story/2020-12-14/coronavirus-vaccinations-begin-in-historic-u-s-campaign","published":"Tue, 15 Dec 2020 02:48:42 -0500","geolocations":[{"name":"America","count":1,"lat":51.43739,"lng":5.98176,"type":"point"},{"name":"Long Island","count":2,"lat":40.75072,"lng":-73.94103,"type":"point"},{"name":"New York","count":4,"lat":40.71455,"lng":-74.00714,"type":"point"},{"name":"U.S.","count":2,"lat":38.89037,"lng":-77.03196,"type":"country"},{"name":"N.Y.","count":1,"lat":40.71455,"lng":-74.00714,"type":"point"},{"name":"Los Angeles","count":1,"lat":34.05357,"lng":-118.24545,"type":"point"},{"name":"California","count":1,"lat":38.57944,"lng":-121.49085,"type":"point"},{"name":"Oklahoma City","count":2,"lat":35.47203,"lng":-97.52107,"type":"point"},{"name":"Oklahoma","count":1,"lat":35.47203,"lng":-97.52107,"type":"point"},{"name":"Louisville","count":3,"lat":38.25489,"lng":-85.76666,"type":"point"},{"name":"Ky.","count":2,"lat":19.29657,"lng":-81.38175,"type":"country"},{"name":"Kalamazoo","count":1,"lat":42.29157,"lng":-85.58839,"type":"point"},{"name":"Portage","count":1,"lat":42.20159,"lng":-85.58937,"type":"point"},{"name":"Mich.","count":1,"lat":19.20709,"lng":-101.87815,"type":"point"},{"name":"Miramar","count":2,"lat":10.09102,"lng":-84.72239,"type":"point"},{"name":"Fla.","count":4,"lat":49.43176,"lng":1.80087,"type":"point"},{"name":"Tampa","count":2,"lat":27.94653,"lng":-82.45927,"type":"point"},{"name":"Seattle","count":2,"lat":47.60357,"lng":-122.32945,"type":"point"},{"name":"San Juan","count":2,"lat":18.39169,"lng":-66.06259,"type":"point"},{"name":"Puerto Rico","count":2,"lat":18.22286,"lng":-66.4685,"type":"country"},{"name":"Baton Rouge","count":2,"lat":30.44335,"lng":-91.18664,"type":"point"},{"name":"La.","count":1,"lat":17.9518,"lng":102.61892,"type":"country"}],"source":"Los Angeles Times"},{"feed_name":"World","feed_url":"https://rss.nytimes.com/services/xml/rss/nyt/World.xml","title":"Lebanese Officials Try to Limit Inquiry Into Deadly Beirut Blast","summary":"Months after a huge explosion in Beirut’s port, the investigation has become mired in politics as powerful forces band together to block efforts to hold leaders accountable.","link":"https://www.nytimes.com/2020/12/19/world/middleeast/beirut-explosion-investigation-arrests.html","published":"Sat, 19 Dec 2020 12:57:04 +0000","geolocations":[{"name":"Beirut","count":3,"lat":33.89607,"lng":35.50678,"type":"point"},{"name":"Lebanon","count":3,"lat":33.89607,"lng":35.50678,"type":"country"}],"source":"The New York Times"},{"feed_name":"World","feed_url":"https://www.theguardian.com/world/rss","title":"Housing association pays tenant £31,000 over neighbours’ racism","summary":"<p>Court found L&amp;Q had misled black woman who was harassed by family and had to flee her home</p><p>A leading housing association has been condemned by a court for failing to support a tenant made homeless after a racist campaign by neighbours.</p><p><a href=\"https://www.theguardian.com/housing-network/2012/jun/08/london-and-quadrant\" title=\"\">London &amp; Quadrant (L&amp;Q),</a> which accommodates 250,000 people across London and the south-east, ignored a code of practice on protecting tenants from racial harassment and was guilty of defensiveness and insensitivity, according to a county court judgment issued last week. </p> <a href=\"https://www.theguardian.com/society/2020/dec/19/housing-association-pays-tenant-31000-over-neighbours-racism\">Continue reading...</a>","link":"https://www.theguardian.com/society/2020/dec/19/housing-association-pays-tenant-31000-over-neighbours-racism","published":"Sat, 19 Dec 2020 13:25:57 GMT","geolocations":[{"name":"London","count":3,"lat":51.50643,"lng":-0.12719,"type":"point"},{"name":"Nottingham","count":1,"lat":52.94798,"lng":-1.15156,"type":"point"}],"source":"The Guardian"},