[{"feed_name":"World - Europe","feed_url":"http://feeds.bbci.co.uk/news/world/rss.xml","title":"2020 and me: 'EndSARS was our Black Lives Matter'","summary":"After protests, a strike, and lockdown, Kiki, a student from Lagos, Nigeria, can’t wait for the year to be over.","link":"https://www.bbc.co.uk/news/world-africa-55363838","published":"Sun, 27 Dec 2020 00:00:42 GMT","geolocations":[{"name":"Lagos","count":1,"lat":6.48805,"lng":3.38118,"type":"point"},{"name":"Nigeria","count":1,"lat":9.06344,"lng":7.46228,"type":"country"}],"source":"BBC"},{"feed_name":"World","feed_url":"https://rss.nytimes.com/services/xml/rss/nyt/World.xml","title":"Pakistani Court Orders Men Released in Daniel Pearl Case","summary":"A detention order had been applied to four men accused in the American journalist’s abduction and murder even after their convictions were overturned.","link":"https://www.nytimes.com/2020/12/24/world/asia/pakistan-daniel-pearl-release.html","published":"Thu, 24 Dec 2020 18:36:21 +0000","geolocations":[{"name":"Karachi","count":2,"lat":57.71375,"lng":50.09435,"type":"point"},{"name":"Pakistan","count":1,"lat":33.70964,"lng":73.07545,"type":"point"},{"name":"Sindh Province","count":1,"lat":43.07715,"lng":-7.66689,"type":"point"}],"source":"The New York Times"},{"feed_name":"World","feed_url":"https://www.theguardian.com/world/rss","title":"Idi Amin challenged my father to a wrestling match – then chickened out","summary":"<p>Uganda has never acknowledged the sporting legacy of athlete ‘Sunlight’ Okiror. Almost 30 years after his death, his son hopes this might change</p><p>My father, Samson “Sunlight” Okiror, lived an extraordinary life. He was a soldier, a rebel and one of Uganda’s most famous sportsmen.</p><p>A wrestler and heavyweight lifter, he could lift a car off the ground. He could tie a rope to a Land Rover and stop it from moving when the engine was turned on. He could stretch steel chains and springs. He travelled across east Africa and to Europe to train and perform.</p> <a href=\"https://www.theguardian.com/global-development/2020/dec/25/idi-amin-challenged-my-dad-to-a-wrestling-match-then-chickened-out\">Continue reading...</a>","link":"https://www.theguardian.com/global-development/2020/dec/25/idi-amin-challenged-my-dad-to-a-wrestling-match-then-chickened-out","published":"Fri, 25 Dec 2020 07:15:40 GMT","geolocations":[{"name":"Uganda","count":5,"lat":0.31589,"lng":32.57501,"type":"country"},{"name":"Africa","count":4,"lat":43.10832,"lng":12.77534,"type":"point"},{"name":"Europe","count":1,"lat":-33.98201,"lng":18.58413,"type":"point"},{"name":"Serere","count":2,"lat":1.51831,"lng":33.45956,"type":"point"},{"name":"Lake","count":1,"lat":51.01933,"lng":-93.82312,"type":"point"},{"name":"Kampala","count":2,"lat":0.31589,"lng":32.57501,"type":"point"},{"name":"The African Union","count":1,"lat":-26.25737,"lng":28.15963,"type":"point"},{"name":"Germany","count":1,"lat":52.51604,"lng":13.37691,"type":"country"}],"source":"The Guardian"},{"feed_name":"World","feed_url":"https://www.aljazeera.com/xml/rss/all.xml","title":"Uganda: Bobi Wine says bodyguard killed in violence ahead of poll","summary":"Francis Senteza died amid violent confrontations between security forces and followers of singer and opposition leader.","link":"https://www.aljazeera.com/news/2020/12/27/uganda-bobi-wine-says-bodyguard-kill-in-election-violence","published":"Sun, 27 Dec 2020 17:26:11 +0000","geolocations":[{"name":"Uganda","count":4,"lat":0.31589,"lng":32.57501,"type":"country"},{"name":"Kampala","count":1,"lat":0.31589,"lng":32.57501,"type":"point"},{"name":"United Kingdom","count":1,"lat":38.95953,"lng":-91.92768,"type":"point"}],"source":"Aljazeera"},{"feed_name":"World","feed_url":"https://rss.nytimes.com/services/xml/rss/nyt/World.xml","title":"Sailors Stranded for Months as China Refuses to Let Ships Unload Australian Coal","summary":"China is vague about why vessels that carried Australian coal to its ports can’t unload their cargo. “We’re all depressed; our mental health is deteriorating,” one sailor said.","link":"https://www.nytimes.com/2020/12/26/business/coal-ships-china-australia.html","published":"Sat, 26 Dec 2020 12:30:58 +0000","geolocations":[{"name":"Minneapolis","count":1,"lat":44.97902,"lng":-93.26494,"type":"point"},{"name":"Jingtang","count":1,"lat":16.04357,"lng":102.82628,"type":"point"},{"name":"Tangshan","count":1,"lat":53.25198,"lng":-0.54639,"type":"point"},{"name":"Switzerland","count":1,"lat":46.94843,"lng":7.44046,"type":"country"},{"name":"The British Virgin Islands","count":1,"lat":18.42878,"lng":-64.61324,"type":"country"},{"name":"China","count":3,"lat":39.90657,"lng":116.38765,"type":"country"},{"name":"Australia","count":2,"lat":-35.30654,"lng":149.12655,"type":"country"}],"source":"The New York Times"},{"feed_name":"World","feed_url":"https://www.theguardian.com/world/rss","title":"Nashville blast: officials identify Anthony Warner as the bomber","summary":"<p>Man suspected of blast died in the explosion that rocked center of city on Christmas day as officials reportedly examine whether he had 5G paranoia </p><p>Authorities in <a href=\"https://www.theguardian.com/us-news/tennessee\">Tennessee</a> on Sunday named a 63-year-old Nashville resident as the perpetrator of the Christmas morning bombing that injured three people and destroyed sections of the city’s historic downtown.</p><p>Anthony Quinn Warner, an information technology contractor from the south eastern suburb of Antioch, instigated and was killed in the explosion, according to law enforcement sources at an evening press briefing.</p> <a href=\"https://www.theguardian.com/us-news/2020/dec/27/nashville-blast-investigators-examine-5g-paranoia\">Continue reading...</a>","link":"https://www.theguardian.com/us-news/2020/dec/27/nashville-blast-investigators-examine-5g-paranoia","published":"Sun, 27 Dec 2020 20:47:31 GMT","geolocations":[{"name":"Tennessee","count":4,"lat":36.16784,"lng":-86.77816,"type":"point"},{"name":"Nashville","count":7,"lat":36.16784,"lng":-86.77816,"type":"point"},{"name":"Antioch","count":1,"lat":38.01583,"lng":-121.81974,"type":"point"},{"name":"Us","count":1,"lat":38.89037,"lng":-77.03196,"type":"country"},{"name":"The Middle District","count":1,"lat":-37.84929,"lng":175.32521,"type":"point"},{"name":"Memphis","count":1,"lat":35.14976,"lng":-90.04925,"type":"point"},{"name":"Rv","count":4,"lat":-30.90501,"lng":-55.54352,"type":"point"},{"name":"Florida","count":1,"lat":30.43977,"lng":-84.28065,"type":"point"},{"name":"Louisville","count":1,"lat":38.25489,"lng":-85.76666,"type":"point"},{"name":"Knoxville","count":1,"lat":35.96068,"lng":-83.92103,"type":"point"},{"name":"Birmingham","count":1,"lat":52.47891,"lng":-1.90592,"type":"point"},{"name":"Atlanta","count":1,"lat":33.74831,"lng":-84.39111,"type":"point"}],"source":"The Guardian"},{"feed_name":"World","feed_url":"https://www.aljazeera.com/xml/rss/all.xml","title":"US: Man charged in Illinois bowling alley shooting that killed 3","summary":"A US serviceman has been charged with three counts of murder and three counts of first-degree attempted murder.","link":"https://www.aljazeera.com/news/2020/12/27/us-man-charged-in-illinois-bowling-alley-shooting-that-killed-3","published":"Sun, 27 Dec 2020 19:18:56 +0000","geolocations":[{"name":"Us","count":2,"lat":38.89037,"lng":-77.03196,"type":"country"},{"name":"Florida","count":1,"lat":30.43977,"lng":-84.28065,"type":"point"},{"name":"Winnebago County State’S","count":1,"lat":44.10074,"lng":-88.64871,"type":"point"},{"name":"Rockford","count":3,"lat":42.2669,"lng":-89.0774,"type":"point"},{"name":"Illinois","count":1,"lat":39.8013,"lng":-89.6436,"type":"point"},{"name":"Chicago","count":1,"lat":41.88425,"lng":-87.63245,"type":"point"}],"source":"Aljazeera"},{"feed_name":"World","feed_url":"https://rss.nytimes.com/services/xml/rss/nyt/World.xml","title":"UK Increasingly Isolated as US Restricts Travel Due to Coronavirus","summary":"America’s requirement that passengers coming from Britain provide negative coronavirus tests is just the latest woe to strike the country this Christmas period.","link":"https://www.nytimes.com/2020/12/25/world/europe/covid-19-uk-travel-us.html","published":"Fri, 25 Dec 2020 22:11:18 +0000","geolocations":[{"name":"United Kingdom","count":3,"lat":38.95953,"lng":-91.92768,"type":"point"},{"name":"Germany","count":1,"lat":52.51604,"lng":13.37691,"type":"country"},{"name":"Singapore","count":1,"lat":1.29041,"lng":103.85211,"type":"country"},{"name":"Denmark","count":1,"lat":55.67567,"lng":12.56756,"type":"country"},{"name":"France","count":2,"lat":48.85717,"lng":2.3414,"type":"country"}],"source":"The New York Times"},{"feed_name":"World - Europe","feed_url":"http://feeds.bbci.co.uk/news/world/rss.xml","title":"Nashville explosion: Camper van blast suspect named by police","summary":"Investigators say Anthony Quinn Warner, 63, died in the powerful explosion on Christmas Day.","link":"https://www.bbc.co.uk/news/world-us-canada-55460895","published":"Mon, 28 Dec 2020 00:20:53 GMT","geolocations":[{"name":"Rv","count":1,"lat":-30.90501,"lng":-55.54352,"type":"point"}],"source":"BBC"},{"feed_name":"World","feed_url":"https://rss.nytimes.com/services/xml/rss/nyt/World.xml","title":"Pope Francis Makes Christmas Appeal for Nations to Share Covid-19 Vaccines","summary":"The pope made his remarks from inside the Vatican instead of before large crowds on St. Peter’s Square, as Christians around the world scaled back or reimagined Christmas traditions.","link":"https://www.nytimes.com/2020/12/25/world/europe/pope-francis-christmas-vaccines.html","published":"Fri, 25 Dec 2020 17:08:51 +0000","geolocations":[{"name":"Rome","count":1,"lat":41.90322,"lng":12.49565,"type":"point"},{"name":"St. Peter’S Square","count":1,"lat":52.95231,"lng":-1.14915,"type":"point"}],"source":"The New York Times"},{"feed_name":"World","feed_url":"https://www.theguardian.com/world/rss","title":"Snack bar in Pompeii offers insights into ancient eating habits – video report","summary":"<p>The director of archaeology at Pompeii shows an exceptionally well-preserved snack bar, or <i>thermopolium,</i> which served food and drink to passers-by. Traces of food have been found in some of the jars, and the frescoes offer insights into Pompeiian eating habits. Human remains were also found of a victim of the volcanic eruption in AD79 that buried the ancient Roman city</p><ul><li><a href=\"https://www.theguardian.com/world/2020/dec/26/exceptionally-well-preserved-snack-bar-unearthed-in-pompeii\">Exceptionally well-preserved snack bar unearthed in Pompeii</a><br /></li></ul> <a href=\"https://www.theguardian.com/world/video/2020/dec/27/snack-bar-pompeii-offers-insights-ancient-eating-habits-video-report\">Continue reading...</a>","link":"https://www.theguardian.com/world/video/2020/dec/27/snack-bar-pompeii-offers-insights-ancient-eating-habits-video-report","published":"Sun, 27 Dec 2020 11:35:35 GMT","geolocations":[{"name":"Pompeii","count":1,"lat":-23.82859,"lng":31.06975,"type":"point"},{"name":"Pompeiian","count":1,"lat":40.72104,"lng":-73.76651,"type":"point"},{"name":"Roman","count":1,"lat":46.92514,"lng":26.92928,"type":"point"}],"source":"The Guardian"},{"feed_name":"World - Europe","feed_url":"http://feeds.bbci.co.uk/news/world/rss.xml","title":"'She is beautiful but she is Indian': The student who became a Welsh bard at 19","summary":"Dorothy Bonarjee was Indian by birth, English by upbringing, French by marriage - and Welsh at heart.","link":"https://www.bbc.co.uk/news/stories-55430717","published":"Mon, 28 Dec 2020 00:07:57 GMT","geolocations":[{"name":"India","count":1,"lat":28.63095,"lng":77.21721,"type":"country"},{"name":"London","count":1,"lat":51.50643,"lng":-0.12719,"type":"point"},{"name":"France","count":1,"lat":48.85717,"lng":2.3414,"type":"country"}],"source":"BBC"},{"feed_name":"World","feed_url":"https://www.aljazeera.com/xml/rss/all.xml","title":"Stillbirths: An overlooked consequence of the COVID-19 pandemic","summary":"Lockdown strain, overwhelmed health services and mistaken symptoms are leaving pregnant women at risk.","link":"https://www.aljazeera.com/features/2020/12/27/stillbirths-overlooked-consequence-covid19-pandemic","published":"Sun, 27 Dec 2020 10:05:57 +0000","geolocations":[{"name":"Nepal","count":6,"lat":27.69329,"lng":85.32227,"type":"country"},{"name":"London","count":3,"lat":51.50643,"lng":-0.12719,"type":"point"},{"name":"The United Kingdom","count":1,"lat":38.95953,"lng":-91.92768,"type":"point"},{"name":"Italy","count":1,"lat":41.90322,"lng":12.49565,"type":"country"},{"name":"India","count":3,"lat":28.63095,"lng":77.21721,"type":"country"},{"name":"Iran","count":3,"lat":35.68877,"lng":51.41503,"type":"country"},{"name":"Pakistan","count":1,"lat":33.70964,"lng":73.07545,"type":"point"},{"name":"Peru","count":5,"lat":-12.05613,"lng":-77.02679,"type":"country"},{"name":"Bangladesh","count":1,"lat":23.71325,"lng":90.39959,"type":"country"},{"name":"Brazil","count":2,"lat":-15.77829,"lng":-47.92909,"type":"country"},{"name":"New York","count":1,"lat":40.71455,"lng":-74.00714,"type":"point"},{"name":"Texas","count":1,"lat":30.26759,"lng":-97.74299,"type":"point"},{"name":"Scotland","count":2,"lat":55.95438,"lng":-3.20144,"type":"country"},{"name":"Uganda","count":3,"lat":0.31589,"lng":32.57501,"type":"country"},{"name":"Kampala","count":1,"lat":0.31589,"lng":32.57501,"type":"point"},{"name":"Renfrew","count":3,"lat":55.87439,"lng":-4.39383,"type":"point"},{"name":"Thailand","count":1,"lat":13.75336,"lng":100.50483,"type":"country"},{"name":"Vietnam","count":1,"lat":21.02888,"lng":105.85464,"type":"country"},{"name":"West Africa’S","count":1,"lat":-25.75454,"lng":28.12443,"type":"point"}],"source":"Aljazeera"},{"feed_name":"World - Europe","feed_url":"http://feeds.bbci.co.uk/news/world/rss.xml","title":"US presidents' pets: Biden dogs Major and Champ to restore White House tradition","summary":"From Socks the cat to Macaroni the pony, the US presidential tradition is returning with Joe Biden.","link":"https://www.bbc.co.uk/news/election-us-2020-55369250","published":"Sat, 26 Dec 2020 00:02:20 GMT","geolocations":[{"name":"Us","count":1,"lat":38.89037,"lng":-77.03196,"type":"country"}],"source":"BBC"},{"feed_name":"World","feed_url":"https://rss.nytimes.com/services/xml/rss/nyt/World.xml","title":"Reginald Foster, Vatican Latinist Who Tweeted in the Language, Dies at 81","summary":"One of the world’s foremost experts on Latin, Father Foster was a monk who looked like a stevedore, dressed like a janitor and swore like a sailor.","link":"https://www.nytimes.com/2020/12/27/obituaries/reginald-foster-vatican-latinist-who-tweeted-in-the-language-dies-at-81.html","published":"Sun, 27 Dec 2020 19:00:00 +0000","geolocations":[{"name":"Rome","count":3,"lat":41.90322,"lng":12.49565,"type":"point"},{"name":"Milwaukee","count":1,"lat":43.04174,"lng":-87.90681,"type":"point"},{"name":"Latinist","count":1,"lat":53.61195,"lng":-2.16269,"type":"point"},{"name":"New Hampshire","count":1,"lat":43.20725,"lng":-71.5366,"type":"point"}],"source":"The New York Times"},{"feed_name":"World - Europe","feed_url":"http://feeds.bbci.co.uk/news/world/rss.xml","title":"Covid in the classroom: How the pandemic changed these three teachers' lives","summary":"Three teachers in the US reflect on how drastically their jobs have changed during 2020.","link":"https://www.bbc.co.uk/news/world-us-canada-55372611","published":"Sun, 27 Dec 2020 00:00:49 GMT","geolocations":[{"name":"Us","count":1,"lat":38.89037,"lng":-77.03196,"type":"country"}],"source":"BBC"},{"feed_name":"World","feed_url":"https://www.theguardian.com/world/rss","title":"Tunisia minister sacked and arrested in scandal over illegal waste from Italy","summary":"<p>Mustapha Aroui held along with 22 others after 200 containers of decaying household and medical waste discovered in July</p><p>Tunisia’s environment minister has been arrested following the attempted importation of household and hospital waste from Italy.</p><p>Mustapha Aroui was dismissed from his post and <a href=\"https://www.voaafrique.com/a/controverse-autour-des-centaines-de-conteneurs-de-d%C3%A9chets-d-italie/5707396.html\">subsequently arrested</a> on Sunday, along with several other people, <a href=\"https://www.france24.com/fr/afrique/20201221-d%C3%A9chets-italiens-ill%C3%A9gaux-en-tunisie-plusieurs-hauts-responsables-interpell%C3%A9s\">including</a> senior customs officials, members of its waste management agency, Agence Nationale de Gestion des Déchets (<a href=\"http://www.anged.nat.tn/\">ANGed</a>) and a Tunisian diplomat based in Naples.</p> <a href=\"https://www.theguardian.com/global-development/2020/dec/24/tunisia-minister-sacked-and-arrested-in-scandal-over-waste-from-italy-mustapha-aroui\">Continue reading...</a>","link":"https://www.theguardian.com/global-development/2020/dec/24/tunisia-minister-sacked-and-arrested-in-scandal-over-waste-from-italy-mustapha-aroui","published":"Thu, 24 Dec 2020 10:46:37 GMT","geolocations":[{"name":"Tunisia","count":6,"lat":36.80001,"lng":10.1827,"type":"country"},{"name":"Italy","count":3,"lat":41.90322,"lng":12.49565,"type":"country"},{"name":"Naples","count":1,"lat":40.84016,"lng":14.25222,"type":"point"},{"name":"Sousse","count":1,"lat":35.82903,"lng":10.63778,"type":"point"}],"source":"The Guardian"},{"feed_name":"World","feed_url":"https://www.theguardian.com/world/rss","title":"'Let's get vaccinated': Europe rolls out Covid-19 vaccine – video report","summary":"<p>European nations launched a massive vaccination drive on Sunday, with pensioners and medics lining up to take the first shots to see off the coronavirus pandemic that has claimed more than 1.7 million lives worldwide. With surveys pointing to high levels of hesitancy about the vaccine in countries from France to Poland, leaders of the EU27 are promoting it as the best chance of getting back to something like normal life in 2021</p><ul><li><a href=\"https://www.theguardian.com/world/live/2020/dec/27/coronavirus-live-covid-vaccine-inoculation-lockdown-eu-uk-news-latest-updates\">Coronavirus news&nbsp;– live updates</a><br /></li><li><a href=\"https://www.theguardian.com/world/2020/dec/27/eu-launches-mass-covid-19-vaccination-new-variant-spreads-pfizer-vaccine\">EU launches mass Covid-19 vaccination as new variant spreads</a><br /></li><li><a href=\"https://www.theguardian.com/world/2020/dec/27/vaccination-rolls-out-across-europe-but-anger-remains-over-late-start\">Covid-19 vaccination rolls out across Europe, but anger remains over late start</a><br /></li></ul> <a href=\"https://www.theguardian.com/world/video/2020/dec/27/europe-rolls-out-covid-19-vaccine-video-report\">Continue reading...</a>","link":"https://www.theguardian.com/world/video/2020/dec/27/europe-rolls-out-covid-19-vaccine-video-report","published":"Sun, 27 Dec 2020 16:15:19 GMT","geolocations":[{"name":"France","count":1,"lat":48.85717,"lng":2.3414,"type":"country"},{"name":"Poland","count":1,"lat":52.2356,"lng":21.01037,"type":"country"}],"source":"The Guardian"},{"feed_name":"World","feed_url":"https://rss.nytimes.com/services/xml/rss/nyt/World.xml","title":"How Canada Has Become a Pilgrimage Site for 'Schitt's Creek' Fans","summary":"The hamlet that was the backdrop for the hit television series “Schitt’s Creek” has become a pilgrimage site for fans, to the joy and consternation of locals.","link":"https://www.nytimes.com/2020/12/24/world/canada/schitts-creek.html","published":"Sun, 27 Dec 2020 05:02:34 +0000","geolocations":[{"name":"Goodwood","count":1,"lat":-33.90638,"lng":18.55145,"type":"point"},{"name":"Ontario","count":1,"lat":43.64869,"lng":-79.38544,"type":"point"},{"name":"Schitt’S Creek","count":1,"lat":-28.27366,"lng":153.50774,"type":"point"}],"source":"The New York Times"},{"feed_name":"World","feed_url":"https://www.latimes.com/world/rss2.0.xml","title":"Pandemic closures alter the rhythm of life in towns on both sides of the U.S.-Mexico border","summary":"<p>Scaled-back hours at the border add difficulty for those who travel between countries for work, shopping and school.</p>","link":"https://www.latimes.com/world-nation/story/2020-12-22/bisbee-arizona-coronavirus-covid-19-mexico-border","published":"Tue, 22 Dec 2020 07:00:20 -0500","geolocations":[{"name":"U.S.","count":12,"lat":38.89037,"lng":-77.03196,"type":"country"},{"name":"Mexico","count":17,"lat":23.94757,"lng":-102.5411,"type":"country"},{"name":"Arizona","count":4,"lat":33.44825,"lng":-112.0758,"type":"point"},{"name":"Bisbee","count":17,"lat":31.44185,"lng":-109.91478,"type":"point"},{"name":"Naco","count":10,"lat":31.32692,"lng":-109.94841,"type":"point"},{"name":"Ariz.","count":3,"lat":40.2535,"lng":28.22813,"type":"point"},{"name":"Canada","count":1,"lat":45.42178,"lng":-75.69116,"type":"country"},{"name":"Sonora","count":6,"lat":37.98329,"lng":-120.38219,"type":"point"},{"name":"Texas","count":2,"lat":30.26759,"lng":-97.74299,"type":"point"},{"name":"Nogales","count":1,"lat":18.82165,"lng":-97.16297,"type":"point"},{"name":"Cochise County","count":1,"lat":31.96812,"lng":-110.28625,"type":"point"},{"name":"Laredo","count":1,"lat":27.53092,"lng":-99.50223,"type":"point"},{"name":"El Paso","count":1,"lat":31.75916,"lng":-106.48749,"type":"point"},{"name":"Tarazon","count":1,"lat":41.90457,"lng":-1.72321,"type":"point"},{"name":"Borrajo","count":1,"lat":39.96746,"lng":-4.81228,"type":"point"}],"source":"Los Angeles Times"},{"feed_name":"World","feed_url":"https://www.latimes.com/world/rss2.0.xml","title":"Under Trump, America's nuclear weapons industry has boomed","summary":"<p>Expansion could be scaled back as President-elect Joe Biden and Congress prioritize pandemic and recession problems.</p>","link":"https://www.latimes.com/world-nation/story/2020-12-23/under-trump-americas-nuclear-weapons-industry-has-boomed","published":"Wed, 23 Dec 2020 19:01:50 -0500","geolocations":[{"name":"America","count":4,"lat":51.43739,"lng":5.98176,"type":"point"},{"name":"Texas","count":3,"lat":30.26759,"lng":-97.74299,"type":"point"},{"name":"South Carolina","count":2,"lat":33.99882,"lng":-81.04537,"type":"point"},{"name":"Tennessee","count":1,"lat":36.16784,"lng":-86.77816,"type":"point"},{"name":"New Mexico","count":1,"lat":35.69177,"lng":-105.93824,"type":"point"},{"name":"U.S.","count":3,"lat":38.89037,"lng":-77.03196,"type":"country"},{"name":"Los Alamos","count":5,"lat":35.88101,"lng":-106.30522,"type":"point"},{"name":"N.M.","count":2,"lat":35.69177,"lng":-105.93824,"type":"point"},{"name":"Livermore","count":2,"lat":37.6757,"lng":-121.75856,"type":"point"},{"name":"Calif.","count":2,"lat":3.43402,"lng":-76.52645,"type":"point"},{"name":"United Kingdom","count":1,"lat":38.95953,"lng":-91.92768,"type":"point"},{"name":"Russia","count":1,"lat":55.75696,"lng":37.61502,"type":"country"},{"name":"China","count":1,"lat":39.90657,"lng":116.38765,"type":"country"},{"name":"North Korea","count":1,"lat":39.01196,"lng":125.78684,"type":"country"},{"name":"Iran","count":1,"lat":35.68877,"lng":51.41503,"type":"country"},{"name":"Hiroshima","count":2,"lat":-11.83436,"lng":-77.13986,"type":"point"},{"name":"Nevada","count":1,"lat":39.16506,"lng":-119.76697,"type":"point"},{"name":"Cheyenne","count":1,"lat":41.13481,"lng":-104.82154,"type":"point"},{"name":"Wyo.","count":1,"lat":39.78186,"lng":-122.19752,"type":"point"},{"name":"California","count":1,"lat":38.57944,"lng":-121.49085,"type":"point"},{"name":"Albuquerque","count":1,"lat":35.08423,"lng":-106.64905,"type":"point"},{"name":"Knoxville","count":1,"lat":35.96068,"lng":-83.92103,"type":"point"},{"name":"Tenn.","count":1,"lat":58.61606,"lng":16.14943,"type":"point"},{"name":"Augusta","count":1,"lat":48.37034,"lng":10.89788,"type":"point"},{"name":"Ga.","count":1,"lat":0.39324,"lng":9.44633,"type":"country"},{"name":"Manhattan","count":1,"lat":39.17881,"lng":-96.56184,"type":"point"},{"name":"The Western Hemisphere","count":1,"lat":8.34108,"lng":-13.10603,"type":"point"},{"name":"Ohio","count":1,"lat":39.96199,"lng":-83.00275,"type":"point"},{"name":"Washington","count":1,"lat":38.89037,"lng":-77.03196,"type":"point"}],"source":"Los Angeles Times"},{"feed_name":"World - Europe","feed_url":"http://feeds.bbci.co.uk/news/world/rss.xml","title":"Coronavirus: EU countries begin mass vaccination","summary":"Countries across the EU received their first shipments of the Pfizer/BioNTech Covid-19 vaccines.","link":"https://www.bbc.co.uk/news/world-55456189","published":"Sat, 26 Dec 2020 22:28:18 GMT","geolocations":[{"name":"Budapest","count":1,"lat":47.49972,"lng":19.05508,"type":"point"}],"source":"BBC"},{"feed_name":"World","feed_url":"https://www.latimes.com/world/rss2.0.xml","title":"In the year of the coronavirus, families across the U.S. reflect on the bright spots","summary":"<p>Families are using end-of-year newsletters as a form of retrospection, showing gratitude for the things they may have taken for granted in the past.</p>","link":"https://www.latimes.com/world-nation/story/2020-12-24/in-the-year-of-the-coronavirus-families-across-the-u-s-reflect-on-the-bright-spots","published":"Thu, 24 Dec 2020 16:11:23 -0500","geolocations":[{"name":"Portland","count":1,"lat":45.51179,"lng":-122.67563,"type":"point"},{"name":"Ore.","count":1,"lat":6.76139,"lng":4.8762,"type":"point"},{"name":"The United States","count":2,"lat":38.89037,"lng":-77.03196,"type":"country"},{"name":"Phoneix","count":1,"lat":53.36776,"lng":-6.32594,"type":"point"},{"name":"Cambridge","count":1,"lat":52.20992,"lng":0.11161,"type":"point"},{"name":"Mass.","count":1,"lat":46.76209,"lng":-89.07818,"type":"point"},{"name":"Honduras","count":1,"lat":14.08192,"lng":-87.20547,"type":"country"},{"name":"Rockbridge County","count":1,"lat":39.27647,"lng":-90.23197,"type":"point"},{"name":"Va.","count":1,"lat":41.9024,"lng":12.45843,"type":"country"},{"name":"Washington","count":1,"lat":38.89037,"lng":-77.03196,"type":"point"},{"name":"Rogers","count":1,"lat":36.33349,"lng":-94.12494,"type":"point"},{"name":"Chicago","count":1,"lat":41.88425,"lng":-87.63245,"type":"point"},{"name":"San Luis","count":1,"lat":-33.3022,"lng":-66.33759,"type":"point"}],"source":"Los Angeles Times"},{"feed_name":"World","feed_url":"https://rss.nytimes.com/services/xml/rss/nyt/World.xml","title":"With Pandemic Raging, London Homeless Shelter in Hotels for Awhile","summary":"Many homeless people in London will stay in hotels over the Christmas and New Year holidays, if not longer, through funding from charities and the government.","link":"https://www.nytimes.com/2020/12/25/world/europe/homeless-coronavirus-christmas.html","published":"Fri, 25 Dec 2020 21:06:25 +0000","geolocations":[{"name":"U.K.","count":1,"lat":29.93186,"lng":77.81922,"type":"point"}],"source":"The New York Times"},{"feed_name":"World","feed_url":"https://www.latimes.com/world/rss2.0.xml","title":"Congress approves hospice care reforms to improve oversight, transparency","summary":"<p>Fines and other penalties are set for bad actors in an industry marked by weak regulation.</p>","link":"https://www.latimes.com/california/story/2020-12-23/hospice-terminally-ill-fraud-care-reforms-transparency-oversight-spending-bill","published":"Wed, 23 Dec 2020 06:00:03 -0500","geolocations":[{"name":"U.S.","count":1,"lat":38.89037,"lng":-77.03196,"type":"country"},{"name":"N.Y.","count":1,"lat":40.71455,"lng":-74.00714,"type":"point"},{"name":"California","count":3,"lat":38.57944,"lng":-121.49085,"type":"point"},{"name":"Los Angeles County","count":1,"lat":34.28089,"lng":-119.14472,"type":"point"}],"source":"Los Angeles Times"},{"feed_name":"World","feed_url":"https://www.latimes.com/world/rss2.0.xml","title":"Harry Reid made Nevada a presidential battleground. Now he wants more","summary":"<p>The former Senate majority leader wants to shove aside Iowa and New Hampshire and make his state first in the nominating process.</p>","link":"https://www.latimes.com/politics/story/2020-12-22/harry-reid-joe-biden-nevada-presidential-calendar","published":"Tue, 22 Dec 2020 08:00:32 -0500","geolocations":[{"name":"Nevada","count":13,"lat":39.16506,"lng":-119.76697,"type":"point"},{"name":"Iowa","count":9,"lat":41.58981,"lng":-93.61538,"type":"point"},{"name":"New Hampshire","count":10,"lat":43.20725,"lng":-71.5366,"type":"point"},{"name":"Henderson","count":1,"lat":36.03178,"lng":-114.98207,"type":"point"},{"name":"Las Vegas","count":2,"lat":36.17193,"lng":-115.14001,"type":"point"},{"name":"West","count":2,"lat":-14.3239,"lng":-170.76852,"type":"point"},{"name":"California","count":2,"lat":38.57944,"lng":-121.49085,"type":"point"},{"name":"America","count":1,"lat":51.43739,"lng":5.98176,"type":"point"},{"name":"South Carolina","count":1,"lat":33.99882,"lng":-81.04537,"type":"point"}],"source":"Los Angeles Times"},{"feed_name":"World","feed_url":"https://www.theguardian.com/world/rss","title":"Pardons sink Trump further into swamp of his own shamelessness","summary":"<p><strong>Analysis: </strong>President sanctions first federal execution of a woman in 67 years – but war criminals, fraudsters and Russia-linked cronies go free</p><p>Lisa Montgomery is set to become the first woman put to death by the US federal government in 67 years. On Tuesday senators including Cory Booker, Bernie Sanders and Elizabeth Warren wrote to the justice department <a href=\"https://www.warren.senate.gov/imo/media/doc/2020.12.21%20Letter%20to%20DOJ%20IG%20on%20federal%20executions%20FINAL.pdf\">demanding an investigation</a> into an “unprecedented spree” of federal executions on Donald Trump’s watch.</p><p>A few hours later the president <a href=\"https://www.theguardian.com/us-news/2020/dec/22/who-trump-pardon-guide-george-papadopoulos-duncan-hunter\">announced a slew of 15 pardons</a>. Strikingly they included <a href=\"https://www.theguardian.com/world/2020/dec/23/trump-pardons-blackwater-contractors-jailed-for-massacre-of-iraq-civilians\">four military contractors</a> imprisoned for the killing of unarmed men, women and children in Iraq. In short, war criminals.</p> <a href=\"https://www.theguardian.com/us-news/2020/dec/23/pardons-sink-trump-further-into-swamp-of-his-own-shamelessness\">Continue reading...</a>","link":"https://www.theguardian.com/us-news/2020/dec/23/pardons-sink-trump-further-into-swamp-of-his-own-shamelessness","published":"Wed, 23 Dec 2020 04:54:16 GMT","geolocations":[{"name":"Us","count":2,"lat":38.89037,"lng":-77.03196,"type":"country"},{"name":"Iraq","count":1,"lat":33.3421,"lng":44.39307,"type":"country"},{"name":"Blackwater","count":2,"lat":-23.58569,"lng":148.88012,"type":"point"},{"name":"Baghdad","count":1,"lat":33.3421,"lng":44.39307,"type":"point"},{"name":"The District Of Columbia","count":1,"lat":44.63305,"lng":-67.85116,"type":"point"},{"name":"Russia","count":1,"lat":55.75696,"lng":37.61502,"type":"country"},{"name":"Moscow","count":1,"lat":55.75696,"lng":37.61502,"type":"point"},{"name":"Washington","count":1,"lat":38.89037,"lng":-77.03196,"type":"point"},{"name":"America","count":1,"lat":51.43739,"lng":5.98176,"type":"point"}],"source":"The Guardian"},{"feed_name":"World","feed_url":"https://www.aljazeera.com/xml/rss/all.xml","title":"How did the pandemic begin? WHO team to seek answers in China","summary":"Experts are preparing to travel to Wuhan to investigate how COVID-19 emerged as China questions origins and spread.","link":"https://www.aljazeera.com/news/2020/12/28/china-covid-19","published":"Mon, 28 Dec 2020 01:30:51 +0000","geolocations":[{"name":"China","count":24,"lat":39.90657,"lng":116.38765,"type":"country"},{"name":"Wuhan","count":15,"lat":30.64353,"lng":114.32472,"type":"point"},{"name":"Denmark","count":2,"lat":55.67567,"lng":12.56756,"type":"country"},{"name":"Qatar","count":1,"lat":25.29424,"lng":51.51967,"type":"country"},{"name":"Huanan","count":1,"lat":5.53682,"lng":5.76165,"type":"point"},{"name":"The South China","count":1,"lat":44.39725,"lng":-69.56944,"type":"point"},{"name":"Malayan","count":1,"lat":6.98696,"lng":124.91209,"type":"point"},{"name":"Guangdong","count":2,"lat":23.58391,"lng":121.36451,"type":"point"},{"name":"Yunnan Province","count":2,"lat":43.07715,"lng":-7.66689,"type":"point"},{"name":"Yunnan","count":1,"lat":1.33859,"lng":103.69216,"type":"point"},{"name":"Myanmar","count":3,"lat":21.11892,"lng":96.51169,"type":"country"},{"name":"Laos","count":2,"lat":17.9518,"lng":102.61892,"type":"country"},{"name":"Vietnam","count":1,"lat":21.02888,"lng":105.85464,"type":"country"},{"name":"Milan","count":1,"lat":45.46796,"lng":9.18178,"type":"point"},{"name":"The United States","count":1,"lat":38.89037,"lng":-77.03196,"type":"country"},{"name":"Spain","count":2,"lat":40.41955,"lng":-3.69196,"type":"country"},{"name":"Italy","count":2,"lat":41.90322,"lng":12.49565,"type":"country"},{"name":"Us","count":2,"lat":38.89037,"lng":-77.03196,"type":"country"}],"source":"Aljazeera"},{"feed_name":"World","feed_url":"https://www.theguardian.com/world/rss","title":"Georgia Senate runoff elections: a guide for non-Americans on how they work and why they matter","summary":"<p>The two runoffs on 5 January will decide whether the Republicans continue to control the Senate, with profound implications for Joe Biden’s presidency</p><p>On 5 January the US state of Georgia will vote, again, on who to send to the Senate.</p><p>The control of the Senate is up for grabs, and thus the prospects for the Biden administration – at least for the next two years.</p> <a href=\"https://www.theguardian.com/us-news/2020/dec/28/georgia-senate-runoff-elections-a-guide-for-non-americans-on-how-they-work-and-why-they-matter\">Continue reading...</a>","link":"https://www.theguardian.com/us-news/2020/dec/28/georgia-senate-runoff-elections-a-guide-for-non-americans-on-how-they-work-and-why-they-matter","published":"Sun, 27 Dec 2020 16:30:49 GMT","geolocations":[{"name":"Us","count":1,"lat":38.89037,"lng":-77.03196,"type":"country"},{"name":"Maine","count":1,"lat":44.31803,"lng":-69.77621,"type":"point"},{"name":"Vermont","count":1,"lat":44.26029,"lng":-72.57626,"type":"point"},{"name":"Atlanta","count":1,"lat":33.74831,"lng":-84.39111,"type":"point"}],"source":"The Guardian"},{"feed_name":"World","feed_url":"https://rss.nytimes.com/services/xml/rss/nyt/World.xml","title":"Brexit Deal Poses Threat to Boris Johnson and U.K. Conservative Party","summary":"Conservatives are united for now over the British prime minister’s trade deal, but as details emerge, he could face challenges from hard-liners and business groups.","link":"https://www.nytimes.com/2020/12/25/world/europe/brexit-uk-tories.html","published":"Fri, 25 Dec 2020 17:42:35 +0000","geolocations":[{"name":"London","count":1,"lat":51.50643,"lng":-0.12719,"type":"point"},{"name":"Europe","count":2,"lat":-33.98201,"lng":18.58413,"type":"point"}],"source":"The New York Times"},{"feed_name":"World","feed_url":"https://www.latimes.com/world/rss2.0.xml","title":"An Australian student denounced his university's ties to China. Then he became a target","summary":"<p>Drew Pavlou's battle against the University of Queensland illustrates China's influence over a key U.S. ally.</p>","link":"https://www.latimes.com/world-nation/story/2020-12-21/student-australia-china-xi-jinping-uighurs-muslims","published":"Mon, 21 Dec 2020 04:30:18 -0500","geolocations":[{"name":"Hong Kong","count":9,"lat":22.2783,"lng":114.16039,"type":"point"},{"name":"Brisbane","count":6,"lat":-27.46844,"lng":153.02334,"type":"point"},{"name":"Australia","count":15,"lat":-35.30654,"lng":149.12655,"type":"country"},{"name":"China","count":23,"lat":39.90657,"lng":116.38765,"type":"country"},{"name":"Beijing","count":14,"lat":39.90657,"lng":116.38765,"type":"point"},{"name":"U.S.","count":3,"lat":38.89037,"lng":-77.03196,"type":"country"},{"name":"Canberra","count":3,"lat":-35.30654,"lng":149.12655,"type":"point"},{"name":"Taiwan","count":2,"lat":25.03737,"lng":121.56355,"type":"country"},{"name":"Shanghai","count":1,"lat":39.45274,"lng":-78.15318,"type":"point"},{"name":"Queensland","count":1,"lat":-22.5681,"lng":144.54768,"type":"point"},{"name":"Sydney","count":1,"lat":-33.8696,"lng":151.20691,"type":"point"},{"name":"The South China Sea","count":1,"lat":26.07722,"lng":-97.16543,"type":"point"},{"name":"Xinjiang","count":1,"lat":35.61469,"lng":111.21768,"type":"point"},{"name":"East Turkestan","count":1,"lat":43.31648,"lng":68.2409,"type":"point"},{"name":"Melbourne","count":1,"lat":-37.81739,"lng":144.96751,"type":"point"},{"name":"Singapore","count":1,"lat":1.29041,"lng":103.85211,"type":"country"}],"source":"Los Angeles Times"},{"feed_name":"World","feed_url":"https://rss.nytimes.com/services/xml/rss/nyt/World.xml","title":"Austria enters its third lockdown. Israel is set to follow suit.","summary":"","link":"https://www.nytimes.com/2020/12/26/world/austria-enters-its-third-lockdown-israel-is-set-to-follow-suit.html","published":"Sat, 26 Dec 2020 23:28:35 +0000","geolocations":[{"name":"Austria","count":2,"lat":48.20263,"lng":16.36842,"type":"country"},{"name":"Vienna","count":1,"lat":48.20263,"lng":16.36842,"type":"point"}],"source":"The New York Times"},{"feed_name":"World","feed_url":"https://www.aljazeera.com/xml/rss/all.xml","title":"Gaza airport: The legacy of a Palestinian dream","summary":"The Yasser Arafat International Airport, now in ruins, was more than a project - it was a symbol of Palestinian freedom.","link":"https://www.aljazeera.com/features/2020/12/27/gaza-airport-the-legacy-of-a-palestinian-dream","published":"Sun, 27 Dec 2020 17:07:18 +0000","geolocations":[{"name":"Cairo","count":1,"lat":30.04427,"lng":31.23525,"type":"point"},{"name":"Gaza","count":11,"lat":-25.04706,"lng":33.64469,"type":"point"},{"name":"Al-Bada","count":4,"lat":28.51131,"lng":35.01451,"type":"point"},{"name":"Israel","count":3,"lat":31.78003,"lng":35.21873,"type":"country"},{"name":"Palestine","count":2,"lat":31.7617,"lng":-95.632,"type":"point"},{"name":"Rafah","count":1,"lat":31.26209,"lng":34.23592,"type":"point"},{"name":"Egypt","count":1,"lat":30.04427,"lng":31.23525,"type":"country"},{"name":"Jabalya","count":1,"lat":23.77439,"lng":84.35584,"type":"point"},{"name":"The Gaza Strip","count":4,"lat":31.40584,"lng":34.37689,"type":"country"},{"name":"Gaza Strip","count":1,"lat":31.40584,"lng":34.37689,"type":"country"}],"source":"Aljazeera"},{"feed_name":"World","feed_url":"https://www.theguardian.com/world/rss","title":"Uganda charges leading lawyer for LGBT rights with money laundering","summary":"<p>Human rights organisation says allegations that Nicholas Opiyo withdrew over $300,000 in funds are ‘frivolous’ and ‘fabricated’</p><p>Nicholas Opiyo, one of Uganda’s most prominent human rights lawyers, has been charged with money laundering.</p><p>Opiyo, known for representing LGBTQ+ people, appeared before magistrates in Kampala on Thursday and was remanded in custody until 28 December.</p> <a href=\"https://www.theguardian.com/global-development/2020/dec/24/uganda-charges-leading-lawyer-for-lgbt-rights-with-money-laundering-nicholas-opiyo\">Continue reading...</a>","link":"https://www.theguardian.com/global-development/2020/dec/24/uganda-charges-leading-lawyer-for-lgbt-rights-with-money-laundering-nicholas-opiyo","published":"Thu, 24 Dec 2020 15:18:41 GMT","geolocations":[{"name":"Uganda","count":4,"lat":0.31589,"lng":32.57501,"type":"country"},{"name":"Kampala","count":3,"lat":0.31589,"lng":32.57501,"type":"point"},{"name":"Us","count":1,"lat":38.89037,"lng":-77.03196,"type":"country"},{"name":"Eu","count":1,"lat":50.04903,"lng":1.42014,"type":"point"}],"source":"The Guardian"},{"feed_name":"World","feed_url":"https://www.latimes.com/world/rss2.0.xml","title":"With Education pick, Biden adds public schools proponent and third Latino to Cabinet","summary":"<p>Biden chooses Connecticut schools chief Miguel Cardona — a former teacher and a proponent of reopening schools during the pandemic — for Education.</p>","link":"https://www.latimes.com/politics/story/2020-12-22/biden-education-secretary","published":"Tue, 22 Dec 2020 10:09:30 -0500","geolocations":[{"name":"Connecticut","count":9,"lat":41.76375,"lng":-72.67394,"type":"point"},{"name":"California","count":1,"lat":38.57944,"lng":-121.49085,"type":"point"},{"name":"America","count":1,"lat":51.43739,"lng":5.98176,"type":"point"},{"name":"Meriden","count":2,"lat":41.53653,"lng":-72.7981,"type":"point"},{"name":"Puerto Rico","count":1,"lat":18.22286,"lng":-66.4685,"type":"country"},{"name":"Los Angeles","count":1,"lat":34.05357,"lng":-118.24545,"type":"point"}],"source":"Los Angeles Times"},{"feed_name":"World","feed_url":"https://www.aljazeera.com/xml/rss/all.xml","title":"Civilians flee Ain Issa, northeast Syria as clashes escalate","summary":"Kurdish-led SDF says Turkish-backed Syrian National Army has been shelling the city on daily basis for the past week.","link":"https://www.aljazeera.com/news/2020/12/27/civilians-flee-ain-issa-ne-syria-as-clashes-escalate","published":"Sun, 27 Dec 2020 16:38:47 +0000","geolocations":[{"name":"Ain Issa","count":5,"lat":34.94903,"lng":-4.29883,"type":"point"},{"name":"Syria","count":8,"lat":33.51656,"lng":36.31708,"type":"point"},{"name":"Ankara","count":4,"lat":39.92109,"lng":32.85391,"type":"point"},{"name":"United States","count":1,"lat":38.89037,"lng":-77.03196,"type":"country"},{"name":"Turkey","count":15,"lat":39.92109,"lng":32.85391,"type":"country"},{"name":"Us","count":4,"lat":38.89037,"lng":-77.03196,"type":"country"},{"name":"The Euphrates River","count":1,"lat":44.05049,"lng":-75.78857,"type":"point"},{"name":"Iraq","count":1,"lat":33.3421,"lng":44.39307,"type":"country"},{"name":"Ain Issa City","count":1,"lat":-20.72613,"lng":139.49189,"type":"point"},{"name":"Ras Al-Ain","count":1,"lat":32.91433,"lng":35.37308,"type":"point"},{"name":"Aleppo","count":1,"lat":39.82222,"lng":-80.44337,"type":"point"},{"name":"Kobane","count":1,"lat":42.91622,"lng":44.47606,"type":"point"},{"name":"Russia","count":7,"lat":55.75696,"lng":37.61502,"type":"country"},{"name":"Moscow","count":2,"lat":55.75696,"lng":37.61502,"type":"point"},{"name":"Sdc","count":1,"lat":-15.78955,"lng":-47.89559,"type":"point"}],"source":"Aljazeera"},{"feed_name":"World","feed_url":"https://www.theguardian.com/world/rss","title":"South Africa hits 1 million coronavirus cases as new variant spreads rapidly","summary":"<p>President Cyril Ramaphosa expected to announce new restrictions in attempt to slow the surge</p><ul><li><a href=\"https://www.theguardian.com/world/coronavirus-outbreak\">See all our coronavirus coverage</a></li></ul><p>South Africa’s Covid-19 surge has taken the country to more than 1 million confirmed cases as president Cyril Ramaphosa called an emergency meeting of the national coronavirus command council.</p><p>The country’s <a href=\"https://www.theguardian.com/world/2020/dec/23/south-african-covid-19-variant-may-be-more-effective-at-spreading\">new variant </a>of the coronavirus, 501.V2, is more contagious and has quickly become dominant in many areas of the resurgence, according to experts.</p> <a href=\"https://www.theguardian.com/world/2020/dec/28/south-africa-hits-1-million-coronavirus-cases-as-new-variant-spreads\">Continue reading...</a>","link":"https://www.theguardian.com/world/2020/dec/28/south-africa-hits-1-million-coronavirus-cases-as-new-variant-spreads","published":"Mon, 28 Dec 2020 00:30:11 GMT","geolocations":[{"name":"South Africa’S","count":3,"lat":-25.74587,"lng":28.18764,"type":"country"},{"name":"South Africa","count":3,"lat":-25.74587,"lng":28.18764,"type":"country"},{"name":"Western Cape","count":2,"lat":-33.91909,"lng":18.42198,"type":"point"},{"name":"Eastern Cape","count":1,"lat":-32.84831,"lng":27.44078,"type":"point"},{"name":"Gauteng","count":1,"lat":-26.20491,"lng":28.04006,"type":"point"},{"name":"Johannesburg","count":1,"lat":-26.20491,"lng":28.04006,"type":"point"}],"source":"The Guardian"},{"feed_name":"World","feed_url":"https://www.latimes.com/world/rss2.0.xml","title":"Families are turning obituaries into final pleas to avoid COVID-19","summary":"<p>Obituaries, once reserved for warm remembrances of the deceased, are including passionate and sometimes angry warnings about the dangers of the coronavirus and failures of government officials.</p>","link":"https://www.latimes.com/world-nation/story/2020-12-26/obituaries-include-warnings-of-covid-19","published":"Sat, 26 Dec 2020 08:00:52 -0500","geolocations":[{"name":"Evansville","count":1,"lat":37.97708,"lng":-87.56405,"type":"point"},{"name":"Ind.","count":1,"lat":28.63095,"lng":77.21721,"type":"country"},{"name":"San Francisco","count":1,"lat":37.77712,"lng":-122.41964,"type":"point"},{"name":"Phoenix","count":1,"lat":33.44825,"lng":-112.0758,"type":"point"},{"name":"Virginia","count":1,"lat":37.54068,"lng":-77.43367,"type":"point"},{"name":"Santa Cruz","count":1,"lat":28.46078,"lng":-16.2639,"type":"point"},{"name":"Scott City","count":1,"lat":37.21849,"lng":-89.51977,"type":"point"},{"name":"Kan.","count":1,"lat":18.35769,"lng":103.64398,"type":"point"},{"name":"America","count":1,"lat":51.43739,"lng":5.98176,"type":"point"}],"source":"Los Angeles Times"},{"feed_name":"World","feed_url":"https://rss.nytimes.com/services/xml/rss/nyt/World.xml","title":"For the E.U., Brexit Deal Is a Pretty Good One","summary":"The Brexit pact preserves crucial E.U. principles like the single market, and lets the bloc look ahead to its future without Britain.","link":"https://www.nytimes.com/2020/12/24/world/europe/european-union-brexit-britain.html","published":"Fri, 25 Dec 2020 14:58:37 +0000","geolocations":[{"name":"Brussels","count":1,"lat":50.84439,"lng":4.35609,"type":"point"},{"name":"United Kingdom","count":2,"lat":38.95953,"lng":-91.92768,"type":"point"}],"source":"The New York Times"},{"feed_name":"World","feed_url":"https://rss.nytimes.com/services/xml/rss/nyt/World.xml","title":"New Year's Eve Playlist From Around the World","summary":"This year finally coming to an end is reason enough to celebrate a bit.  Even if you had to stay home, your music can travel the world.","link":"https://www.nytimes.com/2020/12/26/at-home/playlist-from-around-the-world.html","published":"Sun, 27 Dec 2020 04:18:07 +0000","geolocations":[{"name":"South Korea","count":1,"lat":37.55886,"lng":126.99989,"type":"country"},{"name":"Jamaica","count":1,"lat":17.97096,"lng":-76.78827,"type":"country"}],"source":"The New York Times"},{"feed_name":"World","feed_url":"https://www.latimes.com/world/rss2.0.xml","title":"Can COVID-19 vaccines get us to herd immunity? 'The jury is definitely still out'","summary":"<p>The question of how many people must be vaccinated to reach herd immunity against COVID-19 is of crucial importance. Experts say the number is probably higher than previously thought.</p>","link":"https://www.latimes.com/world-nation/story/2020-12-26/covid-19-vaccines-herd-immunity-challenges","published":"Sat, 26 Dec 2020 06:00:23 -0500","geolocations":[{"name":"U.S.","count":2,"lat":38.89037,"lng":-77.03196,"type":"country"},{"name":"Earth","count":1,"lat":38.76564,"lng":-90.46003,"type":"point"}],"source":"Los Angeles Times"},{"feed_name":"World","feed_url":"https://rss.nytimes.com/services/xml/rss/nyt/World.xml","title":"These are the treasured diners and hidden haunts that Covid-19 closed for good.","summary":"","link":"https://www.nytimes.com/2020/12/27/us/these-are-the-treasured-diners-and-hidden-haunts-that-covid-19-closed-for-good.html","published":"Sun, 27 Dec 2020 23:58:52 +0000","geolocations":[{"name":"New Orleans","count":1,"lat":29.9537,"lng":-90.07775,"type":"point"},{"name":"Pittsburgh","count":1,"lat":40.43851,"lng":-79.99734,"type":"point"}],"source":"The New York Times"},{"feed_name":"World","feed_url":"https://www.theguardian.com/world/rss","title":"Donald Trump signs Covid-19 relief and spending bill","summary":"<p>Move comes after senior Republicans voiced anger over the delay, which resulted in millions of Americans losing unemployment aid</p><ul><li><a href=\"https://www.theguardian.com/world/coronavirus-outbreak\">See all our coronavirus coverage</a></li></ul><p>Donald Trump has signed the <a href=\"https://www.theguardian.com/us-news/2020/dec/27/trump-covid-relief-package-millions-lose-benefits\">Covid-19 relief and spending bill</a> after days of delays, preventing a mid-pandemic government shutdown.</p><p>The move came on Sunday night after senior Republicans urged him to act following his refusal to sign the bill, a decision that meant millions of Americans lost unemployment aid.</p> <a href=\"https://www.theguardian.com/us-news/2020/dec/28/donald-trump-signs-covid-19-relief-and-spending-bill\">Continue reading...</a>","link":"https://www.theguardian.com/us-news/2020/dec/28/donald-trump-signs-covid-19-relief-and-spending-bill","published":"Mon, 28 Dec 2020 01:34:22 GMT","geolocations":[{"name":"Vermont","count":1,"lat":44.26029,"lng":-72.57626,"type":"point"},{"name":"Pennsylvania","count":1,"lat":40.25986,"lng":-76.88223,"type":"point"},{"name":"Maryland","count":1,"lat":38.97678,"lng":-76.49014,"type":"point"},{"name":"Illinois","count":1,"lat":39.8013,"lng":-89.6436,"type":"point"},{"name":"Washington","count":1,"lat":38.89037,"lng":-77.03196,"type":"point"},{"name":"West Palm Beach","count":1,"lat":26.7144,"lng":-80.05329,"type":"point"},{"name":"Us","count":2,"lat":38.89037,"lng":-77.03196,"type":"country"}],"source":"The Guardian"},{"feed_name":"World","feed_url":"https://www.theguardian.com/world/rss","title":"Weather disasters cost $150bn in 2020, revealing impact of climate change – report","summary":"<p>From Australian bushfires to Atlantic hurricanes, insurance damages were the highest annual total ever, says Christian Aid study</p><p>The world’s 10 costliest weather disasters of 2020 saw insured damages worth $150bn, topping the figure for 2019 and reflecting a long-term impact of global warming, according to a new report.</p><p>The same disasters claimed at least 3,500 lives and displaced more than 13.5 million people.</p> <a href=\"https://www.theguardian.com/australia-news/2020/dec/28/climate-change-fuelling-costly-and-deadly-natural-disasters-report\">Continue reading...</a>","link":"https://www.theguardian.com/australia-news/2020/dec/28/climate-change-fuelling-costly-and-deadly-natural-disasters-report","published":"Mon, 28 Dec 2020 01:22:23 GMT","geolocations":[{"name":"Australia","count":3,"lat":-35.30654,"lng":149.12655,"type":"country"},{"name":"Atlantic","count":2,"lat":39.36287,"lng":-74.42637,"type":"point"},{"name":"Asia","count":2,"lat":-12.76551,"lng":-76.61171,"type":"point"},{"name":"Africa","count":1,"lat":43.10832,"lng":12.77534,"type":"point"},{"name":"Europe","count":1,"lat":-33.98201,"lng":18.58413,"type":"point"},{"name":"Americas","count":1,"lat":19.28196,"lng":-99.6453,"type":"point"},{"name":"Earth","count":1,"lat":38.76564,"lng":-90.46003,"type":"point"},{"name":"China","count":1,"lat":39.90657,"lng":116.38765,"type":"country"},{"name":"India","count":1,"lat":28.63095,"lng":77.21721,"type":"country"},{"name":"Bangladesh","count":1,"lat":23.71325,"lng":90.39959,"type":"country"},{"name":"California","count":1,"lat":38.57944,"lng":-121.49085,"type":"point"},{"name":"Russia","count":1,"lat":55.75696,"lng":37.61502,"type":"country"},{"name":"Arctic","count":1,"lat":42.18723,"lng":-75.41355,"type":"point"},{"name":"Paris","count":1,"lat":48.85717,"lng":2.3414,"type":"point"}],"source":"The Guardian"},{"feed_name":"World","feed_url":"https://rss.nytimes.com/services/xml/rss/nyt/World.xml","title":"In One Person, the Story of a Place","summary":"Since 2002, the Saturday Profile has sought the universal in characters around the world.","link":"https://www.nytimes.com/2020/12/25/insider/in-one-person-the-story-of-a-place.html","published":"Sat, 26 Dec 2020 06:13:51 +0000","geolocations":[{"name":"U.S.","count":1,"lat":38.89037,"lng":-77.03196,"type":"country"},{"name":"U.K.","count":1,"lat":29.93186,"lng":77.81922,"type":"point"}],"source":"The New York Times"},{"feed_name":"World","feed_url":"https://www.latimes.com/world/rss2.0.xml","title":"Biden team plans ambitious push to address racial disparities in healthcare","summary":"<p>Led by California Atty. Gen. Xavier Becerra, tapped to lead the Health and Human Services Department, Biden's healthcare team is aiming for an ambitious agenda to reshape a healthcare system that still leaves millions of Black and Latino Americans with weaker insurance protections, less access to care and poorer outcomes. </p>","link":"https://www.latimes.com/politics/story/2020-12-23/biden-team-to-lead-historic-push-to-address-racial-disparities-in-healthcare","published":"Wed, 23 Dec 2020 13:17:01 -0500","geolocations":[{"name":"California","count":1,"lat":38.57944,"lng":-121.49085,"type":"point"},{"name":"U.S.","count":1,"lat":38.89037,"lng":-77.03196,"type":"country"},{"name":"Wilmington","count":1,"lat":39.74023,"lng":-75.55084,"type":"point"},{"name":"Los Angeles","count":1,"lat":34.05357,"lng":-118.24545,"type":"point"},{"name":"South","count":1,"lat":33.56253,"lng":35.36757,"type":"point"},{"name":"The United States","count":1,"lat":38.89037,"lng":-77.03196,"type":"country"}],"source":"Los Angeles Times"},{"feed_name":"World","feed_url":"https://rss.nytimes.com/services/xml/rss/nyt/World.xml","title":"Brexit Trade Deal Reached Between U.K. and E.U.","summary":"The trade agreement comes after months of negotiations, and still leaves critical details to be worked out.","link":"https://www.nytimes.com/2020/12/24/world/europe/brexit-trade-deal-uk-eu.html","published":"Thu, 24 Dec 2020 20:20:24 +0000","geolocations":[{"name":"United Kingdom","count":4,"lat":38.95953,"lng":-91.92768,"type":"point"},{"name":"London","count":1,"lat":51.50643,"lng":-0.12719,"type":"point"}],"source":"The New York Times"},{"feed_name":"World","feed_url":"https://www.theguardian.com/world/rss","title":"From plans to panic: how the UK's week of Covid chaos unfolded – video timeline","summary":"<p>The week before Christmas quickly turned chaotic as the health secretary, Matt Hancock, announced a new, more contagious strain of coronavirus had been found in south-east England. The news resulted in a last-minute government U-turn over Christmas mixing rules, the implementation of a new, stricter coronavirus tier, and dozens of countries suspending travel from the UK days before the end of the Brexit transition period, prompting 'Plague Island' to trend on Twitter. Here is a look back at the week of chaos</p><ul><li><a href=\"https://www.theguardian.com/world/2020/dec/22/worlds-media-ask-how-it-went-so-wrong-for-plague-island-britain-covid\">World's media ask how it went so wrong for 'Plague Island' Britain</a><br /></li></ul> <a href=\"https://www.theguardian.com/world/video/2020/dec/23/from-plans-to-panic-how-uk-week-of-covid-chaos-unfolded-video-timeline\">Continue reading...</a>","link":"https://www.theguardian.com/world/video/2020/dec/23/from-plans-to-panic-how-uk-week-of-covid-chaos-unfolded-video-timeline","published":"Wed, 23 Dec 2020 16:16:25 GMT","geolocations":[{"name":"England","count":1,"lat":51.50643,"lng":-0.12719,"type":"country"}],"source":"The Guardian"},{"feed_name":"World","feed_url":"https://www.aljazeera.com/xml/rss/all.xml","title":"Why are millions starving in Yemen? | Start Here","summary":"The UN says the window to stop famine in war-torn Yemen is closing fast.","link":"https://www.aljazeera.com/program/start-here/2020/12/27/why-are-millions-starving-in-yemen-start-here","published":"Sun, 27 Dec 2020 10:17:39 +0000","geolocations":[{"name":"Yemen","count":1,"lat":15.3667,"lng":44.21122,"type":"point"}],"source":"Aljazeera"},{"feed_name":"World","feed_url":"https://www.theguardian.com/world/rss","title":"Master bluegrass picker Tony Rice dies aged 69","summary":"<p>Fans including Steve Martin, Ricky Skaggs and Jason Isbell have paid tribute to Grammy-winning Rice, who collaborated with Jerry Garcia and Dolly Parton</p><p>Tony Rice, the master bluegrass picker, has died at the age of 69.</p><p>Rice, famous for the quick, fluid sounds conjured from his Martin D-28 guitar, died on Friday at his home in Reidsville, North Carolina, according to International Bluegrass Music Association spokesperson Casey Campbell. Rice lived in Reidsville with his wife, Pamela Hodges Rice.</p> <a href=\"https://www.theguardian.com/music/2020/dec/27/master-bluegrass-picker-tony-rice-dies-aged-69\">Continue reading...</a>","link":"https://www.theguardian.com/music/2020/dec/27/master-bluegrass-picker-tony-rice-dies-aged-69","published":"Sun, 27 Dec 2020 21:18:53 GMT","geolocations":[{"name":"Reidsville","count":2,"lat":36.35955,"lng":-79.66423,"type":"point"},{"name":"North Carolina","count":1,"lat":35.78547,"lng":-78.6427,"type":"point"},{"name":"Danville","count":1,"lat":37.83202,"lng":-122.0054,"type":"point"},{"name":"Virginia","count":1,"lat":37.54068,"lng":-77.43367,"type":"point"},{"name":"Los Angeles","count":1,"lat":34.05357,"lng":-118.24545,"type":"point"},{"name":"New South","count":1,"lat":-32.16736,"lng":147.01315,"type":"point"},{"name":"Byrds","count":1,"lat":31.9243,"lng":-99.04575,"type":"point"},{"name":"Kentucky","count":1,"lat":38.19507,"lng":-84.87869,"type":"point"},{"name":"Florida","count":1,"lat":30.43977,"lng":-84.28065,"type":"point"}],"source":"The Guardian"},{"feed_name":"World","feed_url":"https://www.latimes.com/world/rss2.0.xml","title":"British scientists find changes in coronavirus that may make it more infectious","summary":"<p>British scientists have found a version of the coronavirus with a cluster of genetic changes that make it more transmissible and perhaps more dangerous.</p>","link":"https://www.latimes.com/science/story/2020-12-20/changes-in-the-coronavirus-raise-alarm-bells-cancel-christmas-in-britain","published":"Sun, 20 Dec 2020 23:43:56 -0500","geolocations":[{"name":"The United Kingdom","count":2,"lat":38.95953,"lng":-91.92768,"type":"point"},{"name":"United Kingdom","count":2,"lat":38.95953,"lng":-91.92768,"type":"point"},{"name":"Britons","count":2,"lat":52.92891,"lng":1.22465,"type":"point"},{"name":"U.S.","count":1,"lat":38.89037,"lng":-77.03196,"type":"country"},{"name":"England","count":2,"lat":51.50643,"lng":-0.12719,"type":"country"},{"name":"France","count":1,"lat":48.85717,"lng":2.3414,"type":"country"},{"name":"Germany","count":1,"lat":52.51604,"lng":13.37691,"type":"country"},{"name":"Italy","count":2,"lat":41.90322,"lng":12.49565,"type":"country"},{"name":"The Netherlands","count":1,"lat":51.305,"lng":-0.14561,"type":"point"},{"name":"Belgium","count":2,"lat":50.84439,"lng":4.35609,"type":"country"},{"name":"Austria","count":1,"lat":48.20263,"lng":16.36842,"type":"country"},{"name":"Ireland","count":1,"lat":53.34807,"lng":-6.24827,"type":"country"},{"name":"Bulgaria","count":1,"lat":42.69718,"lng":23.32433,"type":"country"},{"name":"U.K.","count":2,"lat":29.93186,"lng":77.81922,"type":"point"},{"name":"Kent","count":2,"lat":47.3807,"lng":-122.23741,"type":"point"},{"name":"London","count":2,"lat":51.50643,"lng":-0.12719,"type":"point"},{"name":"Nextstrain","count":1,"lat":48.69134,"lng":10.92015,"type":"point"},{"name":"Denmark","count":1,"lat":55.67567,"lng":12.56756,"type":"country"},{"name":"Australia","count":1,"lat":-35.30654,"lng":149.12655,"type":"country"},{"name":"South Africa","count":1,"lat":-25.74587,"lng":28.18764,"type":"country"}],"source":"Los Angeles Times"},{"feed_name":"World","feed_url":"https://www.theguardian.com/world/rss","title":"‘I am not afraid to fight’: the female Afghan colonel who survived the Taliban's assassins","summary":"<p>Saba Sahar, who returned fire while protecting her daughter, survived one of a wave of recent assassination attempts that have killed six policewomen</p><p>It was just after 7am when the car carrying Colonel Saba Sahar, one of Afghanistan’s most senior female police officers, came under fire from armed insurgents. In the back seat, Sahar’s four-year-old daughter began screaming as bullets shattered the windscreen and ripped into the upholstery. As she pushed her child under the seat in front of her, Sahar saw three men carrying AK-47 assault rifles, firing as they approached the car.</p><p>In the front of the car her bodyguard and driver had both been hit and were badly injured and unconscious. Looking down, Sahar saw blood seeping through her clothing. “It took me another moment to realise I’d been shot too,” she says. She knew that she only had minutes to try to save her daughter. “They were five or six metres away, and they were moving closer to the car, still firing. They would have killed my child,” she says. Bleeding heavily from five shots to her stomach, Sahar reached forward, grabbed the gun from her slumped bodyguard and started returning fire.</p> <a href=\"https://www.theguardian.com/global-development/2020/dec/24/i-am-not-afraid-to-fight-the-female-afghan-colonel-who-survived-the-talibans-assassins\">Continue reading...</a>","link":"https://www.theguardian.com/global-development/2020/dec/24/i-am-not-afraid-to-fight-the-female-afghan-colonel-who-survived-the-talibans-assassins","published":"Thu, 24 Dec 2020 07:30:07 GMT","geolocations":[{"name":"Afghanistan","count":8,"lat":34.53313,"lng":69.10223,"type":"country"},{"name":"Us","count":1,"lat":38.89037,"lng":-77.03196,"type":"country"},{"name":"Kabul","count":1,"lat":34.53313,"lng":69.10223,"type":"point"},{"name":"Qatar","count":1,"lat":25.29424,"lng":51.51967,"type":"country"}],"source":"The Guardian"},{"feed_name":"World","feed_url":"https://rss.nytimes.com/services/xml/rss/nyt/World.xml","title":"Trucks Stuck in U.K. After France Border Closure Begin Moving","summary":"France closed the border to help limit the spread of a coronavirus variant. With the border now reopened, testing thousands of drivers and clearing the backlog of freight will take some time.","link":"https://www.nytimes.com/2020/12/24/world/europe/uk-dover-trucks-coronavirus-france.html","published":"Thu, 24 Dec 2020 19:42:09 +0000","geolocations":[{"name":"London","count":2,"lat":51.50643,"lng":-0.12719,"type":"point"},{"name":"Dover","count":1,"lat":39.15803,"lng":-75.52473,"type":"point"},{"name":"France","count":2,"lat":48.85717,"lng":2.3414,"type":"country"},{"name":"United Kingdom","count":1,"lat":38.95953,"lng":-91.92768,"type":"point"}],"source":"The New York Times"},{"feed_name":"World","feed_url":"https://rss.nytimes.com/services/xml/rss/nyt/World.xml","title":"The Brexit Fight, Through a Reporter’s Prism of a Changed Continent","summary":"Alan Cowell, a longtime New York Times correspondent, recalls a different Europe, one of currency controls, cumbersome paperwork and burdensome cross-border regulations.","link":"https://www.nytimes.com/2020/12/26/international-home/brexit-europe-history.html","published":"Sun, 27 Dec 2020 12:44:01 +0000","geolocations":[{"name":"United Kingdom","count":3,"lat":38.95953,"lng":-91.92768,"type":"point"},{"name":"Africa","count":1,"lat":43.10832,"lng":12.77534,"type":"point"},{"name":"Europe","count":1,"lat":-33.98201,"lng":18.58413,"type":"point"},{"name":"The Middle East","count":1,"lat":39.29996,"lng":-76.58967,"type":"point"},{"name":"Switzerland","count":1,"lat":46.94843,"lng":7.44046,"type":"country"},{"name":"Germany","count":1,"lat":52.51604,"lng":13.37691,"type":"country"},{"name":"Greece","count":1,"lat":37.97614,"lng":23.7364,"type":"country"},{"name":"Italy","count":1,"lat":41.90322,"lng":12.49565,"type":"country"},{"name":"France","count":2,"lat":48.85717,"lng":2.3414,"type":"country"},{"name":"Baltic","count":1,"lat":40.43737,"lng":-81.74906,"type":"point"},{"name":"Mediterranean","count":1,"lat":25.04446,"lng":55.13858,"type":"point"},{"name":"Balkans","count":1,"lat":40.21579,"lng":28.81133,"type":"point"},{"name":"Brussels","count":1,"lat":50.84439,"lng":4.35609,"type":"point"}],"source":"The New York Times"},{"feed_name":"World","feed_url":"https://www.theguardian.com/world/rss","title":"Odd Squad: a kids' show about maths that's gloriously bonkers","summary":"<p>Designed to introduce young viewers to tricky concepts, the Canadian series is one of the most laugh-out-loud shows on TV<br /></p><p>When I think about what first caught my attention in Odd Squad, I reckon it was probably the time that a singing mayor smeared chilli all over his face.</p><p>It was a weeknight evening and I was getting my sons ready for bed in front of ABC Kids when a show about two tween-agers in suits talking about recurring number patterns at a civilised chilli cook-off took an abrupt tonal swerve: to a wild-eyed dude applying meat to his head while singing, “I got a big chilli beard! Yeah, you might think that’s pretty weird!”</p> <a href=\"https://www.theguardian.com/culture/2020/dec/28/odd-squad-a-kids-show-about-maths-thats-gloriously-bonkers\">Continue reading...</a>","link":"https://www.theguardian.com/culture/2020/dec/28/odd-squad-a-kids-show-about-maths-thats-gloriously-bonkers","published":"Sun, 27 Dec 2020 23:30:35 GMT","geolocations":[{"name":"Toronto","count":2,"lat":43.64869,"lng":-79.38544,"type":"point"},{"name":"Sydney","count":1,"lat":-33.8696,"lng":151.20691,"type":"point"},{"name":"Squad","count":1,"lat":39.96588,"lng":-83.22828,"type":"point"}],"source":"The Guardian"},{"feed_name":"World","feed_url":"https://www.theguardian.com/world/rss","title":"Unhealthy snacks to be banned from checkouts at supermarkets in England","summary":"<p>No 10 also plans to stop multi-buy offers on foodstuffs high in sugar and fat from 2022 to tackle obesity crisis</p><p>Supermarkets in England are to be barred from displaying unhealthy food and drinks at checkouts or using them in buy one, get one free offers, as part of a proposed government crackdown on obesity.</p><p>The planned restrictions were praised by health campaigners as a “bold first step” in Downing Street’s promised campaign against obesity.</p> <a href=\"https://www.theguardian.com/business/2020/dec/28/unhealthy-snacks-to-be-banned-from-checkouts-supermarkets-in-england\">Continue reading...</a>","link":"https://www.theguardian.com/business/2020/dec/28/unhealthy-snacks-to-be-banned-from-checkouts-supermarkets-in-england","published":"Mon, 28 Dec 2020 00:01:05 GMT","geolocations":[{"name":"England","count":2,"lat":51.50643,"lng":-0.12719,"type":"country"},{"name":"United Kingdom","count":1,"lat":38.95953,"lng":-91.92768,"type":"point"}],"source":"The Guardian"},{"feed_name":"World","feed_url":"https://rss.nytimes.com/services/xml/rss/nyt/World.xml","title":"US Will Require UK Travelers to Have a Negative Coronavirus Test","summary":"The new rule, which takes effect on Monday, will apply to Americans as well as foreign nationals.","link":"https://www.nytimes.com/2020/12/24/us/travel-restriction-uk.html","published":"Fri, 25 Dec 2020 14:20:40 +0000","geolocations":[{"name":"Gatwick","count":1,"lat":51.16345,"lng":-0.17476,"type":"point"},{"name":"London","count":2,"lat":51.50643,"lng":-0.12719,"type":"point"},{"name":"The United States","count":1,"lat":38.89037,"lng":-77.03196,"type":"country"},{"name":"New York","count":1,"lat":40.71455,"lng":-74.00714,"type":"point"},{"name":"New Jersey","count":1,"lat":40.21788,"lng":-74.7594,"type":"point"},{"name":"Europe","count":1,"lat":-33.98201,"lng":18.58413,"type":"point"},{"name":"Asia","count":1,"lat":-12.76551,"lng":-76.61171,"type":"point"},{"name":"United Kingdom","count":1,"lat":38.95953,"lng":-91.92768,"type":"point"},{"name":"U.S.","count":1,"lat":38.89037,"lng":-77.03196,"type":"country"}],"source":"The New York Times"},{"feed_name":"World","feed_url":"https://www.theguardian.com/world/rss","title":"Bobi Wine says bodyguard killed amid clashes in Uganda","summary":"<p>Popular musician and prominent opposition leader claims member of security team was run over by the military police, which the authorities deny</p><p>Ugandan opposition leader<a href=\"https://www.theguardian.com/world/video/2020/nov/20/bobi-wine-protests-arrest-sparks-ugandas-worst-unrest-in-years-video-report\"> Bobi Wine </a>has said his bodyguard has been killed and two journalists injured amid violent confrontations between security forces and his followers.</p><p>A tearful Wine, a popular singer and politician who is challenging the country’s long-time leader, said his bodyguard had died of his injuries after allegedly being run over by a truck belonging to the military police. The victim, Francis Senteza, was attacked while helping to transport a journalist injured in an earlier confrontation between police and a group of Wine’s supporters, he said.</p> <a href=\"https://www.theguardian.com/world/2020/dec/28/bobi-wines-bodyguard-killed-amid-violence-in-uganda\">Continue reading...</a>","link":"https://www.theguardian.com/world/2020/dec/28/bobi-wines-bodyguard-killed-amid-violence-in-uganda","published":"Mon, 28 Dec 2020 00:15:42 GMT","geolocations":[{"name":"Uganda","count":6,"lat":0.31589,"lng":32.57501,"type":"country"}],"source":"The Guardian"},{"feed_name":"World","feed_url":"https://www.theguardian.com/world/rss","title":"New museums and Smokey Bear: what's in the $900bn US stimulus package?","summary":"<p>Analysis: Tucked into a 5,593-page bill are obscure provisions that appear to have little to do with fortifying a fragile economy</p><p>Late on Monday night, <a href=\"https://www.theguardian.com/world/2020/dec/21/covid-relief-bill-stimulus-checks-congress-republicans-democrats\">Congress approved a $900bn stimulus package</a> which will deliver financial aid to millions of families and businesses facing economic distress from coronavirus pandemic. Though far smaller than a bill lawmakers passed at the outset of the pandemic, earlier this year, the measure is one the largest pieces of legislation in US history.</p><p> <span>Related: </span><a href=\"https://www.theguardian.com/world/2020/dec/22/covid-coronavirus-us-life-expectancy-experts\">Covid could shorten US life expectancy by up to three years, experts say</a> </p> <a href=\"https://www.theguardian.com/us-news/2020/dec/22/congress-us-coronavirus-aid-package-stimulus\">Continue reading...</a>","link":"https://www.theguardian.com/us-news/2020/dec/22/congress-us-coronavirus-aid-package-stimulus","published":"Tue, 22 Dec 2020 21:07:58 GMT","geolocations":[{"name":"Us","count":8,"lat":38.89037,"lng":-77.03196,"type":"country"},{"name":"Washington","count":1,"lat":38.89037,"lng":-77.03196,"type":"point"},{"name":"Utah","count":1,"lat":40.76031,"lng":-111.88822,"type":"point"},{"name":"The United States","count":1,"lat":38.89037,"lng":-77.03196,"type":"country"},{"name":"China","count":3,"lat":39.90657,"lng":116.38765,"type":"country"},{"name":"The People’S Republic Of China","count":1,"lat":11.28537,"lng":75.77659,"type":"point"},{"name":"Tibet","count":1,"lat":44.21739,"lng":0.61961,"type":"point"},{"name":"Lhasa","count":1,"lat":29.66176,"lng":91.13071,"type":"point"},{"name":"Hawaii","count":2,"lat":21.30493,"lng":-157.85788,"type":"point"},{"name":"New York","count":1,"lat":40.71455,"lng":-74.00714,"type":"point"}],"source":"The Guardian"},{"feed_name":"World","feed_url":"https://rss.nytimes.com/services/xml/rss/nyt/World.xml","title":"Stateless, She Became the Face of a Largely Invisible Plight","summary":"Maha Mamo had no citizenship. Born in Lebanon of Syrian parents, she was ineligible for either nationality. It took her years of perseverance and some lucky breaks to find a homeland — in Brazil.","link":"https://www.nytimes.com/2020/12/25/world/americas/stateless-brazil.html","published":"Fri, 25 Dec 2020 14:42:22 +0000","geolocations":[{"name":"Rio De Janeiro","count":1,"lat":-22.91216,"lng":-43.17501,"type":"point"},{"name":"Lebanon","count":2,"lat":33.89607,"lng":35.50678,"type":"country"},{"name":"Girl Scouts","count":1,"lat":39.70959,"lng":-79.66861,"type":"point"},{"name":"Syria","count":1,"lat":33.51656,"lng":36.31708,"type":"point"}],"source":"The New York Times"},{"feed_name":"World","feed_url":"https://www.theguardian.com/world/rss","title":"Doug Scott obituary | Letter","summary":"<p>The mountaineer <a href=\"https://www.theguardian.com/world/2020/dec/07/doug-scott-obituary\" title=\"\">Doug Scott</a> was a founder of <a href=\"https://www.nottinghammodernsrfc.com/news/nmrfc-are-sad-to-announce-the-death-of-doug-scott-one-of-our-founder-members-and-everest-summit-mountaineer-2589324.html\" title=\"\">Nottingham Moderns RFC</a>, whose formation arose from the grip that grammar schools often held over rugby union in England. When you left school and wanted to play the game, but had attended a secondary modern school rather than a grammar, there was often nowhere to go. This was particularly the case in Nottingham, where a group of rugby-mad former secondary modern pupils, including Doug, and a motley crew of trainee Welsh school teachers formed their own club.</p><p>Doug had failed his 11+ and went to Cottesmore secondary modern, though his academic potential was soon spotted, and he transferred to the Mundella grammar (now Nottingham Emmanuel school) where he thrived. He became club captain of the Moderns for the 1958-59 season and is fondly remembered by many of his former team mates at the Wilford-based club, with many stories of his physical fitness and fondness for a Guinness or two still being told.</p> <a href=\"https://www.theguardian.com/uk-news/2020/dec/27/letter-doug-scott-obituary\">Continue reading...</a>","link":"https://www.theguardian.com/uk-news/2020/dec/27/letter-doug-scott-obituary","published":"Sun, 27 Dec 2020 16:54:27 GMT","geolocations":[{"name":"England","count":1,"lat":51.50643,"lng":-0.12719,"type":"country"},{"name":"Nottingham","count":1,"lat":52.94798,"lng":-1.15156,"type":"point"}],"source":"The Guardian"},{"feed_name":"World","feed_url":"https://rss.nytimes.com/services/xml/rss/nyt/World.xml","title":"‘Box’ or Gem? A Scramble to Save Asia’s Modernist Buildings","summary":"Groups across the region are rallying to save buildings that officials consider too new, too ugly or too unimportant to protect from demolition.","link":"https://www.nytimes.com/2020/12/25/world/asia/modernist-buildings.html","published":"Sun, 27 Dec 2020 05:49:28 +0000","geolocations":[{"name":"Hong Kong’S","count":1,"lat":22.2783,"lng":114.16039,"type":"point"},{"name":"Hong Kong","count":1,"lat":22.2783,"lng":114.16039,"type":"point"}],"source":"The New York Times"},{"feed_name":"World","feed_url":"https://www.latimes.com/world/rss2.0.xml","title":"Trump gives Congress chaos for Christmas, with aid to millions up in the air","summary":"<p>With a veto of a massive defense bill and threatening the spending bill that includes COVID relief, Trump leaves for Mar-a-Lago, chaos in his wake.</p>","link":"https://www.latimes.com/politics/story/2020-12-23/trump-gives-congress-chaos-for-christmas-with-aid-to-millions-up-in-the-air","published":"Wed, 23 Dec 2020 18:45:35 -0500","geolocations":[{"name":"Washington","count":3,"lat":38.89037,"lng":-77.03196,"type":"point"},{"name":"Okla","count":1,"lat":51.99817,"lng":-103.22328,"type":"point"},{"name":"Missouri","count":1,"lat":38.57751,"lng":-92.17784,"type":"point"},{"name":"Vermont","count":1,"lat":44.26029,"lng":-72.57626,"type":"point"},{"name":"Ky","count":1,"lat":19.29657,"lng":-81.38175,"type":"country"},{"name":"Kentucky","count":1,"lat":38.19507,"lng":-84.87869,"type":"point"},{"name":"Egypt","count":1,"lat":30.04427,"lng":31.23525,"type":"country"},{"name":"Bakersfield","count":1,"lat":35.36723,"lng":-119.01886,"type":"point"}],"source":"Los Angeles Times"},{"feed_name":"World","feed_url":"https://rss.nytimes.com/services/xml/rss/nyt/World.xml","title":"George Blake, British Spy Who Betrayed the West, Dies at 98","summary":"He was caught spilling secrets to the Soviets in 1961 and imprisoned. Five years later, he escaped and fled to Moscow, where he was hailed as a hero.","link":"https://www.nytimes.com/2020/12/26/obituaries/george-blake-british-spy-dead.html","published":"Sat, 26 Dec 2020 21:57:00 +0000","geolocations":[{"name":"Rotterdam","count":1,"lat":51.91438,"lng":4.48716,"type":"point"},{"name":"Turkey","count":1,"lat":39.92109,"lng":32.85391,"type":"country"},{"name":"The Ottoman Empire","count":1,"lat":37.70098,"lng":-76.52037,"type":"point"},{"name":"Netherlands","count":2,"lat":52.36993,"lng":4.90788,"type":"country"},{"name":"Cairo","count":1,"lat":30.04427,"lng":31.23525,"type":"point"},{"name":"England","count":1,"lat":51.50643,"lng":-0.12719,"type":"country"},{"name":"United Kingdom","count":3,"lat":38.95953,"lng":-91.92768,"type":"point"},{"name":"Cambridge","count":1,"lat":52.20992,"lng":0.11161,"type":"point"},{"name":"Germany","count":1,"lat":52.51604,"lng":13.37691,"type":"country"},{"name":"Berlin","count":1,"lat":52.51604,"lng":13.37691,"type":"point"},{"name":"Hamburg","count":1,"lat":53.55562,"lng":9.98745,"type":"point"},{"name":"Seoul","count":1,"lat":37.55886,"lng":126.99989,"type":"point"},{"name":"South Korea’S","count":1,"lat":37.55886,"lng":126.99989,"type":"country"},{"name":"North Korea","count":3,"lat":39.01196,"lng":125.78684,"type":"country"}],"source":"The New York Times"},{"feed_name":"World - Europe","feed_url":"http://feeds.bbci.co.uk/news/world/rss.xml","title":"Rags to riches for cat rescued by waste worker","summary":"A waste disposal worker rescues a cat from imminent death while sorting through rubbish at a plant in Russia.","link":"https://www.bbc.co.uk/news/world-europe-55445476","published":"Fri, 25 Dec 2020 13:44:11 GMT","geolocations":[{"name":"Ulyanovsk","count":1,"lat":54.30792,"lng":48.39463,"type":"point"},{"name":"Russia","count":1,"lat":55.75696,"lng":37.61502,"type":"country"},{"name":"Moscow","count":1,"lat":55.75696,"lng":37.61502,"type":"point"}],"source":"BBC"},{"feed_name":"World","feed_url":"https://rss.nytimes.com/services/xml/rss/nyt/World.xml","title":"She Chronicled China’s Crisis. Now She Is Accused of Spreading Lies.","summary":"Zhang Zhan, who reported about the coronavirus from Wuhan during the lockdown, will face trial next week, in the first known case against a citizen journalist from the crisis.","link":"https://www.nytimes.com/2020/12/25/world/asia/china-coronavirus-citizen-journalist.html","published":"Sun, 27 Dec 2020 09:34:20 +0000","geolocations":[{"name":"Wuhan","count":1,"lat":30.64353,"lng":114.32472,"type":"point"},{"name":"China","count":1,"lat":39.90657,"lng":116.38765,"type":"country"}],"source":"The New York Times"},{"feed_name":"World","feed_url":"https://www.latimes.com/world/rss2.0.xml","title":"Trump signs sweeping stimulus measure after bipartisan appeals","summary":"<p>After confounding Congress by holding off on a COVID relief bill, Trump signs.</p>","link":"https://www.latimes.com/politics/story/2020-12-27/unemployment-benefits-expire-for-millions-as-trump-rages","published":"Sun, 27 Dec 2020 10:23:19 -0500","geolocations":[{"name":"Florida","count":1,"lat":30.43977,"lng":-84.28065,"type":"point"},{"name":"Maryland","count":1,"lat":38.97678,"lng":-76.49014,"type":"point"},{"name":"Utah","count":1,"lat":40.76031,"lng":-111.88822,"type":"point"},{"name":"U.S.","count":1,"lat":38.89037,"lng":-77.03196,"type":"country"},{"name":"The United States","count":1,"lat":38.89037,"lng":-77.03196,"type":"country"},{"name":"Illinois","count":1,"lat":39.8013,"lng":-89.6436,"type":"point"},{"name":"Washington","count":1,"lat":38.89037,"lng":-77.03196,"type":"point"},{"name":"California","count":1,"lat":38.57944,"lng":-121.49085,"type":"point"}],"source":"Los Angeles Times"},{"feed_name":"World","feed_url":"https://www.aljazeera.com/xml/rss/all.xml","title":"What is the fight over the ‘COVID relief bill’ all about?","summary":"Trump is attempting to undermine a much-needed Democrat-Republican consensus.","link":"https://www.aljazeera.com/opinions/2020/12/27/what-is-the-fight-over-the-covid-relief-bill-all-about","published":"Sun, 27 Dec 2020 13:57:22 +0000","geolocations":[{"name":"United States","count":1,"lat":38.89037,"lng":-77.03196,"type":"country"},{"name":"Us","count":2,"lat":38.89037,"lng":-77.03196,"type":"country"},{"name":"Cambodia","count":1,"lat":12.708,"lng":104.91434,"type":"country"},{"name":"Nepal","count":1,"lat":27.69329,"lng":85.32227,"type":"country"},{"name":"Burma","count":1,"lat":21.11892,"lng":96.51169,"type":"country"},{"name":"Ukraine","count":1,"lat":50.45056,"lng":30.52428,"type":"country"},{"name":"Pakistan","count":1,"lat":33.70964,"lng":73.07545,"type":"point"},{"name":"Egypt","count":1,"lat":30.04427,"lng":31.23525,"type":"country"},{"name":"Sudan","count":1,"lat":15.58651,"lng":32.52318,"type":"point"},{"name":"Israel","count":1,"lat":31.78003,"lng":35.21873,"type":"country"},{"name":"Jordan","count":1,"lat":31.9518,"lng":35.94042,"type":"country"},{"name":"Florida","count":1,"lat":30.43977,"lng":-84.28065,"type":"point"}],"source":"Aljazeera"},{"feed_name":"World","feed_url":"https://www.theguardian.com/world/rss","title":"Kiley Reid: 'The premise that literary fiction has to be a drag is so silly'","summary":"<p>The novelist’s hit debut, a witty spin on race, feminism and sex based on her time as a nanny in New York, has even won fans among her former employers…</p><p>This time last year, Kiley Reid was a tantalising rumour, the truth of which was known only to her publishers and to the film company that had optioned her debut novel two years before it was ready to see the light of day. When <em><a href=\"https://www.theguardian.com/books/2020/jan/07/such-a-fun-age-by-kiley-reid-review\">Such a Fun Age</a></em> was published – on New Year’s Eve in the US and a week later in the UK – the rumour checked out: here was a smart comedy of manners, which treated interracial relationships of the early 21st century with the sort of needling wit that Jane Austen had applied to class 200 years earlier.</p><p>It was the start of a year in which Reid seems to have been travelling in the opposite direction to the rest of the world. By the time the Covid pandemic shut everything down, she had introduced the novel to 19 cities, including London. Reese Witherspoon had picked it for her book club; in July, it was longlisted for the Booker prize. </p> <a href=\"https://www.theguardian.com/books/2020/dec/27/kiley-reid-interview-such-a-fun-age\">Continue reading...</a>","link":"https://www.theguardian.com/books/2020/dec/27/kiley-reid-interview-such-a-fun-age","published":"Sun, 27 Dec 2020 15:00:47 GMT","geolocations":[{"name":"Us","count":1,"lat":38.89037,"lng":-77.03196,"type":"country"},{"name":"London","count":1,"lat":51.50643,"lng":-0.12719,"type":"point"},{"name":"Philadelphia","count":2,"lat":39.95222,"lng":-75.16218,"type":"point"},{"name":"New York","count":3,"lat":40.71455,"lng":-74.00714,"type":"point"},{"name":"Iowa","count":1,"lat":41.58981,"lng":-93.61538,"type":"point"},{"name":"Tucson","count":1,"lat":32.22177,"lng":-110.96977,"type":"point"},{"name":"Arizona","count":2,"lat":33.44825,"lng":-112.0758,"type":"point"},{"name":"Brooklyn","count":1,"lat":40.69245,"lng":-73.99036,"type":"point"}],"source":"The Guardian"},{"feed_name":"World","feed_url":"https://rss.nytimes.com/services/xml/rss/nyt/World.xml","title":"Russian Police Arrest a Top Navalny Ally, Lyubov Sobol","summary":"The police detained Lyubov Sobol amid a crackdown on activists seeking to draw attention to the nerve-agent poisoning of the opposition leader Aleksei A. Navalny.","link":"https://www.nytimes.com/2020/12/25/world/europe/navalny-lyubov-sobol.html","published":"Fri, 25 Dec 2020 16:17:05 +0000","geolocations":[{"name":"Moscow","count":1,"lat":55.75696,"lng":37.61502,"type":"point"},{"name":"Russia","count":1,"lat":55.75696,"lng":37.61502,"type":"country"},{"name":"Siberia","count":1,"lat":-30.42356,"lng":28.74034,"type":"point"}],"source":"The New York Times"},{"feed_name":"World","feed_url":"https://rss.nytimes.com/services/xml/rss/nyt/World.xml","title":"It’s lonely on the top, and in the lodge, as ski resorts struggle.","summary":"","link":"https://www.nytimes.com/2020/12/26/world/its-lonely-on-the-top-and-in-the-lodge-as-ski-resorts-struggle.html","published":"Sat, 26 Dec 2020 14:53:05 +0000","geolocations":[{"name":"The Squaw Valley Ski Resort","count":1,"lat":36.74204,"lng":-119.24114,"type":"point"},{"name":"Squaw Valley","count":2,"lat":39.20057,"lng":-120.22499,"type":"point"},{"name":"Aspen","count":1,"lat":39.19002,"lng":-106.81818,"type":"point"},{"name":"Colo.","count":1,"lat":42.0225,"lng":-93.3175,"type":"point"},{"name":"Park City","count":1,"lat":40.64385,"lng":-111.49433,"type":"point"},{"name":"Utah","count":1,"lat":40.76031,"lng":-111.88822,"type":"point"},{"name":"Taos Ski Valley","count":1,"lat":36.59608,"lng":-105.45451,"type":"point"},{"name":"N.M.","count":1,"lat":35.69177,"lng":-105.93824,"type":"point"},{"name":"Killington","count":1,"lat":43.66206,"lng":-72.77798,"type":"point"},{"name":"Vt","count":1,"lat":44.26029,"lng":-72.57626,"type":"point"},{"name":"New Mexico","count":1,"lat":35.69177,"lng":-105.93824,"type":"point"}],"source":"The New York Times"},{"feed_name":"World","feed_url":"https://rss.nytimes.com/services/xml/rss/nyt/World.xml","title":"Truck Jam Eases at U.K. Port Days After France Reopens Border","summary":"Even with new restrictions around the world to try to stop the transmission of a virus variant sweeping rapidly across Britain, the mutation has already spread to France, Spain and Japan.","link":"https://www.nytimes.com/2020/12/26/world/europe/truck-jam-uk-france-covid.html","published":"Sat, 26 Dec 2020 15:35:49 +0000","geolocations":[{"name":"London","count":1,"lat":51.50643,"lng":-0.12719,"type":"point"},{"name":"England","count":1,"lat":51.50643,"lng":-0.12719,"type":"country"},{"name":"France","count":2,"lat":48.85717,"lng":2.3414,"type":"country"},{"name":"Europe","count":1,"lat":-33.98201,"lng":18.58413,"type":"point"},{"name":"Japan","count":1,"lat":35.68408,"lng":139.80885,"type":"country"},{"name":"U.K.","count":1,"lat":29.93186,"lng":77.81922,"type":"point"}],"source":"The New York Times"},{"feed_name":"World","feed_url":"https://rss.nytimes.com/services/xml/rss/nyt/World.xml","title":"Mexico Begins Covid Vaccine Rollout","summary":"Mexico is the first country in Latin America, a region hard hit by the coronavirus, to begin delivering vaccines. A head nurse at a Mexico City hospital was the first to get a shot.","link":"https://www.nytimes.com/2020/12/24/world/americas/mexico-coronavirus-vaccine.html","published":"Thu, 24 Dec 2020 20:53:56 +0000","geolocations":[{"name":"Mexico City","count":2,"lat":19.27691,"lng":-99.13939,"type":"point"},{"name":"Mexico","count":1,"lat":23.94757,"lng":-102.5411,"type":"country"},{"name":"Latin America","count":2,"lat":41.62788,"lng":13.34278,"type":"point"}],"source":"The New York Times"},{"feed_name":"World","feed_url":"https://www.theguardian.com/world/rss","title":"The great opportunity: how Covid transformed global crime","summary":"<p>2020 led to surges in everything from domestic abuse to black markets in fake vaccines</p><ul><li><a href=\"https://www.theguardian.com/world/series/coronavirus-live/latest\">Coronavirus – latest updates</a></li><li><a href=\"https://www.theguardian.com/world/coronavirus-outbreak\">See all our coronavirus coverage</a></li></ul><p>By the end of March, one week into the UK’s first lockdown, recorded crime in Lancashire had <a href=\"https://crimesciencejournal.biomedcentral.com/articles/10.1186/s40163-020-00121-w\">dropped</a> by a startling 40% compared with the four-year average.</p><p>“At first there was some mild panic,” says DCI Eric Halford, of Lancashire Constabulary. “Most senior officers expected a surge in demand.”</p> <a href=\"https://www.theguardian.com/world/2020/dec/27/the-great-opportunity-how-covid-transformed-global\">Continue reading...</a>","link":"https://www.theguardian.com/world/2020/dec/27/the-great-opportunity-how-covid-transformed-global","published":"Sun, 27 Dec 2020 13:32:20 GMT","geolocations":[{"name":"Lancashire","count":1,"lat":53.83497,"lng":-2.48579,"type":"point"},{"name":"California","count":1,"lat":38.57944,"lng":-121.49085,"type":"point"},{"name":"Luton","count":1,"lat":51.88159,"lng":-0.41611,"type":"point"},{"name":"England","count":1,"lat":51.50643,"lng":-0.12719,"type":"country"},{"name":"Kenya","count":1,"lat":-1.28352,"lng":36.82379,"type":"country"},{"name":"Vienna","count":1,"lat":48.20263,"lng":16.36842,"type":"point"},{"name":"United Kingdom","count":1,"lat":38.95953,"lng":-91.92768,"type":"point"},{"name":"Canada","count":2,"lat":45.42178,"lng":-75.69116,"type":"country"},{"name":"Japan","count":2,"lat":35.68408,"lng":139.80885,"type":"country"},{"name":"Afghanistan","count":1,"lat":34.53313,"lng":69.10223,"type":"country"},{"name":"Cape Town","count":1,"lat":-33.91909,"lng":18.42198,"type":"point"},{"name":"South Africa","count":1,"lat":-25.74587,"lng":28.18764,"type":"country"},{"name":"Europe","count":1,"lat":-33.98201,"lng":18.58413,"type":"point"},{"name":"North America","count":1,"lat":36.19711,"lng":-94.52681,"type":"point"},{"name":"Leeds","count":1,"lat":53.7948,"lng":-1.54655,"type":"point"},{"name":"Ucl","count":1,"lat":21.1258,"lng":-89.27085,"type":"point"}],"source":"The Guardian"},{"feed_name":"World","feed_url":"https://rss.nytimes.com/services/xml/rss/nyt/World.xml","title":"Coronavirus Briefing: What Happened Today","summary":"In a disrupted holiday season, even Bethlehem is quieter than usual.","link":"https://www.nytimes.com/2020/12/24/us/coronavirus-today.html","published":"Thu, 24 Dec 2020 23:22:29 +0000","geolocations":[{"name":"Norad","count":1,"lat":34.43734,"lng":35.84711,"type":"point"},{"name":"Rome","count":1,"lat":41.90322,"lng":12.49565,"type":"point"},{"name":"Italy","count":1,"lat":41.90322,"lng":12.49565,"type":"country"},{"name":"U.S.","count":1,"lat":38.89037,"lng":-77.03196,"type":"country"}],"source":"The New York Times"},{"feed_name":"World","feed_url":"https://www.latimes.com/world/rss2.0.xml","title":"Biden's test: Rebuilding the Iran nuclear deal Trump tore apart","summary":"<p>Biden considers an Iran nuclear deal 2.0 as a way to calm opposition as he returns the U.S. to the international pact.</p>","link":"https://www.latimes.com/politics/story/2020-12-21/bidens-plans-to-restore-iran-nuclear-deal-perhaps-with-leverage-provided-by-trump","published":"Mon, 21 Dec 2020 06:00:19 -0500","geolocations":[{"name":"U.S.","count":6,"lat":38.89037,"lng":-77.03196,"type":"country"},{"name":"Iran","count":18,"lat":35.68877,"lng":51.41503,"type":"country"},{"name":"Middle East","count":2,"lat":39.29996,"lng":-76.58967,"type":"point"},{"name":"Israel","count":2,"lat":31.78003,"lng":35.21873,"type":"country"},{"name":"France","count":1,"lat":48.85717,"lng":2.3414,"type":"country"},{"name":"United Kingdom","count":1,"lat":38.95953,"lng":-91.92768,"type":"point"},{"name":"Germany","count":1,"lat":52.51604,"lng":13.37691,"type":"country"},{"name":"Russia","count":1,"lat":55.75696,"lng":37.61502,"type":"country"},{"name":"China","count":1,"lat":39.90657,"lng":116.38765,"type":"country"},{"name":"Tehran","count":1,"lat":35.68877,"lng":51.41503,"type":"point"},{"name":"Washington","count":1,"lat":38.89037,"lng":-77.03196,"type":"point"}],"source":"Los Angeles Times"},{"feed_name":"World","feed_url":"https://rss.nytimes.com/services/xml/rss/nyt/World.xml","title":"Welcoming a New Year at an Ancient Festival in Pakistan","summary":"Chawmos, a festival of Pakistan’s tiny Kalash community, is a portrait in contrasts: solemn ritual and joyous dancing, gender segregation and public flirtation, togetherness and isolation.","link":"https://www.nytimes.com/2020/12/27/world/asia/pakistan-kalash-chawmos.html","published":"Sun, 27 Dec 2020 08:00:15 +0000","geolocations":[{"name":"Afghanistan","count":1,"lat":34.53313,"lng":69.10223,"type":"country"},{"name":"India","count":1,"lat":28.63095,"lng":77.21721,"type":"country"},{"name":"Balumain","count":2,"lat":-33.856,"lng":151.17587,"type":"point"},{"name":"Nepal","count":1,"lat":27.69329,"lng":85.32227,"type":"country"},{"name":"Valley","count":1,"lat":47.89094,"lng":11.77365,"type":"point"}],"source":"The New York Times"},{"feed_name":"World","feed_url":"https://rss.nytimes.com/services/xml/rss/nyt/World.xml","title":"Central and Southern California Have 0 Percent I.C.U. Capacity","summary":"","link":"https://www.nytimes.com/2020/12/26/world/central-and-southern-california-icu-capacity.html","published":"Sat, 26 Dec 2020 23:29:34 +0000","geolocations":[{"name":"California","count":2,"lat":38.57944,"lng":-121.49085,"type":"point"},{"name":"Southern California","count":1,"lat":41.77455,"lng":-84.88371,"type":"point"},{"name":"San Joaquin Valley","count":1,"lat":34.28543,"lng":-118.68464,"type":"point"},{"name":"The Bay Area","count":1,"lat":37.78986,"lng":-122.39634,"type":"point"},{"name":"The Greater Sacramento Region","count":1,"lat":7.90099,"lng":125.28819,"type":"point"},{"name":"Washington State","count":1,"lat":37.13026,"lng":-113.50987,"type":"point"},{"name":"Oregon","count":1,"lat":44.93326,"lng":-123.04381,"type":"point"}],"source":"The New York Times"},{"feed_name":"World","feed_url":"https://www.aljazeera.com/xml/rss/all.xml","title":"Several soldiers killed by gunmen in southwestern Pakistan","summary":"The attack targeted the paramilitary Frontier Corps (FC), the military said, adding a search operation was under way.","link":"https://www.aljazeera.com/news/2020/12/27/several-soldiers-killed-by-gunmen-in-south-western-pakistan","published":"Sun, 27 Dec 2020 14:49:44 +0000","geolocations":[{"name":"Fc","count":1,"lat":44.22822,"lng":12.04209,"type":"point"},{"name":"Pakistan","count":4,"lat":33.70964,"lng":73.07545,"type":"point"},{"name":"Harnai District","count":1,"lat":27.70938,"lng":80.5991,"type":"point"},{"name":"Panjgur","count":1,"lat":26.97764,"lng":64.16523,"type":"point"},{"name":"Afghanistan","count":1,"lat":34.53313,"lng":69.10223,"type":"country"},{"name":"Iran","count":1,"lat":35.68877,"lng":51.41503,"type":"country"},{"name":"China","count":1,"lat":39.90657,"lng":116.38765,"type":"country"}],"source":"Aljazeera"},{"feed_name":"World","feed_url":"https://www.theguardian.com/world/rss","title":"Large explosion damages buildings in Nashville at Christmas – video","summary":"<p>Footage filmed after a vehicle exploded in Nashville early on Christmas morning shows damage to several buildings. The explosion is being considered an 'intentional act' by local police as vehicle broadcast an apparently recorded message telling people to evacuate the area before the blast</p><ul><li><a href=\"https://www.theguardian.com/us-news/2020/dec/25/explosion-nashville-intentional-act-police-say\">Large 'bomb' blast wrecks buildings in downtown Nashville</a></li></ul> <a href=\"https://www.theguardian.com/us-news/video/2020/dec/26/large-explosion-damages-buildings-in-nashville-at-christmas-video\">Continue reading...</a>","link":"https://www.theguardian.com/us-news/video/2020/dec/26/large-explosion-damages-buildings-in-nashville-at-christmas-video","published":"Sat, 26 Dec 2020 13:01:50 GMT","geolocations":[{"name":"Nashville","count":1,"lat":36.16784,"lng":-86.77816,"type":"point"}],"source":"The Guardian"},{"feed_name":"World","feed_url":"https://www.aljazeera.com/xml/rss/all.xml","title":"Fauci warns US COVID-19 outbreak may worsen after holidays","summary":"Dr Anthony Fauci warns that holiday travel could increase the spread of COVID-19 and bring the US to a &#039;critical point&#039;.","link":"https://www.aljazeera.com/news/2020/12/27/fauci-warns-us-covid-outbreak-may-worsen-after-holidays","published":"Sun, 27 Dec 2020 17:41:20 +0000","geolocations":[{"name":"Us","count":5,"lat":38.89037,"lng":-77.03196,"type":"country"},{"name":"The United States’","count":1,"lat":38.89037,"lng":-77.03196,"type":"country"},{"name":"Arlington","count":1,"lat":38.8905,"lng":-77.08629,"type":"point"},{"name":"Virginia","count":1,"lat":37.54068,"lng":-77.43367,"type":"point"},{"name":"Michigan","count":1,"lat":42.73194,"lng":-84.55225,"type":"point"}],"source":"Aljazeera"},{"feed_name":"World","feed_url":"https://www.theguardian.com/world/rss","title":"Girl Scouts accuse Boy Scouts of ‘damaging’ recruitment war tactics","summary":"<p>Lawyers say the organization is now directly competing with the Boy Scouts for female recruits and that it’s not a fair fight </p><p>The Girl Scouts are in a “highly damaging” recruitment war with the Boy Scouts after the latter opened its core services to girls, leading to marketplace confusion and some girls unwittingly joining the Boy Scouts, lawyers for the century-old Girl Scouts organization claim in court papers. </p><p>The competition, more conjecture than reality two years ago, has intensified as the Boy Scouts of America organization – which insists recruits pledge to be “trustworthy, loyal, helpful, friendly, courteous and kind” – has unfairly recruited girls lately, according to claims in legal briefs filed on behalf of the Girl Scouts of the United States of America. </p> <a href=\"https://www.theguardian.com/us-news/2020/dec/27/girl-scouts-boy-scouts-lawsuit-recruitment-war\">Continue reading...</a>","link":"https://www.theguardian.com/us-news/2020/dec/27/girl-scouts-boy-scouts-lawsuit-recruitment-war","published":"Sun, 27 Dec 2020 15:09:08 GMT","geolocations":[{"name":"The United States Of America","count":1,"lat":38.89037,"lng":-77.03196,"type":"country"},{"name":"Manhattan","count":1,"lat":39.17881,"lng":-96.56184,"type":"point"},{"name":"Boy Scouts","count":1,"lat":18.4678,"lng":-69.93019,"type":"point"}],"source":"The Guardian"},