[{"feed_name":"World","feed_url":"https://www.theguardian.com/world/rss","title":"Lorry drivers clash with police as tensions boil over in Dover – video","summary":"<p>Frustrated drivers scuffled with police at the entrance to the port of Dover on Wednesday morning, amid anger at the continued partial closure of the French border. Paris and London agreed late on Tuesday that drivers who tested negative for Covid could board ferries for Calais from Wednesday, but there was anger among hauliers stuck in huge queues in Kent at the speed of the rollout of testing facilities</p><ul><li><a href=\"https://www.theguardian.com/world/2020/dec/23/lorry-drivers-clash-police-tensions-rise-over-queues-kent\">Lorry drivers clash with police as tensions rise over queues in Kent</a></li><li><a href=\"https://www.theguardian.com/world/live/2020/dec/23/coronavirus-live-news-us-cases-increase-14-in-one-week-france-to-reopen-uk-border\">Coronavirus live news</a></li></ul> <a href=\"https://www.theguardian.com/world/video/2020/dec/23/lorry-drivers-clash-with-police-as-tensions-boil-over-in-dover-video\">Continue reading...</a>","link":"https://www.theguardian.com/world/video/2020/dec/23/lorry-drivers-clash-with-police-as-tensions-boil-over-in-dover-video","published":"Wed, 23 Dec 2020 13:39:08 GMT","geolocations":[{"name":"Dover","count":1,"lat":39.15803,"lng":-75.52473,"type":"point"},{"name":"Paris","count":1,"lat":48.85717,"lng":2.3414,"type":"point"},{"name":"London","count":1,"lat":51.50643,"lng":-0.12719,"type":"point"},{"name":"Kent","count":1,"lat":47.3807,"lng":-122.23741,"type":"point"}],"source":"The Guardian"},{"feed_name":"World","feed_url":"https://rss.nytimes.com/services/xml/rss/nyt/World.xml","title":"Overwhelmed by virus victims, a New York funeral home became a scene of ‘horrifying disrespect.’","summary":"Andrew T. Cleckley was the first funeral director in New York to have his license revoked over the way he handled the remains of pandemic victims.","link":"https://www.nytimes.com/2020/12/23/nyregion/overwhelmed-by-virus-victims-a-new-york-funeral-home-became-a-scene-of-horrifying-disrespect.html","published":"Wed, 23 Dec 2020 10:13:30 +0000","geolocations":[{"name":"Brooklyn","count":1,"lat":40.69245,"lng":-73.99036,"type":"point"},{"name":"New York","count":1,"lat":40.71455,"lng":-74.00714,"type":"point"}],"source":"The New York Times"},{"feed_name":"World","feed_url":"https://www.latimes.com/world/rss2.0.xml","title":"Despite his boasts, Trump again is no deal-maker as Congress seeks pandemic relief bill","summary":"<p>Donald Trump was elected partly on his fame for \"The Art of the Deal,\" yet he's cut no big deals in office. The relief package is the latest, perhaps final, example.</p>","link":"https://www.latimes.com/politics/story/2020-12-20/despite-his-boasts-trump-again-is-no-deal-maker-as-congress-seeks-crisis-relief-bill","published":"Sun, 20 Dec 2020 06:00:32 -0500","geolocations":[{"name":"Rose Garden","count":1,"lat":37.33473,"lng":-121.92853,"type":"point"},{"name":"Ky","count":1,"lat":19.29657,"lng":-81.38175,"type":"country"}],"source":"Los Angeles Times"},{"feed_name":"World","feed_url":"https://www.latimes.com/world/rss2.0.xml","title":"'Will they let us live?' Inside Xinjiang, survivors of China's internment camps speak","summary":"<p>A vast system of Chinese surveillance, detention, cultural erasure and forced labor has devastated the Uighur people in Xingiang, their homeland.</p>","link":"https://www.latimes.com/world-nation/story/2020-12-17/china-xinjiang-uighurs-muslim-minority-camps","published":"Thu, 17 Dec 2020 13:42:15 -0500","geolocations":[{"name":"Xinjiang","count":19,"lat":35.61469,"lng":111.21768,"type":"point"},{"name":"China","count":5,"lat":39.90657,"lng":116.38765,"type":"country"},{"name":"Jevlan Shirmemmet","count":1,"lat":45.38941,"lng":-84.92315,"type":"point"},{"name":"Istanbul","count":1,"lat":41.06201,"lng":28.98877,"type":"point"},{"name":"Turkey","count":2,"lat":39.92109,"lng":32.85391,"type":"country"},{"name":"Kashgar","count":2,"lat":51.48714,"lng":0.09757,"type":"point"},{"name":"Korla","count":5,"lat":22.98609,"lng":85.13433,"type":"point"},{"name":"East Turkestan","count":1,"lat":43.31648,"lng":68.2409,"type":"point"},{"name":"Urumqi","count":2,"lat":43.78787,"lng":87.58627,"type":"point"},{"name":"Google Earth","count":1,"lat":38.76564,"lng":-90.46003,"type":"point"},{"name":"U.S.","count":1,"lat":38.89037,"lng":-77.03196,"type":"country"}],"source":"Los Angeles Times"},{"feed_name":"World","feed_url":"https://www.aljazeera.com/xml/rss/all.xml","title":"Canadian police rule out ‘foul play’ in Pakistani activist death","summary":"Karima Mehtab Baloch received several death threats before she went missing on Monday and was found dead a day later.","link":"https://www.aljazeera.com/news/2020/12/23/canadian-police-rule-out-foul-play-in-pakistani-activist-death","published":"Wed, 23 Dec 2020 14:37:26 +0000","geolocations":[{"name":"Toronto","count":2,"lat":43.64869,"lng":-79.38544,"type":"point"},{"name":"Pakistan","count":9,"lat":33.70964,"lng":73.07545,"type":"point"},{"name":"Canada","count":1,"lat":45.42178,"lng":-75.69116,"type":"country"},{"name":"Baloch","count":1,"lat":21.62755,"lng":69.91603,"type":"point"},{"name":"India","count":2,"lat":28.63095,"lng":77.21721,"type":"country"},{"name":"Brussels","count":1,"lat":50.84439,"lng":4.35609,"type":"point"}],"source":"Aljazeera"},{"feed_name":"World","feed_url":"https://www.latimes.com/world/rss2.0.xml","title":"FDA authorizes vaccine from Moderna and NIH, ramping up fight against COVID-19","summary":"<p>The Food and Drug Administration grants emergency-use authorization to the COVID-19 vaccine from Moderna and the National Institutes of Health.</p>","link":"https://www.latimes.com/science/story/2020-12-18/fda-authorizes-covid-vaccine-moderna-nih","published":"Fri, 18 Dec 2020 19:49:52 -0500","geolocations":[{"name":"Pfizer","count":1,"lat":51.26584,"lng":-0.25106,"type":"point"},{"name":"The United States","count":3,"lat":38.89037,"lng":-77.03196,"type":"country"},{"name":"Southern California","count":1,"lat":41.77455,"lng":-84.88371,"type":"point"},{"name":"The San Joaquin Valley","count":1,"lat":34.28543,"lng":-118.68464,"type":"point"},{"name":"U.S.","count":1,"lat":38.89037,"lng":-77.03196,"type":"country"},{"name":"California","count":1,"lat":38.57944,"lng":-121.49085,"type":"point"},{"name":"Washington","count":1,"lat":38.89037,"lng":-77.03196,"type":"point"},{"name":"Fairfield","count":1,"lat":38.24924,"lng":-122.0443,"type":"point"},{"name":"Conn.","count":1,"lat":43.99815,"lng":-80.56848,"type":"point"}],"source":"Los Angeles Times"},{"feed_name":"World","feed_url":"https://rss.nytimes.com/services/xml/rss/nyt/World.xml","title":"Your Tuesday Briefing","summary":"Parts of Asia and Europe bar travelers from Britain.","link":"https://www.nytimes.com/2020/12/21/briefing/virus-variant-bans-china-electricity.html","published":"Tue, 22 Dec 2020 03:05:53 +0000","geolocations":[{"name":"Asia","count":1,"lat":-12.76551,"lng":-76.61171,"type":"point"},{"name":"Europe","count":1,"lat":-33.98201,"lng":18.58413,"type":"point"},{"name":"United Kingdom","count":3,"lat":38.95953,"lng":-91.92768,"type":"point"},{"name":"U.K.","count":1,"lat":29.93186,"lng":77.81922,"type":"point"},{"name":"Hong Kong","count":2,"lat":22.2783,"lng":114.16039,"type":"point"},{"name":"France","count":2,"lat":48.85717,"lng":2.3414,"type":"country"},{"name":"Saudi Arabia","count":1,"lat":24.68211,"lng":46.68722,"type":"country"},{"name":"Austria","count":1,"lat":48.20263,"lng":16.36842,"type":"country"},{"name":"Belgium","count":1,"lat":50.84439,"lng":4.35609,"type":"country"},{"name":"Bulgaria","count":1,"lat":42.69718,"lng":23.32433,"type":"country"},{"name":"Germany","count":1,"lat":52.51604,"lng":13.37691,"type":"country"},{"name":"Ireland","count":1,"lat":53.34807,"lng":-6.24827,"type":"country"},{"name":"Italy","count":1,"lat":41.90322,"lng":12.49565,"type":"country"},{"name":"Netherlands","count":1,"lat":52.36993,"lng":4.90788,"type":"country"},{"name":"Canada","count":1,"lat":45.42178,"lng":-75.69116,"type":"country"},{"name":"India","count":1,"lat":28.63095,"lng":77.21721,"type":"country"},{"name":"Iran","count":1,"lat":35.68877,"lng":51.41503,"type":"country"},{"name":"Israel","count":1,"lat":31.78003,"lng":35.21873,"type":"country"},{"name":"Russia","count":1,"lat":55.75696,"lng":37.61502,"type":"country"}],"source":"The New York Times"},{"feed_name":"World","feed_url":"https://www.theguardian.com/world/rss","title":"Pardons sink Trump further into swamp of his own shamelessness","summary":"<p><strong>Analysis: </strong>President sanctions first federal execution of a woman in 67 years – but war criminals, fraudsters and Russia-linked cronies go free</p><p>Lisa Montgomery is set to become the first woman put to death by the US federal government in 67 years. On Tuesday senators including Cory Booker, Bernie Sanders and Elizabeth Warren wrote to the justice department <a href=\"https://www.warren.senate.gov/imo/media/doc/2020.12.21%20Letter%20to%20DOJ%20IG%20on%20federal%20executions%20FINAL.pdf\">demanding an investigation</a> into an “unprecedented spree” of federal executions on Donald Trump’s watch.</p><p>A few hours later the president <a href=\"https://www.theguardian.com/us-news/2020/dec/22/who-trump-pardon-guide-george-papadopoulos-duncan-hunter\">announced a slew of 15 pardons</a>. Strikingly they included <a href=\"https://www.theguardian.com/world/2020/dec/23/trump-pardons-blackwater-contractors-jailed-for-massacre-of-iraq-civilians\">four military contractors</a> imprisoned for the killing of unarmed men, women and children in Iraq. In short, war criminals.</p> <a href=\"https://www.theguardian.com/us-news/2020/dec/23/pardons-sink-trump-further-into-swamp-of-his-own-shamelessness\">Continue reading...</a>","link":"https://www.theguardian.com/us-news/2020/dec/23/pardons-sink-trump-further-into-swamp-of-his-own-shamelessness","published":"Wed, 23 Dec 2020 04:54:16 GMT","geolocations":[{"name":"Us","count":2,"lat":38.89037,"lng":-77.03196,"type":"country"},{"name":"Iraq","count":1,"lat":33.3421,"lng":44.39307,"type":"country"},{"name":"Blackwater","count":2,"lat":-23.58569,"lng":148.88012,"type":"point"},{"name":"Baghdad","count":1,"lat":33.3421,"lng":44.39307,"type":"point"},{"name":"The District Of Columbia","count":1,"lat":44.63305,"lng":-67.85116,"type":"point"},{"name":"Russia","count":1,"lat":55.75696,"lng":37.61502,"type":"country"},{"name":"Moscow","count":1,"lat":55.75696,"lng":37.61502,"type":"point"},{"name":"Washington","count":1,"lat":38.89037,"lng":-77.03196,"type":"point"},{"name":"America","count":1,"lat":51.43739,"lng":5.98176,"type":"point"}],"source":"The Guardian"},{"feed_name":"World","feed_url":"https://www.theguardian.com/world/rss","title":"Pollution killed nearly 1.7m people in India in 2019 – study","summary":"<p>Lancet report finds that toxic air caused rise in lung cancer, stroke and other diseases</p><p>Pollution accounted for nearly 1.7m premature deaths in India in 2019, or 18% of all deaths, according to a study that lays bare the human cost of the country’s toxic urban air.</p><p>A report published by the Lancet says pollution in India has led to an increase in diseases such as lung cancer, heart disease, stroke, diabetes, neonatal disorders and respiratory diseases, resulting in millions more deaths.</p> <a href=\"https://www.theguardian.com/world/2020/dec/23/pollution-killed-nearly-17-million-people-in-india-in-2019-study\">Continue reading...</a>","link":"https://www.theguardian.com/world/2020/dec/23/pollution-killed-nearly-17-million-people-in-india-in-2019-study","published":"Wed, 23 Dec 2020 13:40:26 GMT","geolocations":[{"name":"India","count":9,"lat":28.63095,"lng":77.21721,"type":"country"},{"name":"Delhi","count":2,"lat":28.63409,"lng":77.21693,"type":"point"},{"name":"Uttar Pradesh","count":1,"lat":26.85471,"lng":80.92135,"type":"point"}],"source":"The Guardian"},{"feed_name":"World - Europe","feed_url":"http://feeds.bbci.co.uk/news/world/rss.xml","title":"Rohingya refugees' perilous journey in search of safety","summary":"More than 200 Rohingya refugees are believed to have died or gone missing at sea in 2020.","link":"https://www.bbc.co.uk/news/world-55412080","published":"Wed, 23 Dec 2020 00:01:42 GMT","geolocations":[{"name":"Bangladesh","count":2,"lat":23.71325,"lng":90.39959,"type":"country"},{"name":"Malaysia","count":1,"lat":3.14789,"lng":101.69405,"type":"country"},{"name":"Indonesia","count":1,"lat":-6.17148,"lng":106.82649,"type":"country"},{"name":"Myanmar","count":1,"lat":21.11892,"lng":96.51169,"type":"country"}],"source":"BBC"},{"feed_name":"World","feed_url":"https://rss.nytimes.com/services/xml/rss/nyt/World.xml","title":"Protests at Oregon State Capitol Over Virus Restrictions","summary":"","link":"https://www.nytimes.com/2020/12/21/world/oregon-coronavirus-protests.html","published":"Tue, 22 Dec 2020 04:36:34 +0000","geolocations":[{"name":"Oregon","count":1,"lat":44.93326,"lng":-123.04381,"type":"point"},{"name":"Salem","count":1,"lat":44.93326,"lng":-123.04381,"type":"point"}],"source":"The New York Times"},{"feed_name":"World","feed_url":"https://www.aljazeera.com/xml/rss/all.xml","title":"UK, EU to hold crisis talks again with days until Brexit deadline","summary":"UK PM and top EU official set for crunch call as fractious talks over post-Brexit trade deal drag on.","link":"https://www.aljazeera.com/news/2020/12/23/brexit-johnson-and-von-der-leyen-to-hold-crisis-brexit-call","published":"Wed, 23 Dec 2020 12:50:45 +0000","geolocations":[{"name":"The United Kingdom","count":1,"lat":38.95953,"lng":-91.92768,"type":"point"},{"name":"Europe","count":1,"lat":-33.98201,"lng":18.58413,"type":"point"}],"source":"Aljazeera"},{"feed_name":"World - Europe","feed_url":"http://feeds.bbci.co.uk/news/world/rss.xml","title":"Biden gets Covid vaccine: 'Nothing to worry about'","summary":"The president-elect has his first dose of the Pfizer coronavirus vaccine in Delaware.","link":"https://www.bbc.co.uk/news/world-us-canada-55405693","published":"Mon, 21 Dec 2020 21:35:39 GMT","geolocations":[{"name":"Us","count":1,"lat":38.89037,"lng":-77.03196,"type":"country"},{"name":"Newark","count":1,"lat":53.07428,"lng":-0.80972,"type":"point"},{"name":"Delaware","count":1,"lat":39.15803,"lng":-75.52473,"type":"point"}],"source":"BBC"},{"feed_name":"World","feed_url":"https://www.aljazeera.com/xml/rss/all.xml","title":"COVID travel ban: UK Sikhs feed stranded truck drivers","summary":"Thousands of trucks destined for Europe have been held up in southeastern England amid fears over a new COVID strain.","link":"https://www.aljazeera.com/news/2020/12/23/uk-sikh-groups-rally-to-feed-stranded-truck-drivers","published":"Wed, 23 Dec 2020 11:13:14 +0000","geolocations":[{"name":"Europe","count":3,"lat":-33.98201,"lng":18.58413,"type":"point"},{"name":"England","count":1,"lat":51.50643,"lng":-0.12719,"type":"country"},{"name":"France","count":4,"lat":48.85717,"lng":2.3414,"type":"country"},{"name":"The United Kingdom","count":1,"lat":38.95953,"lng":-91.92768,"type":"point"},{"name":"London","count":1,"lat":51.50643,"lng":-0.12719,"type":"point"},{"name":"Kent","count":4,"lat":47.3807,"lng":-122.23741,"type":"point"},{"name":"Gravesend","count":1,"lat":51.43286,"lng":0.36464,"type":"point"},{"name":"United Kingdom","count":4,"lat":38.95953,"lng":-91.92768,"type":"point"},{"name":"Dover","count":1,"lat":39.15803,"lng":-75.52473,"type":"point"}],"source":"Aljazeera"},{"feed_name":"World","feed_url":"https://rss.nytimes.com/services/xml/rss/nyt/World.xml","title":"Xin Xing, Giant Panda With Progeny Around the Globe, Dies at 38","summary":"The star of China’s Chongqing Zoo was the world’s oldest panda in captivity. More than 150 of her descendants have lived in several countries.","link":"https://www.nytimes.com/2020/12/23/world/asia/china-giant-panda-xin-xing-dead.html","published":"Wed, 23 Dec 2020 10:39:33 +0000","geolocations":[{"name":"China","count":2,"lat":39.90657,"lng":116.38765,"type":"country"}],"source":"The New York Times"},{"feed_name":"World","feed_url":"https://www.latimes.com/world/rss2.0.xml","title":"Barr won't appoint a special counsel to investigate Hunter Biden","summary":"<p>Atty. Gen. William Barr said he saw no reason to appoint a special prosecutor to investigate Hunter Biden or election fraud.</p>","link":"https://www.latimes.com/politics/story/2020-12-21/barr-wont-appoint-a-special-counsel-to-investigate-hunter-biden","published":"Mon, 21 Dec 2020 12:38:02 -0500","geolocations":[{"name":"Scotland","count":1,"lat":55.95438,"lng":-3.20144,"type":"country"},{"name":"U.S.","count":1,"lat":38.89037,"lng":-77.03196,"type":"country"},{"name":"Russia","count":1,"lat":55.75696,"lng":37.61502,"type":"country"},{"name":"China","count":1,"lat":39.90657,"lng":116.38765,"type":"country"}],"source":"Los Angeles Times"},{"feed_name":"World","feed_url":"https://rss.nytimes.com/services/xml/rss/nyt/World.xml","title":"Hong Kong Media Tycoon Jimmy Lai Is Freed on Bail","summary":"Mr. Lai, who was charged under the national security law imposed by Beijing, is not allowed to speak to reporters, use social media or leave his house.","link":"https://www.nytimes.com/2020/12/23/world/asia/jimmy-lai-hong-kong-bail.html","published":"Wed, 23 Dec 2020 14:13:53 +0000","geolocations":[{"name":"Hong Kong","count":4,"lat":22.2783,"lng":114.16039,"type":"point"},{"name":"Hong Kong’S","count":1,"lat":22.2783,"lng":114.16039,"type":"point"},{"name":"Beijing","count":1,"lat":39.90657,"lng":116.38765,"type":"point"}],"source":"The New York Times"},{"feed_name":"World","feed_url":"https://rss.nytimes.com/services/xml/rss/nyt/World.xml","title":"How to Pretend You’re in Quebec City Tonight","summary":"As the song goes, there’s no place like home for the holidays. Wherever you are, you can embrace the coziness of the season like Québécois do.","link":"https://www.nytimes.com/2020/12/22/travel/Quebec-City-vacation-at-home.html","published":"Tue, 22 Dec 2020 10:00:29 +0000","geolocations":[{"name":"Quebec City","count":1,"lat":46.81273,"lng":-71.2193,"type":"point"},{"name":"North America","count":1,"lat":36.19711,"lng":-94.52681,"type":"point"}],"source":"The New York Times"},{"feed_name":"World","feed_url":"https://www.theguardian.com/world/rss","title":"Albrecht Dürer may not have written Lament on Luther, finds study","summary":"<p>Research suggests elegy on arrest of Protestant reformer was the work not of the German artist but of a monk</p><p>It has been described as “one of the greatest spontaneous prayers in world literature”, but Albrecht Dürer’s elegy on the arrest of Martin Luther, the Protestant reformer, may not have been written by the German painter, printmaker and writer after all, research suggests.</p><p>Considered one of Dürer’s best-known writings, the Lament on Luther could instead have been the work of a contemporary monk that was slipped into the artist’s diary, possibly for political reasons, according to what the National Gallery describes as “very convincing evidence”.</p> <a href=\"https://www.theguardian.com/world/2020/dec/23/albrecht-durer-may-not-have-written-lament-on-luther-finds-study\">Continue reading...</a>","link":"https://www.theguardian.com/world/2020/dec/23/albrecht-durer-may-not-have-written-lament-on-luther-finds-study","published":"Wed, 23 Dec 2020 12:05:24 GMT","geolocations":[{"name":"Lutheran","count":1,"lat":53.45782,"lng":12.00184,"type":"point"},{"name":"United Kingdom","count":1,"lat":38.95953,"lng":-91.92768,"type":"point"},{"name":"Washington","count":1,"lat":38.89037,"lng":-77.03196,"type":"point"},{"name":"Augustine","count":1,"lat":16.97106,"lng":-88.99188,"type":"point"},{"name":"Antwerp","count":2,"lat":51.22212,"lng":4.39769,"type":"point"},{"name":"Wittenberg","count":1,"lat":44.82671,"lng":-89.16806,"type":"point"}],"source":"The Guardian"},{"feed_name":"World","feed_url":"https://www.latimes.com/world/rss2.0.xml","title":"A notorious child rapist was released from prison. Hordes of YouTube vigilantes awaited","summary":"<p>The growing popularity of YouTube in South Korea has led to questionable attempts by users to gain viewers, including promises of vigilante justice.</p>","link":"https://www.latimes.com/world-nation/story/2020-12-18/youtubers-vigilante-justice-child-rapist-south-korea","published":"Fri, 18 Dec 2020 10:05:19 -0500","geolocations":[{"name":"South Korea","count":2,"lat":37.55886,"lng":126.99989,"type":"country"},{"name":"Ansan","count":1,"lat":31.9518,"lng":35.94042,"type":"point"}],"source":"Los Angeles Times"},{"feed_name":"World","feed_url":"https://rss.nytimes.com/services/xml/rss/nyt/World.xml","title":"The virus hits federal death row, prompting calls for delays in executions.","summary":"","link":"https://www.nytimes.com/2020/12/22/world/the-virus-hits-federal-death-row-prompting-calls-for-delays-in-executions.html","published":"Tue, 22 Dec 2020 12:12:03 +0000","geolocations":[{"name":"Terre Haute","count":1,"lat":39.46649,"lng":-87.41301,"type":"point"},{"name":"Ind.","count":1,"lat":28.63095,"lng":77.21721,"type":"country"}],"source":"The New York Times"},{"feed_name":"World - Europe","feed_url":"http://feeds.bbci.co.uk/news/world/rss.xml","title":"Covid-19: 'Losing Christmas is irreparable damage'","summary":"Foppolo ski resort in the Italian Alps is shut and will miss the all-important Christmas ski season.","link":"https://www.bbc.co.uk/news/world-europe-55414708","published":"Wed, 23 Dec 2020 00:01:35 GMT","geolocations":[{"name":"Italy","count":2,"lat":41.90322,"lng":12.49565,"type":"country"},{"name":"Europe","count":1,"lat":-33.98201,"lng":18.58413,"type":"point"},{"name":"Bergamo","count":1,"lat":45.69523,"lng":9.66951,"type":"point"}],"source":"BBC"},{"feed_name":"World","feed_url":"https://www.aljazeera.com/xml/rss/all.xml","title":"UK’s fresh food supply at risk until Dover backlog cleared","summary":"British Retail Consortium says disruption to English Channel trade could affect availability of some fresh goods.","link":"https://www.aljazeera.com/news/2020/12/23/uk-industry-group-warns-dover-crisis-risks-fresh-food-supply","published":"Wed, 23 Dec 2020 15:08:49 +0000","geolocations":[{"name":"Dover","count":2,"lat":39.15803,"lng":-75.52473,"type":"point"},{"name":"France","count":2,"lat":48.85717,"lng":2.3414,"type":"country"},{"name":"United Kingdom","count":4,"lat":38.95953,"lng":-91.92768,"type":"point"},{"name":"Europe","count":2,"lat":-33.98201,"lng":18.58413,"type":"point"},{"name":"Paris","count":1,"lat":48.85717,"lng":2.3414,"type":"point"},{"name":"London","count":1,"lat":51.50643,"lng":-0.12719,"type":"point"}],"source":"Aljazeera"},{"feed_name":"World","feed_url":"https://rss.nytimes.com/services/xml/rss/nyt/World.xml","title":"Mexico Misled Citizens About the Severity of Coronavirus in its Capital","summary":"The federal government had data that should have prompted an immediate lockdown in early December. Instead, it kept the city open for another two weeks.","link":"https://www.nytimes.com/2020/12/21/world/americas/mexico-city-covid.html","published":"Tue, 22 Dec 2020 17:53:00 +0000","geolocations":[{"name":"Mexico City","count":3,"lat":19.27691,"lng":-99.13939,"type":"point"},{"name":"Mexico","count":2,"lat":23.94757,"lng":-102.5411,"type":"country"}],"source":"The New York Times"},{"feed_name":"World","feed_url":"https://rss.nytimes.com/services/xml/rss/nyt/World.xml","title":"Kashmir Votes, and India Hails It as Normalcy in a Dominated Region","summary":"India’s ruling party worked to make Kashmir’s rural development council elections a showcase. But a visit by Times reporters showed a place still struggling under heavy-handed rule.","link":"https://www.nytimes.com/2020/12/22/world/asia/kashmir-modi-election.html","published":"Tue, 22 Dec 2020 17:17:53 +0000","geolocations":[{"name":"Kashmir","count":3,"lat":24.86905,"lng":86.18022,"type":"point"},{"name":"India","count":1,"lat":28.63095,"lng":77.21721,"type":"country"}],"source":"The New York Times"},{"feed_name":"World","feed_url":"https://www.aljazeera.com/xml/rss/all.xml","title":"France: Gunman, who shot dead 3 police officers, found dead","summary":"Police officers were killed while responding to a call over domestic violence in Puy-de-Dome.","link":"https://www.aljazeera.com/news/2020/12/23/france-three-police-officers-shot-dead-one-wounded","published":"Wed, 23 Dec 2020 06:15:52 +0000","geolocations":[{"name":"Puy-De-Dome","count":1,"lat":45.77668,"lng":3.07722,"type":"point"},{"name":"Clermont","count":1,"lat":28.5513,"lng":-81.76642,"type":"point"}],"source":"Aljazeera"},{"feed_name":"World","feed_url":"https://www.latimes.com/world/rss2.0.xml","title":"Pandemic closures alter the rhythm of life in towns on both sides of the U.S.-Mexico border","summary":"<p>Scaled-back hours at the border add difficulty for those who travel between countries for work, shopping and school.</p>","link":"https://www.latimes.com/world-nation/story/2020-12-22/bisbee-arizona-coronavirus-covid-19-mexico-border","published":"Tue, 22 Dec 2020 07:00:20 -0500","geolocations":[{"name":"U.S.","count":12,"lat":38.89037,"lng":-77.03196,"type":"country"},{"name":"Mexico","count":17,"lat":23.94757,"lng":-102.5411,"type":"country"},{"name":"Arizona","count":4,"lat":33.44825,"lng":-112.0758,"type":"point"},{"name":"Bisbee","count":17,"lat":31.44185,"lng":-109.91478,"type":"point"},{"name":"Naco","count":10,"lat":31.32692,"lng":-109.94841,"type":"point"},{"name":"Ariz.","count":3,"lat":40.2535,"lng":28.22813,"type":"point"},{"name":"Canada","count":1,"lat":45.42178,"lng":-75.69116,"type":"country"},{"name":"Sonora","count":6,"lat":37.98329,"lng":-120.38219,"type":"point"},{"name":"Texas","count":2,"lat":30.26759,"lng":-97.74299,"type":"point"},{"name":"Nogales","count":1,"lat":18.82165,"lng":-97.16297,"type":"point"},{"name":"Cochise County","count":1,"lat":31.96812,"lng":-110.28625,"type":"point"},{"name":"Laredo","count":1,"lat":27.53092,"lng":-99.50223,"type":"point"},{"name":"El Paso","count":1,"lat":31.75916,"lng":-106.48749,"type":"point"},{"name":"Tarazon","count":1,"lat":41.90457,"lng":-1.72321,"type":"point"},{"name":"Borrajo","count":1,"lat":39.96746,"lng":-4.81228,"type":"point"}],"source":"Los Angeles Times"},{"feed_name":"World","feed_url":"https://www.theguardian.com/world/rss","title":"The 15 best video games of 2020","summary":"<p>A queer coming-of-age story charmed us, a balletic shoot-em-up raised our adrenaline and the star game of lockdown provided a desert-island escape from real life</p><ul><li><a href=\"https://www.theguardian.com/culture/series/best-culture-2020\">More on the best culture of 2020</a></li></ul> <a href=\"https://www.theguardian.com/games/2020/dec/23/the-15-best-video-games-of-2020\">Continue reading...</a>","link":"https://www.theguardian.com/games/2020/dec/23/the-15-best-video-games-of-2020","published":"Wed, 23 Dec 2020 14:35:29 GMT","geolocations":[{"name":"Us","count":3,"lat":38.89037,"lng":-77.03196,"type":"country"},{"name":"Ireland","count":1,"lat":53.34807,"lng":-6.24827,"type":"country"},{"name":"New York","count":2,"lat":40.71455,"lng":-74.00714,"type":"point"},{"name":"Yokohama","count":1,"lat":41.0497,"lng":141.25337,"type":"point"},{"name":"Alps","count":1,"lat":37.99371,"lng":-77.18015,"type":"point"},{"name":"Kentucky","count":2,"lat":38.19507,"lng":-84.87869,"type":"point"}],"source":"The Guardian"},{"feed_name":"World","feed_url":"https://www.aljazeera.com/xml/rss/all.xml","title":"Vaccine hesitancy stirs in nearly COVID-free Singapore","summary":"First vaccines arrived this week with prime minister expected to be among first recipients to boost public confidence.","link":"https://www.aljazeera.com/news/2020/12/23/vaccine-hesitancy-stirs-in-nearly-covid-19-free-singapore","published":"Wed, 23 Dec 2020 08:12:57 +0000","geolocations":[{"name":"Singapore","count":10,"lat":1.29041,"lng":103.85211,"type":"country"},{"name":"The United Kingdom","count":1,"lat":38.95953,"lng":-91.92768,"type":"point"},{"name":"The United States","count":1,"lat":38.89037,"lng":-77.03196,"type":"country"}],"source":"Aljazeera"},{"feed_name":"World","feed_url":"https://www.theguardian.com/world/rss","title":"Organic meat production just as bad for climate, study finds","summary":"<p>Analysis also found the lowest impact meat was still far more damaging than the worst plant foods</p><p>The cost of the climate damage caused by organic meat production is just as high as that of conventionally farmed meat, according to research.</p><p>The analysis estimated the greenhouse gas emissions resulting from different foods and calculated how much their prices would need to rise to cover the harm they cause by fuelling the climate emergency.</p> <a href=\"https://www.theguardian.com/environment/2020/dec/23/organic-meat-production-just-as-bad-for-climate-study-finds\">Continue reading...</a>","link":"https://www.theguardian.com/environment/2020/dec/23/organic-meat-production-just-as-bad-for-climate-study-finds","published":"Wed, 23 Dec 2020 10:42:50 GMT","geolocations":[{"name":"South America","count":1,"lat":44.76704,"lng":-93.92739,"type":"point"},{"name":"Germany","count":1,"lat":52.51604,"lng":13.37691,"type":"country"}],"source":"The Guardian"},{"feed_name":"World","feed_url":"https://rss.nytimes.com/services/xml/rss/nyt/World.xml","title":"For U.K., an Early Taste of Brexit as Borders Are Sealed","summary":"Battling a new coronavirus variant even as they steel themselves for the looming split with the E.U., Britons are feeling profoundly isolated.","link":"https://www.nytimes.com/2020/12/21/world/europe/brexit-covid-uk.html","published":"Tue, 22 Dec 2020 05:02:27 +0000","geolocations":[{"name":"United Kingdom","count":5,"lat":38.95953,"lng":-91.92768,"type":"point"},{"name":"France","count":1,"lat":48.85717,"lng":2.3414,"type":"country"},{"name":"Spain","count":1,"lat":40.41955,"lng":-3.69196,"type":"country"},{"name":"Europe","count":1,"lat":-33.98201,"lng":18.58413,"type":"point"},{"name":"London","count":1,"lat":51.50643,"lng":-0.12719,"type":"point"}],"source":"The New York Times"},{"feed_name":"World","feed_url":"https://www.theguardian.com/world/rss","title":"Russian MPs backs bills enabling Moscow to block US social media","summary":"<p>Push to increase Russia’s internet sovereignty fuels fears of creeping China-style controls</p><p>Russian authorities could gain powers to restrict access to US social media sites found to discriminate against Russian media, and to levy big fines on platforms that do not delete banned content, under bills passed by the parliament’s lower house.</p><p>The authors of the two bills said infractions by YouTube and Facebook demonstrated the need for the legislation, which is part of a push to increase Russia’s internet sovereignty and has fuelled fears of creeping China-style controls.</p> <a href=\"https://www.theguardian.com/world/2020/dec/23/russian-parliament-backs-bills-enabling-moscow-to-block-us-social-media\">Continue reading...</a>","link":"https://www.theguardian.com/world/2020/dec/23/russian-parliament-backs-bills-enabling-moscow-to-block-us-social-media","published":"Wed, 23 Dec 2020 11:47:07 GMT","geolocations":[{"name":"Us","count":1,"lat":38.89037,"lng":-77.03196,"type":"country"},{"name":"Russia","count":6,"lat":55.75696,"lng":37.61502,"type":"country"},{"name":"China","count":1,"lat":39.90657,"lng":116.38765,"type":"country"}],"source":"The Guardian"},{"feed_name":"World","feed_url":"https://rss.nytimes.com/services/xml/rss/nyt/World.xml","title":"Mexico misled the public about an outbreak in the capital, a Times investigation finds.","summary":"","link":"https://www.nytimes.com/2020/12/21/world/mexico-misled-the-public-about-an-outbreak-in-the-capital-a-times-investigation-finds.html","published":"Tue, 22 Dec 2020 10:18:01 +0000","geolocations":[{"name":"Mexico","count":3,"lat":23.94757,"lng":-102.5411,"type":"country"},{"name":"Mexico City","count":2,"lat":19.27691,"lng":-99.13939,"type":"point"}],"source":"The New York Times"},{"feed_name":"World","feed_url":"https://www.latimes.com/world/rss2.0.xml","title":"Biden's Cabinet: Expertise, diversity and an Obama class reunion","summary":"<p>As a candidate, Joe Biden promised to restore \"normal\" government and transform America. To help, his Cabinet will be historically diverse but heavy on Obama alumni.</p>","link":"https://www.latimes.com/politics/story/2020-12-19/bidens-cabinet-expertise-diversity-and-an-obama-class-reunion","published":"Sat, 19 Dec 2020 06:00:13 -0500","geolocations":[{"name":"America","count":3,"lat":51.43739,"lng":5.98176,"type":"point"},{"name":"New Mexico","count":1,"lat":35.69177,"lng":-105.93824,"type":"point"},{"name":"Haaland","count":1,"lat":60.67418,"lng":4.95931,"type":"point"},{"name":"Massachusetts","count":1,"lat":42.35866,"lng":-71.05674,"type":"point"},{"name":"California","count":1,"lat":38.57944,"lng":-121.49085,"type":"point"},{"name":"North Carolina","count":1,"lat":35.78547,"lng":-78.6427,"type":"point"},{"name":"Rhode Island","count":1,"lat":41.82387,"lng":-71.41199,"type":"point"},{"name":"U.S.","count":1,"lat":38.89037,"lng":-77.03196,"type":"country"},{"name":"Washington","count":1,"lat":38.89037,"lng":-77.03196,"type":"point"},{"name":"Vermont","count":1,"lat":44.26029,"lng":-72.57626,"type":"point"},{"name":"Ohio","count":1,"lat":39.96199,"lng":-83.00275,"type":"point"},{"name":"Chicago","count":1,"lat":41.88425,"lng":-87.63245,"type":"point"}],"source":"Los Angeles Times"},{"feed_name":"World","feed_url":"https://rss.nytimes.com/services/xml/rss/nyt/World.xml","title":"Norway’s Supreme Court Makes Way for More Arctic Drilling","summary":"The top court ruled against environmental groups Tuesday, saying the right to a clean environment did not bar the government from drilling for offshore oil.","link":"https://www.nytimes.com/2020/12/22/world/europe/norway-supreme-court-oil-climate-change.html","published":"Tue, 22 Dec 2020 15:17:52 +0000","geolocations":[{"name":"Norway","count":4,"lat":59.91234,"lng":10.75,"type":"country"},{"name":"Arctic","count":2,"lat":42.18723,"lng":-75.41355,"type":"point"},{"name":"Scandinavia","count":1,"lat":44.46346,"lng":-89.15076,"type":"point"},{"name":"France","count":1,"lat":48.85717,"lng":2.3414,"type":"country"}],"source":"The New York Times"},{"feed_name":"World","feed_url":"https://www.theguardian.com/world/rss","title":"US government agrees to buy 100m extra doses of Pfizer vaccine","summary":"<ul><li>Pfizer and BioNTech plan to deliver doses by mid-summer</li><li>18m Covid-19 cases in the US, with 322,849 recorded deaths</li></ul><p>Pfizer and BioNTech will provide the US with an additional 100 million doses of coronavirus vaccine by mid-summer under a new $2bn deal with the American government.</p><p>This addition means that Pfizer and BioNTech will deliver a total of 200 million doses to the US and enable some 100 million people to be inoculated against the deadly virus.</p> <a href=\"https://www.theguardian.com/us-news/2020/dec/23/us-vaccine-latest-pfizer-doses\">Continue reading...</a>","link":"https://www.theguardian.com/us-news/2020/dec/23/us-vaccine-latest-pfizer-doses","published":"Wed, 23 Dec 2020 14:46:44 GMT","geolocations":[{"name":"Us","count":7,"lat":38.89037,"lng":-77.03196,"type":"country"}],"source":"The Guardian"},{"feed_name":"World","feed_url":"https://www.aljazeera.com/xml/rss/all.xml","title":"Pfizer agrees to supply 100 million more COVID vaccines to US","summary":"The $2bn deal will see the additional 100 million doses delivered to the US by July.","link":"https://www.aljazeera.com/economy/2020/12/23/pfizer-agrees-to-supply-100-million-more-covid-vaccines-to-us","published":"Wed, 23 Dec 2020 13:50:47 +0000","geolocations":[{"name":"Us","count":5,"lat":38.89037,"lng":-77.03196,"type":"country"},{"name":"United States","count":1,"lat":38.89037,"lng":-77.03196,"type":"country"}],"source":"Aljazeera"},{"feed_name":"World","feed_url":"https://rss.nytimes.com/services/xml/rss/nyt/World.xml","title":"Covid Antibody Drugs Go Unused as Need Soars","summary":"While such treatments are promising, their use has been slowed by testing lags, overwhelmed hospitals and a perception the therapies are only for well-connected people.","link":"https://www.nytimes.com/2020/12/23/health/covid-antibody-treatment.html","published":"Wed, 23 Dec 2020 15:22:58 +0000","geolocations":[{"name":"New Jersey","count":1,"lat":40.21788,"lng":-74.7594,"type":"point"}],"source":"The New York Times"},{"feed_name":"World","feed_url":"https://rss.nytimes.com/services/xml/rss/nyt/World.xml","title":"The Virus That Stole Most of 2020 Now Steals Christmas, Too","summary":"Across Italy and beyond, those who lost loved ones this year had looked forward to a holiday with the rest of their friends and relatives. But for many, it’s not to be.","link":"https://www.nytimes.com/2020/12/23/world/europe/italy-coronavirus-christmas.html","published":"Wed, 23 Dec 2020 10:00:32 +0000","geolocations":[{"name":"Rome","count":1,"lat":41.90322,"lng":12.49565,"type":"point"},{"name":"Europe","count":1,"lat":-33.98201,"lng":18.58413,"type":"point"},{"name":"Italy","count":1,"lat":41.90322,"lng":12.49565,"type":"country"}],"source":"The New York Times"},{"feed_name":"World","feed_url":"https://rss.nytimes.com/services/xml/rss/nyt/World.xml","title":"Ezra F. Vogel, Eminent Scholar of China and Japan, Dies at 90","summary":"A longtime scholar at Harvard, Professor Vogel wrote books that helped shape how the world viewed the two ascendant economic powers.","link":"https://www.nytimes.com/2020/12/22/world/asia/ezra-f-vogel-dead.html","published":"Wed, 23 Dec 2020 07:59:46 +0000","geolocations":[{"name":"China","count":2,"lat":39.90657,"lng":116.38765,"type":"country"},{"name":"Beijing","count":1,"lat":39.90657,"lng":116.38765,"type":"point"},{"name":"Japan","count":1,"lat":35.68408,"lng":139.80885,"type":"country"},{"name":"The United States","count":1,"lat":38.89037,"lng":-77.03196,"type":"country"}],"source":"The New York Times"},{"feed_name":"World","feed_url":"https://www.theguardian.com/world/rss","title":"New Covid variant in UK: spreading Christmas fear?","summary":"<p>B117 is more transmissible than original virus, but there is no evidence it makes people sicker</p><ul><li><a href=\"https://www.theguardian.com/world/series/coronavirus-live/latest\">Coronavirus – latest updates</a></li><li><a href=\"https://www.theguardian.com/world/coronavirus-outbreak\">See all our coronavirus coverage</a></li></ul><p>If a new virus sounds scary, a new mutating virus sounds scarier still. In Kent in September, scientists now believe, somebody with Covid was the unlucky first person to pass on a variant form of the coronavirus that is maybe as much as 70% more transmissible than the version we have been used to.</p><p>The exponential recent rise in cases now blamed on that incident and the UK government response have sparked alarm around the world, with other countries banning flights into the UK <a href=\"https://www.theguardian.com/world/2020/dec/21/france-ban-uk-transport-surprise-says-grant-shapps-covid\">for at least 48 hours</a> while everyone figures out what is going on.</p> <a href=\"https://www.theguardian.com/world/2020/dec/21/new-covid-variant-in-uk-spreading-christmas-fear\">Continue reading...</a>","link":"https://www.theguardian.com/world/2020/dec/21/new-covid-variant-in-uk-spreading-christmas-fear","published":"Mon, 21 Dec 2020 19:03:58 GMT","geolocations":[{"name":"Kent","count":2,"lat":47.3807,"lng":-122.23741,"type":"point"},{"name":"London","count":1,"lat":51.50643,"lng":-0.12719,"type":"point"},{"name":"England","count":1,"lat":51.50643,"lng":-0.12719,"type":"country"},{"name":"Germany","count":1,"lat":52.51604,"lng":13.37691,"type":"country"},{"name":"Europe","count":1,"lat":-33.98201,"lng":18.58413,"type":"point"}],"source":"The Guardian"},{"feed_name":"World","feed_url":"https://rss.nytimes.com/services/xml/rss/nyt/World.xml","title":"Even after border reopens, truckers stuck at British ports scuffle with the police.","summary":"Britain agreed to broad virus tests for truck drivers as part of a deal to reopen land, air and sea routes to France.","link":"https://www.nytimes.com/2020/12/23/world/even-after-border-reopens-truckers-stuck-at-british-ports-scuffle-with-the-police.html","published":"Wed, 23 Dec 2020 13:30:09 +0000","geolocations":[{"name":"United Kingdom","count":1,"lat":38.95953,"lng":-91.92768,"type":"point"},{"name":"France","count":1,"lat":48.85717,"lng":2.3414,"type":"country"},{"name":"Kent","count":1,"lat":47.3807,"lng":-122.23741,"type":"point"},{"name":"Dover","count":1,"lat":39.15803,"lng":-75.52473,"type":"point"}],"source":"The New York Times"},{"feed_name":"World","feed_url":"https://rss.nytimes.com/services/xml/rss/nyt/World.xml","title":"Sentence Is Cut for Skylar Mack, U.S. Student Who Broke Quarantine in Cayman Islands","summary":"Skylar Mack, 18, was sentenced to four months in prison for violating coronavirus restrictions in the Cayman Islands. After an outcry, her sentence was reduced to two months on Tuesday.","link":"https://www.nytimes.com/2020/12/22/world/americas/skylar-mack-cayman-islands-covid.html","published":"Wed, 23 Dec 2020 03:31:06 +0000","geolocations":[{"name":"The Cayman Islands","count":2,"lat":19.29657,"lng":-81.38175,"type":"country"},{"name":"The Cayman Islands’","count":1,"lat":19.29657,"lng":-81.38175,"type":"country"}],"source":"The New York Times"},{"feed_name":"World","feed_url":"https://www.theguardian.com/world/rss","title":"Turkey sentences journalist Can Dündar to 27 years in jail","summary":"<p>Ex-Cumhuriyet newspaper editor given verdict in absentia on charges described as politically motivated</p><p>A prominent Turkish journalist has been sentenced in absentia to more than 27 years in jail on terrorism-related charges that his legal team have described as politically motivated.</p><p><a href=\"https://www.theguardian.com/profile/can-d-ndar\">Can Dündar,</a> who edited <a href=\"https://www.theguardian.com/world/turkey\">Turkey’s</a> Cumhuriyet newspaper before fleeing to Germany in 2016, was previously found guilty by an Istanbul court of espionage and aiding an armed terrorist organisation.</p> <a href=\"https://www.theguardian.com/world/2020/dec/23/turkey-sentences-journalist-can-dundar-27-years-jail\">Continue reading...</a>","link":"https://www.theguardian.com/world/2020/dec/23/turkey-sentences-journalist-can-dundar-27-years-jail","published":"Wed, 23 Dec 2020 12:44:20 GMT","geolocations":[{"name":"Turkey","count":10,"lat":39.92109,"lng":32.85391,"type":"country"},{"name":"Germany","count":2,"lat":52.51604,"lng":13.37691,"type":"country"},{"name":"Istanbul","count":2,"lat":41.06201,"lng":28.98877,"type":"point"},{"name":"Ankara","count":2,"lat":39.92109,"lng":32.85391,"type":"point"},{"name":"Erdoğan","count":1,"lat":40.20561,"lng":29.36485,"type":"point"},{"name":"Syria","count":2,"lat":33.51656,"lng":36.31708,"type":"point"},{"name":"China","count":1,"lat":39.90657,"lng":116.38765,"type":"country"}],"source":"The Guardian"},{"feed_name":"World","feed_url":"https://www.latimes.com/world/rss2.0.xml","title":"Biden nominates Rep. Haaland to Interior, naming first Native American Cabinet member","summary":"<p>Deb Haaland would be first Indigenous Cabinet member, running the agency that oversees federal land and American Indian affairs.</p>","link":"https://www.latimes.com/environment/story/2020-12-17/biden-nominates-deb-haaland-to-interior-naming-first-native-american-cabinet-secretary","published":"Thu, 17 Dec 2020 14:56:32 -0500","geolocations":[{"name":"New Mexico","count":4,"lat":35.69177,"lng":-105.93824,"type":"point"},{"name":"Haaland","count":10,"lat":60.67418,"lng":4.95931,"type":"point"},{"name":"The United States","count":1,"lat":38.89037,"lng":-77.03196,"type":"country"},{"name":"Pennsylvania","count":1,"lat":40.25986,"lng":-76.88223,"type":"point"},{"name":"Texas","count":1,"lat":30.26759,"lng":-97.74299,"type":"point"},{"name":"Utah","count":1,"lat":40.76031,"lng":-111.88822,"type":"point"},{"name":"Alaska","count":1,"lat":58.29973,"lng":-134.40679,"type":"point"},{"name":"Arctic National Wildlife Refuge","count":1,"lat":40.1538,"lng":-109.62409,"type":"point"},{"name":"Laguna Pueblo","count":1,"lat":22.22637,"lng":-97.82026,"type":"point"},{"name":"Standing Rock","count":1,"lat":35.79538,"lng":-108.3599,"type":"point"},{"name":"North Dakota","count":1,"lat":46.80536,"lng":-100.77969,"type":"point"},{"name":"Washington","count":1,"lat":38.89037,"lng":-77.03196,"type":"point"},{"name":"The Laguna Pueblo","count":1,"lat":22.22637,"lng":-97.82026,"type":"point"},{"name":"Kansas","count":1,"lat":39.04928,"lng":-95.67118,"type":"point"},{"name":"United States","count":1,"lat":38.89037,"lng":-77.03196,"type":"country"},{"name":"San Francisco","count":1,"lat":37.77712,"lng":-122.41964,"type":"point"}],"source":"Los Angeles Times"},{"feed_name":"World - Europe","feed_url":"http://feeds.bbci.co.uk/news/world/rss.xml","title":"Octopuses filmed punching fish in the Red Sea","summary":"Scientists have filmed octopuses in the Red Sea lashing out at fish during a group hunt.","link":"https://www.bbc.co.uk/news/science-environment-55426583","published":"Wed, 23 Dec 2020 12:59:40 GMT","geolocations":[{"name":"The Red Sea","count":1,"lat":25.30473,"lng":55.41072,"type":"point"}],"source":"BBC"},{"feed_name":"World","feed_url":"https://www.theguardian.com/world/rss","title":"Lorry drivers blare horns in protest at border backlog in Kent – video","summary":"<p>About 1,500 lorries are stuck in Kent after&nbsp;<a href=\"https://www.theguardian.com/world/2020/dec/21/uk-in-covid-freight-ban-talks-with-france-as-cobra-set-to-meet-over-crisis\">France imposed a ban</a>&nbsp;on any accompanied freight or cargo entering the country from Britain because of the new coronavirus variant discovered in the UK. The move triggered government crisis plans at Dover and other major pinch points, with some drivers redirected to a nearby airfield to ease congestion on the roads</p><ul><li><a href=\"https://www.theguardian.com/world/2020/dec/22/covid-uk-may-test-all-lorry-drivers-to-try-to-break-port-gridlock\">Covid: France to reopen UK border for French and lorry drivers, reports say</a></li><li><a href=\"https://www.theguardian.com/world/live/2020/dec/22/coronavirus-live-news-biden-receives-vaccine-as-global-death-toll-passes-17m\">Coronavirus - latest updates</a></li></ul> <a href=\"https://www.theguardian.com/world/video/2020/dec/22/hundreds-of-lorries-line-kent-motorways-as-border-backlog-grows-video\">Continue reading...</a>","link":"https://www.theguardian.com/world/video/2020/dec/22/hundreds-of-lorries-line-kent-motorways-as-border-backlog-grows-video","published":"Tue, 22 Dec 2020 16:00:28 GMT","geolocations":[{"name":"Kent","count":1,"lat":47.3807,"lng":-122.23741,"type":"point"},{"name":"France","count":1,"lat":48.85717,"lng":2.3414,"type":"country"},{"name":"United Kingdom","count":1,"lat":38.95953,"lng":-91.92768,"type":"point"},{"name":"Dover","count":1,"lat":39.15803,"lng":-75.52473,"type":"point"}],"source":"The Guardian"},{"feed_name":"World","feed_url":"https://rss.nytimes.com/services/xml/rss/nyt/World.xml","title":"Lockerbie Bombing of 1988: US Unseals Charges Against New Suspect","summary":"Attorney General William P. Barr said that investigators had obtained a confession in 2012 from a bomb expert admitting his role in the terrorist attack on a jetliner over Scotland.","link":"https://www.nytimes.com/2020/12/21/us/politics/lockerbie-bombing-suspect.html","published":"Tue, 22 Dec 2020 01:22:47 +0000","geolocations":[{"name":"Libya","count":4,"lat":32.89534,"lng":13.18105,"type":"country"},{"name":"The United States","count":1,"lat":38.89037,"lng":-77.03196,"type":"country"},{"name":"United Kingdom","count":1,"lat":38.95953,"lng":-91.92768,"type":"point"},{"name":"Netherlands","count":1,"lat":52.36993,"lng":4.90788,"type":"country"},{"name":"United States","count":1,"lat":38.89037,"lng":-77.03196,"type":"country"},{"name":"Scotland","count":1,"lat":55.95438,"lng":-3.20144,"type":"country"},{"name":"Tunisia","count":1,"lat":36.80001,"lng":10.1827,"type":"country"},{"name":"Tripoli","count":2,"lat":32.89534,"lng":13.18105,"type":"point"}],"source":"The New York Times"},{"feed_name":"World","feed_url":"https://www.latimes.com/world/rss2.0.xml","title":"A new strain of coronavirus and looming Brexit chaos make the Yuletide gray in Britain","summary":"<p>In beleaguered Britain, Brexit is coming, Christmas is pretty much canceled and a new strain of the coronavirus brings near-pariah status. What next?</p>","link":"https://www.latimes.com/world-nation/story/2020-12-21/britain-christmas-brexit-new-strain-coronavirus-pariah","published":"Mon, 21 Dec 2020 15:40:51 -0500","geolocations":[{"name":"United Kingdom","count":13,"lat":38.95953,"lng":-91.92768,"type":"point"},{"name":"England","count":3,"lat":51.50643,"lng":-0.12719,"type":"country"},{"name":"London","count":2,"lat":51.50643,"lng":-0.12719,"type":"point"},{"name":"France","count":1,"lat":48.85717,"lng":2.3414,"type":"country"},{"name":"Europe","count":2,"lat":-33.98201,"lng":18.58413,"type":"point"},{"name":"Italy","count":1,"lat":41.90322,"lng":12.49565,"type":"country"},{"name":"The United Kingdom’S","count":1,"lat":38.95953,"lng":-91.92768,"type":"point"},{"name":"U.K.","count":1,"lat":29.93186,"lng":77.81922,"type":"point"}],"source":"Los Angeles Times"},{"feed_name":"World","feed_url":"https://www.latimes.com/world/rss2.0.xml","title":"Rich countries are hoarding COVID-19 vaccines. Elsewhere, the pandemic may keep killing for years","summary":"<p>Poor countries face long waits for injections as the U.S. and others buy up nearly all the global supply of Pfizer and Moderna vaccines.</p>","link":"https://www.latimes.com/world-nation/story/2020-12-22/rich-nations-snap-up-covid-19-vaccines-leaving-less-for-the-poor","published":"Tue, 22 Dec 2020 05:00:42 -0500","geolocations":[{"name":"China","count":4,"lat":39.90657,"lng":116.38765,"type":"country"},{"name":"Russia","count":2,"lat":55.75696,"lng":37.61502,"type":"country"},{"name":"Geneva","count":1,"lat":46.20833,"lng":6.14275,"type":"point"},{"name":"India","count":7,"lat":28.63095,"lng":77.21721,"type":"country"},{"name":"South Africa","count":1,"lat":-25.74587,"lng":28.18764,"type":"country"},{"name":"Africa","count":1,"lat":43.10832,"lng":12.77534,"type":"point"},{"name":"Ahmedabad","count":1,"lat":23.02778,"lng":72.60025,"type":"point"},{"name":"The United States","count":4,"lat":38.89037,"lng":-77.03196,"type":"country"},{"name":"The United Kingdom","count":1,"lat":38.95953,"lng":-91.92768,"type":"point"},{"name":"U.S.","count":4,"lat":38.89037,"lng":-77.03196,"type":"country"},{"name":"Covax","count":6,"lat":40.12734,"lng":-8.85287,"type":"point"},{"name":"Sub-Saharan Africa","count":1,"lat":-27.17536,"lng":21.91836,"type":"point"},{"name":"France","count":1,"lat":48.85717,"lng":2.3414,"type":"country"},{"name":"Canada","count":2,"lat":45.42178,"lng":-75.69116,"type":"country"},{"name":"Mexico City","count":2,"lat":19.27691,"lng":-99.13939,"type":"point"},{"name":"Latin America","count":1,"lat":41.62788,"lng":13.34278,"type":"point"},{"name":"Caribbean","count":1,"lat":30.47333,"lng":-86.42132,"type":"point"},{"name":"Mexico","count":2,"lat":23.94757,"lng":-102.5411,"type":"country"},{"name":"Brazil","count":1,"lat":-15.77829,"lng":-47.92909,"type":"country"},{"name":"Chile","count":1,"lat":-33.43722,"lng":-70.65002,"type":"country"},{"name":"Bolivia","count":1,"lat":-16.49908,"lng":-68.13378,"type":"country"},{"name":"El Salvador","count":1,"lat":13.69967,"lng":-89.2068,"type":"country"},{"name":"Nicaragua","count":1,"lat":12.1172,"lng":-86.24081,"type":"country"},{"name":"Indonesia","count":1,"lat":-6.17148,"lng":106.82649,"type":"country"},{"name":"Asia","count":1,"lat":-12.76551,"lng":-76.61171,"type":"point"},{"name":"Singapore","count":1,"lat":1.29041,"lng":103.85211,"type":"country"},{"name":"Linthicum","count":1,"lat":39.21251,"lng":-76.66941,"type":"point"}],"source":"Los Angeles Times"},{"feed_name":"World","feed_url":"https://www.latimes.com/world/rss2.0.xml","title":"With Education pick, Biden adds public schools proponent and third Latino to Cabinet","summary":"<p>Biden chooses Connecticut schools chief Miguel Cardona — a former teacher and a proponent of reopening schools during the pandemic — for Education.</p>","link":"https://www.latimes.com/politics/story/2020-12-22/biden-education-secretary","published":"Tue, 22 Dec 2020 10:09:30 -0500","geolocations":[{"name":"Connecticut","count":9,"lat":41.76375,"lng":-72.67394,"type":"point"},{"name":"California","count":1,"lat":38.57944,"lng":-121.49085,"type":"point"},{"name":"America","count":1,"lat":51.43739,"lng":5.98176,"type":"point"},{"name":"Meriden","count":2,"lat":41.53653,"lng":-72.7981,"type":"point"},{"name":"Puerto Rico","count":1,"lat":18.22286,"lng":-66.4685,"type":"country"},{"name":"Los Angeles","count":1,"lat":34.05357,"lng":-118.24545,"type":"point"}],"source":"Los Angeles Times"},{"feed_name":"World","feed_url":"https://www.theguardian.com/world/rss","title":"White supremacists plotted attacks on US power plants, FBI alleges","summary":"<ul><li>Ohio teen ‘suggested buying ranch for militant training’</li><li>Court documents mistakenly unsealed last week</li></ul><p>White supremacists plotted to attack power stations in the south-eastern US, and an Ohio teenager who allegedly shared the plan said he wanted the group to be “operational” on a fast-tracked timeline if Donald Trump were to lose his re-election bid, the FBI alleges in an affidavit that was mistakenly unsealed.</p> <a href=\"https://www.theguardian.com/world/2020/dec/23/white-supremacists-plotted-attacks-us-power-plants-fbi-alleges\">Continue reading...</a>","link":"https://www.theguardian.com/world/2020/dec/23/white-supremacists-plotted-attacks-us-power-plants-fbi-alleges","published":"Wed, 23 Dec 2020 13:06:38 GMT","geolocations":[{"name":"Us","count":5,"lat":38.89037,"lng":-77.03196,"type":"country"},{"name":"Ohio","count":8,"lat":39.96199,"lng":-83.00275,"type":"point"},{"name":"Wisconsin","count":3,"lat":43.07313,"lng":-89.38644,"type":"point"},{"name":"Texas","count":1,"lat":30.26759,"lng":-97.74299,"type":"point"},{"name":"Oshkosh","count":1,"lat":44.02491,"lng":-88.54443,"type":"point"},{"name":"Canada","count":1,"lat":45.42178,"lng":-75.69116,"type":"country"}],"source":"The Guardian"},{"feed_name":"World","feed_url":"https://www.theguardian.com/world/rss","title":"On the road to nowhere: France border closures causes UK lorry chaos – in pictures","summary":"<p>The decision by France to close its borders to incoming freight traffic from the UK has caused chaos in Dover – the gateway to Europe – and roads leading to the port </p> <a href=\"https://www.theguardian.com/world/gallery/2020/dec/22/on-the-road-to-nowhere-france-border-closures-causes-uk-lorry-chaos-in-pictures\">Continue reading...</a>","link":"https://www.theguardian.com/world/gallery/2020/dec/22/on-the-road-to-nowhere-france-border-closures-causes-uk-lorry-chaos-in-pictures","published":"Tue, 22 Dec 2020 23:47:57 GMT","geolocations":[{"name":"France","count":1,"lat":48.85717,"lng":2.3414,"type":"country"},{"name":"Dover","count":1,"lat":39.15803,"lng":-75.52473,"type":"point"},{"name":"Europe","count":1,"lat":-33.98201,"lng":18.58413,"type":"point"}],"source":"The Guardian"},{"feed_name":"World","feed_url":"https://www.theguardian.com/world/rss","title":"I’ve been shielding in my parents’ bungalow since the spring. It’s like Big Brother, circa 2002","summary":"<p>As the owner of low-grade lungs in respiratory pandemic, entering house arrest was an easy decision. Perhaps next year will bring probation</p><p><br />“It’s been seven months and 15 days … since Covid took human contact away … ahh-ahh ahhh-ahhhh.” I do my best Sinéad O’Connor impersonation in the bathroom mirror, debating whether a full skinhead would be a solution to my inability to visit the hairdresser.</p><p>Honestly, I’ve no idea exactly how long I’ve been in this house. Has it been a year? One particularly long week?</p> <a href=\"https://www.theguardian.com/lifeandstyle/2020/dec/23/ive-been-shielding-in-my-parents-bungalow-since-the-spring-its-like-big-brother-circa-2002\">Continue reading...</a>","link":"https://www.theguardian.com/lifeandstyle/2020/dec/23/ive-been-shielding-in-my-parents-bungalow-since-the-spring-its-like-big-brother-circa-2002","published":"Wed, 23 Dec 2020 13:00:45 GMT","geolocations":[{"name":"Sinéad O’Connor","count":1,"lat":48.3668,"lng":-89.70051,"type":"point"},{"name":"Chernobyl","count":1,"lat":51.27229,"lng":30.2243,"type":"point"}],"source":"The Guardian"},{"feed_name":"World","feed_url":"https://rss.nytimes.com/services/xml/rss/nyt/World.xml","title":"Fraser Island Blaze Began With Campfire, Australian Officials Say","summary":"The police said the men started an illegal campfire, but experts said the region would remain vulnerable to more fires as climate change worsens dry conditions.","link":"https://www.nytimes.com/2020/12/23/world/australia/fraser-island-fire-australia.html","published":"Wed, 23 Dec 2020 15:36:42 +0000","geolocations":[{"name":"Melbourne","count":1,"lat":-37.81739,"lng":144.96751,"type":"point"},{"name":"Australia","count":2,"lat":-35.30654,"lng":149.12655,"type":"country"},{"name":"Fraser Island","count":1,"lat":-25.40983,"lng":153.04228,"type":"point"},{"name":"K’Gari","count":1,"lat":-24.62899,"lng":29.74528,"type":"point"}],"source":"The New York Times"},{"feed_name":"World","feed_url":"https://www.latimes.com/world/rss2.0.xml","title":"An Australian student denounced his university's ties to China. Then he became a target","summary":"<p>Drew Pavlou's battle against the University of Queensland illustrates China's influence over a key U.S. ally.</p>","link":"https://www.latimes.com/world-nation/story/2020-12-21/student-australia-china-xi-jinping-uighurs-muslims","published":"Mon, 21 Dec 2020 04:30:18 -0500","geolocations":[{"name":"Hong Kong","count":9,"lat":22.2783,"lng":114.16039,"type":"point"},{"name":"Brisbane","count":6,"lat":-27.46844,"lng":153.02334,"type":"point"},{"name":"Australia","count":15,"lat":-35.30654,"lng":149.12655,"type":"country"},{"name":"China","count":23,"lat":39.90657,"lng":116.38765,"type":"country"},{"name":"Beijing","count":14,"lat":39.90657,"lng":116.38765,"type":"point"},{"name":"U.S.","count":3,"lat":38.89037,"lng":-77.03196,"type":"country"},{"name":"Canberra","count":3,"lat":-35.30654,"lng":149.12655,"type":"point"},{"name":"Taiwan","count":2,"lat":25.03737,"lng":121.56355,"type":"country"},{"name":"Shanghai","count":1,"lat":39.45274,"lng":-78.15318,"type":"point"},{"name":"Queensland","count":1,"lat":-22.5681,"lng":144.54768,"type":"point"},{"name":"Sydney","count":1,"lat":-33.8696,"lng":151.20691,"type":"point"},{"name":"The South China Sea","count":1,"lat":26.07722,"lng":-97.16543,"type":"point"},{"name":"Xinjiang","count":1,"lat":35.61469,"lng":111.21768,"type":"point"},{"name":"East Turkestan","count":1,"lat":43.31648,"lng":68.2409,"type":"point"},{"name":"Melbourne","count":1,"lat":-37.81739,"lng":144.96751,"type":"point"},{"name":"Singapore","count":1,"lat":1.29041,"lng":103.85211,"type":"country"}],"source":"Los Angeles Times"},{"feed_name":"World","feed_url":"https://rss.nytimes.com/services/xml/rss/nyt/World.xml","title":"Congress passes a $900 billion pandemic relief bill.","summary":"","link":"https://www.nytimes.com/2020/12/22/world/congress-passes-a-900-billion-pandemic-relief-bill.html","published":"Tue, 22 Dec 2020 14:29:31 +0000","geolocations":[{"name":"Washington","count":1,"lat":38.89037,"lng":-77.03196,"type":"point"}],"source":"The New York Times"},{"feed_name":"World","feed_url":"https://www.latimes.com/world/rss2.0.xml","title":"Congress approves hospice care reforms to improve oversight, transparency","summary":"<p>Fines and other penalties are set for bad actors in an industry marked by weak regulation.</p>","link":"https://www.latimes.com/california/story/2020-12-23/hospice-terminally-ill-fraud-care-reforms-transparency-oversight-spending-bill","published":"Wed, 23 Dec 2020 06:00:03 -0500","geolocations":[{"name":"U.S.","count":1,"lat":38.89037,"lng":-77.03196,"type":"country"},{"name":"N.Y.","count":1,"lat":40.71455,"lng":-74.00714,"type":"point"},{"name":"California","count":3,"lat":38.57944,"lng":-121.49085,"type":"point"},{"name":"Los Angeles County","count":1,"lat":34.28089,"lng":-119.14472,"type":"point"}],"source":"Los Angeles Times"},{"feed_name":"World","feed_url":"https://www.latimes.com/world/rss2.0.xml","title":"Fox News runs fact check in response to defamation charges by voting software firm","summary":"<p>The network is running a pre-taped interview to counter claims made by pro-Trump guests and hosts on election fraud.</p>","link":"https://www.latimes.com/entertainment-arts/business/story/2020-12-19/fox-news-airing-a-fact-check-in-response-to-defamation-charges-by-voting-software-firm","published":"Sat, 19 Dec 2020 19:10:23 -0500","geolocations":[{"name":"London","count":1,"lat":51.50643,"lng":-0.12719,"type":"point"},{"name":"Palo Alto","count":1,"lat":37.44466,"lng":-122.16079,"type":"point"},{"name":"Los Angeles County","count":1,"lat":34.28089,"lng":-119.14472,"type":"point"},{"name":"U.S.","count":1,"lat":38.89037,"lng":-77.03196,"type":"country"},{"name":"The United States","count":3,"lat":38.89037,"lng":-77.03196,"type":"country"}],"source":"Los Angeles Times"},{"feed_name":"World","feed_url":"https://www.latimes.com/world/rss2.0.xml","title":"Column: Here's what Sen. Mike Lee got wrong about a Smithsonian Latino museum","summary":"<p>The Utah senator described the Smithsonian's proposed National Museum of the American Latino as divisive. More divisive: a society that erases Latinos</p>","link":"https://www.latimes.com/entertainment-arts/story/2020-12-17/utah-senator-mike-lee-blocks-smithsonian-latino-museum","published":"Thu, 17 Dec 2020 03:01:33 -0500","geolocations":[{"name":"Washington","count":1,"lat":38.89037,"lng":-77.03196,"type":"point"},{"name":"Utah","count":3,"lat":40.76031,"lng":-111.88822,"type":"point"},{"name":"New Jersey","count":2,"lat":40.21788,"lng":-74.7594,"type":"point"},{"name":"U.S.","count":7,"lat":38.89037,"lng":-77.03196,"type":"country"},{"name":"Europe","count":1,"lat":-33.98201,"lng":18.58413,"type":"point"},{"name":"Latin America","count":1,"lat":41.62788,"lng":13.34278,"type":"point"},{"name":"Southwest","count":1,"lat":17.68981,"lng":-64.86195,"type":"point"},{"name":"Mexico","count":1,"lat":23.94757,"lng":-102.5411,"type":"country"},{"name":"Hollywood","count":1,"lat":26.01067,"lng":-80.16026,"type":"point"},{"name":"Texas","count":1,"lat":30.26759,"lng":-97.74299,"type":"point"},{"name":"El Paso","count":1,"lat":31.75916,"lng":-106.48749,"type":"point"},{"name":"California","count":3,"lat":38.57944,"lng":-121.49085,"type":"point"}],"source":"Los Angeles Times"},{"feed_name":"World","feed_url":"https://rss.nytimes.com/services/xml/rss/nyt/World.xml","title":"California builds field hospitals and considers rationing care as virus spreads unabated.","summary":"","link":"https://www.nytimes.com/2020/12/21/world/california-builds-field-hospitals-and-considers-rationing-care-as-virus-spreads-unabated.html","published":"Tue, 22 Dec 2020 08:51:17 +0000","geolocations":[{"name":"Los Angeles","count":1,"lat":34.05357,"lng":-118.24545,"type":"point"},{"name":"California","count":2,"lat":38.57944,"lng":-121.49085,"type":"point"}],"source":"The New York Times"},{"feed_name":"World","feed_url":"https://www.aljazeera.com/xml/rss/all.xml","title":"Turkey sentences exiled journalist Can Dundar to 27 years in jail","summary":"Dundar was convicted in absentia of espionage and aiding an armed organisation, prompting criticism from Germany.","link":"https://www.aljazeera.com/news/2020/12/23/turkey-sentences-exiled-journalist-can-dundar-to-27-years-in-jail","published":"Wed, 23 Dec 2020 15:22:53 +0000","geolocations":[{"name":"Germany","count":2,"lat":52.51604,"lng":13.37691,"type":"country"},{"name":"Syria","count":1,"lat":33.51656,"lng":36.31708,"type":"point"},{"name":"Turkey","count":4,"lat":39.92109,"lng":32.85391,"type":"country"},{"name":"Istanbul","count":1,"lat":41.06201,"lng":28.98877,"type":"point"}],"source":"Aljazeera"},{"feed_name":"World","feed_url":"https://rss.nytimes.com/services/xml/rss/nyt/World.xml","title":"Who Takes the Eurostar? Almost No One, as the Pandemic Fuels a Rail Crisis","summary":"A plunge in ridership at the international high-speed train mirrors wider troubles gripping Europe’s railway industry.","link":"https://www.nytimes.com/2020/12/21/business/eurostar-pandemic-train-europe.html","published":"Tue, 22 Dec 2020 19:21:24 +0000","geolocations":[{"name":"Paris","count":3,"lat":48.85717,"lng":2.3414,"type":"point"},{"name":"Nord","count":1,"lat":34.43734,"lng":35.84711,"type":"point"},{"name":"London","count":4,"lat":51.50643,"lng":-0.12719,"type":"point"},{"name":"United Kingdom","count":2,"lat":38.95953,"lng":-91.92768,"type":"point"},{"name":"France","count":2,"lat":48.85717,"lng":2.3414,"type":"country"},{"name":"Brussels","count":1,"lat":50.84439,"lng":4.35609,"type":"point"},{"name":"Amsterdam","count":1,"lat":52.37018,"lng":4.87324,"type":"point"},{"name":"England","count":1,"lat":51.50643,"lng":-0.12719,"type":"country"}],"source":"The New York Times"},{"feed_name":"World","feed_url":"https://www.latimes.com/world/rss2.0.xml","title":"Trump finds himself isolated in refusal to blame Russia for big cyberattack","summary":"<p>Some lawmakers want the Kremlin punished over the suspected hack, but Trump refuses to point fingers.</p>","link":"https://www.latimes.com/world-nation/story/2020-12-20/lawmakers-experts-baffled-trump-brushes-off-suspected-russian-hack","published":"Sun, 20 Dec 2020 16:10:25 -0500","geolocations":[{"name":"U.S.","count":7,"lat":38.89037,"lng":-77.03196,"type":"country"},{"name":"Russia","count":7,"lat":55.75696,"lng":37.61502,"type":"country"},{"name":"The United States","count":3,"lat":38.89037,"lng":-77.03196,"type":"country"},{"name":"Utah","count":1,"lat":40.76031,"lng":-111.88822,"type":"point"},{"name":"China","count":1,"lat":39.90657,"lng":116.38765,"type":"country"},{"name":"Virginia","count":1,"lat":37.54068,"lng":-77.43367,"type":"point"},{"name":"Austin","count":1,"lat":30.26759,"lng":-97.74299,"type":"point"},{"name":"Wyo","count":1,"lat":39.78186,"lng":-122.19752,"type":"point"},{"name":"Moscow","count":1,"lat":55.75696,"lng":37.61502,"type":"point"},{"name":"Washington","count":1,"lat":38.89037,"lng":-77.03196,"type":"point"}],"source":"Los Angeles Times"},{"feed_name":"World","feed_url":"https://rss.nytimes.com/services/xml/rss/nyt/World.xml","title":"Navy Warship’s Secret Mission Off Cape Verde Aims to Help Punish Venezuela","summary":"The tale of the cruiser San Jacinto underscores the Trump administration’s animus toward Venezuela and how the postelection purge of top Pentagon leaders is roiling the military.","link":"https://www.nytimes.com/2020/12/22/us/politics/navy-cape-verde-venezuela.html","published":"Tue, 22 Dec 2020 10:00:21 +0000","geolocations":[{"name":"Washington","count":2,"lat":38.89037,"lng":-77.03196,"type":"point"},{"name":"San Jacinto","count":1,"lat":33.78388,"lng":-116.95719,"type":"point"},{"name":"Cape Verde","count":3,"lat":14.9155,"lng":-23.50941,"type":"country"},{"name":"Venezuela","count":5,"lat":10.50526,"lng":-66.91776,"type":"country"},{"name":"Iran","count":2,"lat":35.68877,"lng":51.41503,"type":"country"},{"name":"The United States","count":1,"lat":38.89037,"lng":-77.03196,"type":"country"}],"source":"The New York Times"},{"feed_name":"World","feed_url":"https://rss.nytimes.com/services/xml/rss/nyt/World.xml","title":"China-E.U. Talks Hit Another Snag as Biden Camp Objects","summary":"Beijing and Brussels were on the brink of an agreement to roll back restrictions on investment. But the deal’s fate is uncertain amid growing animosity toward China and increasingly vocal opposition.","link":"https://www.nytimes.com/2020/12/23/business/china-european-union-united-states.html","published":"Wed, 23 Dec 2020 09:46:22 +0000","geolocations":[{"name":"China","count":3,"lat":39.90657,"lng":116.38765,"type":"country"},{"name":"Germany","count":2,"lat":52.51604,"lng":13.37691,"type":"country"},{"name":"U.S.","count":1,"lat":38.89037,"lng":-77.03196,"type":"country"}],"source":"The New York Times"},{"feed_name":"World","feed_url":"https://www.aljazeera.com/xml/rss/all.xml","title":"Qatar FM: No obstacles to resolving Gulf crisis","summary":"Sheikh Mohammed said dispute should be resolved by dialogue and respect of sovereignty.","link":"https://www.aljazeera.com/news/2020/12/23/no-obstacles-to-resolving-gulf-crisis-qatar","published":"Wed, 23 Dec 2020 12:12:13 +0000","geolocations":[{"name":"Gulf","count":8,"lat":-30.07321,"lng":152.15272,"type":"point"},{"name":"Qatar","count":7,"lat":25.29424,"lng":51.51967,"type":"country"},{"name":"Saudi Arabia","count":3,"lat":24.68211,"lng":46.68722,"type":"country"},{"name":"The United Arab Emirates","count":1,"lat":24.46918,"lng":54.37173,"type":"country"},{"name":"Bahrain","count":1,"lat":26.22952,"lng":50.57604,"type":"country"},{"name":"Egypt","count":1,"lat":30.04427,"lng":31.23525,"type":"country"},{"name":"Doha","count":1,"lat":25.29424,"lng":51.51967,"type":"point"},{"name":"Iran","count":1,"lat":35.68877,"lng":51.41503,"type":"country"},{"name":"Moscow","count":1,"lat":55.75696,"lng":37.61502,"type":"point"},{"name":"United States","count":1,"lat":38.89037,"lng":-77.03196,"type":"country"}],"source":"Aljazeera"},{"feed_name":"World","feed_url":"https://rss.nytimes.com/services/xml/rss/nyt/World.xml","title":"Young and unemployed service-industry workers face bleak prospects.","summary":"","link":"https://www.nytimes.com/2020/12/22/world/young-and-unemployed-service-industry-workers-face-bleak-prospects.html","published":"Tue, 22 Dec 2020 10:18:26 +0000","geolocations":[{"name":"New York City","count":1,"lat":40.71455,"lng":-74.00714,"type":"point"}],"source":"The New York Times"},{"feed_name":"World","feed_url":"https://www.theguardian.com/world/rss","title":"Dr Fauci feels 'extreme confidence' in Covid vaccine as he gets jab – video","summary":"<p>Dr Anthony Fauci was injected with his first dose of the Moderna Covid-19 vaccine and he said he hoped it would encourage millions of other Americans to do the same.</p><p>The top US infectious diseases expert said he felt 'extreme confidence of the safety and efficacy of this vaccine'</p><ul><li><a href=\"https://www.theguardian.com/world/live/2020/dec/22/coronavirus-live-news-biden-receives-vaccine-as-global-death-toll-passes-17m\">Coronavirus – live coverage&nbsp;</a></li><li><a href=\"https://www.theguardian.com/us-news/2020/dec/21/joe-biden-coronavirus-vaccine-covid-public\">Biden receives vaccine live on TV</a></li></ul> <a href=\"https://www.theguardian.com/world/video/2020/dec/22/dr-fauci-feels-extreme-confidence-in-covid-vaccine-as-he-gets-jab-video\">Continue reading...</a>","link":"https://www.theguardian.com/world/video/2020/dec/22/dr-fauci-feels-extreme-confidence-in-covid-vaccine-as-he-gets-jab-video","published":"Tue, 22 Dec 2020 17:05:25 GMT","geolocations":[{"name":"Us","count":1,"lat":38.89037,"lng":-77.03196,"type":"country"}],"source":"The Guardian"},{"feed_name":"World","feed_url":"https://rss.nytimes.com/services/xml/rss/nyt/World.xml","title":"California hospitals face twin crises of capacity and ‘moral distress.’","summary":"","link":"https://www.nytimes.com/2020/12/22/world/california-hospitals-face-twin-crises-of-capacity-and-moral-distress.html","published":"Tue, 22 Dec 2020 22:58:09 +0000","geolocations":[{"name":"California","count":2,"lat":38.57944,"lng":-121.49085,"type":"point"}],"source":"The New York Times"},{"feed_name":"World","feed_url":"https://www.aljazeera.com/xml/rss/all.xml","title":"Two killed in Kabul shooting, bomb attack","summary":"Separate attacks on Wednesday amid speculation Taliban and Afghan government peace talks may be delayed further.","link":"https://www.aljazeera.com/news/2020/12/23/bomb-shooting-attack-in-kabul-kill-2","published":"Wed, 23 Dec 2020 09:59:22 +0000","geolocations":[{"name":"Kabul","count":4,"lat":34.53313,"lng":69.10223,"type":"point"},{"name":"Ngo","count":1,"lat":-2.48695,"lng":15.75048,"type":"point"},{"name":"Afghanistan","count":2,"lat":34.53313,"lng":69.10223,"type":"country"}],"source":"Aljazeera"},{"feed_name":"World","feed_url":"https://www.theguardian.com/world/rss","title":"Uganda detains leading lawyer for LGBT rights on money-laundering charges","summary":"<p>Opposition figures say charges against Nicholas Opiyo, known for defending the rights of society’s most vulnerable, are baseless</p><p>Security agencies in Uganda have arrested a prominent human rights lawyer over alleged money laundering.</p><p>Nicholas Opiyo, known for representing LGBTQ+ people, was arrested in a restaurant in the capital, Kampala, on Tuesday by plainclothes security and financial intelligence officers.</p> <a href=\"https://www.theguardian.com/global-development/2020/dec/23/uganda-detains-leading-lawyer-for-lgbt-rights-on-money-laundering-charges\">Continue reading...</a>","link":"https://www.theguardian.com/global-development/2020/dec/23/uganda-detains-leading-lawyer-for-lgbt-rights-on-money-laundering-charges","published":"Wed, 23 Dec 2020 10:56:42 GMT","geolocations":[{"name":"Uganda","count":7,"lat":0.31589,"lng":32.57501,"type":"country"},{"name":"Kampala","count":1,"lat":0.31589,"lng":32.57501,"type":"point"},{"name":"Us","count":1,"lat":38.89037,"lng":-77.03196,"type":"country"}],"source":"The Guardian"},{"feed_name":"World","feed_url":"https://www.latimes.com/world/rss2.0.xml","title":"The most important company you've never heard of is being dragged into the U.S.-China rivalry","summary":"<p>Taiwan Semiconductor Manufacturing Co. makes chips for iPhones, video game consoles and fighter jets. Now it's being forced to choose sides.</p>","link":"https://www.latimes.com/world-nation/story/2020-12-17/taiwan-chips-tsmc-china-us","published":"Thu, 17 Dec 2020 04:30:21 -0500","geolocations":[{"name":"Taiwan","count":16,"lat":25.03737,"lng":121.56355,"type":"country"},{"name":"Silicon Shield","count":1,"lat":55.01085,"lng":-1.448,"type":"point"},{"name":"U.S.","count":18,"lat":38.89037,"lng":-77.03196,"type":"country"},{"name":"China","count":29,"lat":39.90657,"lng":116.38765,"type":"country"},{"name":"Beijing","count":8,"lat":39.90657,"lng":116.38765,"type":"point"},{"name":"Shanghai","count":1,"lat":39.45274,"lng":-78.15318,"type":"point"},{"name":"Arizona","count":1,"lat":33.44825,"lng":-112.0758,"type":"point"},{"name":"Nanjing","count":1,"lat":-23.38327,"lng":150.6275,"type":"point"},{"name":"The United States","count":1,"lat":38.89037,"lng":-77.03196,"type":"country"},{"name":"Washington","count":4,"lat":38.89037,"lng":-77.03196,"type":"point"},{"name":"Manhattan","count":1,"lat":39.17881,"lng":-96.56184,"type":"point"},{"name":"South Korea","count":1,"lat":37.55886,"lng":126.99989,"type":"country"},{"name":"Taipei","count":4,"lat":25.03293,"lng":121.56705,"type":"point"},{"name":"Silicon Valley","count":1,"lat":37.24667,"lng":-121.77279,"type":"point"},{"name":"Maryland","count":1,"lat":38.97678,"lng":-76.49014,"type":"point"},{"name":"Switzerland","count":2,"lat":46.94843,"lng":7.44046,"type":"country"},{"name":"Hong Kong","count":2,"lat":22.2783,"lng":114.16039,"type":"point"},{"name":"Ningbo","count":1,"lat":29.86569,"lng":121.53916,"type":"point"},{"name":"Singapore","count":1,"lat":1.29041,"lng":103.85211,"type":"country"},{"name":"Hsinchu","count":1,"lat":24.81662,"lng":120.97054,"type":"point"}],"source":"Los Angeles Times"},{"feed_name":"World","feed_url":"https://www.latimes.com/world/rss2.0.xml","title":"Harry Reid made Nevada a presidential battleground. Now he wants more","summary":"<p>The former Senate majority leader wants to shove aside Iowa and New Hampshire and make his state first in the nominating process.</p>","link":"https://www.latimes.com/politics/story/2020-12-22/harry-reid-joe-biden-nevada-presidential-calendar","published":"Tue, 22 Dec 2020 08:00:32 -0500","geolocations":[{"name":"Nevada","count":13,"lat":39.16506,"lng":-119.76697,"type":"point"},{"name":"Iowa","count":9,"lat":41.58981,"lng":-93.61538,"type":"point"},{"name":"New Hampshire","count":10,"lat":43.20725,"lng":-71.5366,"type":"point"},{"name":"Henderson","count":1,"lat":36.03178,"lng":-114.98207,"type":"point"},{"name":"Las Vegas","count":2,"lat":36.17193,"lng":-115.14001,"type":"point"},{"name":"West","count":2,"lat":-14.3239,"lng":-170.76852,"type":"point"},{"name":"California","count":2,"lat":38.57944,"lng":-121.49085,"type":"point"},{"name":"America","count":1,"lat":51.43739,"lng":5.98176,"type":"point"},{"name":"South Carolina","count":1,"lat":33.99882,"lng":-81.04537,"type":"point"}],"source":"Los Angeles Times"},{"feed_name":"World","feed_url":"https://www.theguardian.com/world/rss","title":"Hungry and afraid: life for factory workers meeting UK demand for cheap clothes","summary":"<p>Pakistani workers describe trying to survive on the less than £50 a month many of them earn making items for firms such as Boohoo<br /></p><p>When Qasim Ahmed* arrived in Faisalabad a year ago, he didn’t want much – just enough money to pay for a roof over his head, buy food and send a little cash home each month.</p><p>Today, that seems like a fantasy. Instead of having enough to get by, he claims, he has found himself struggling to survive, frequently going hungry, feeling abused by his boss and fearing he is working in a factory that could go up in flames. “It makes me sad that I can’t help my parents and siblings the way I hoped before coming here,” he says.</p> <a href=\"https://www.theguardian.com/global-development/2020/dec/22/hungry-and-afraid-life-for-factory-workers-meeting-uk-demand-for-cheap-clothes-boohoo-claims\">Continue reading...</a>","link":"https://www.theguardian.com/global-development/2020/dec/22/hungry-and-afraid-life-for-factory-workers-meeting-uk-demand-for-cheap-clothes-boohoo-claims","published":"Tue, 22 Dec 2020 15:00:22 GMT","geolocations":[{"name":"Faisalabad","count":6,"lat":31.40412,"lng":73.09034,"type":"point"},{"name":"Pakistan","count":4,"lat":33.70964,"lng":73.07545,"type":"point"},{"name":"Leicester","count":3,"lat":52.63796,"lng":-1.14042,"type":"point"},{"name":"Punjab","count":1,"lat":30.84324,"lng":75.41748,"type":"point"}],"source":"The Guardian"},{"feed_name":"World","feed_url":"https://www.theguardian.com/world/rss","title":"Alarm at  Colombia plan to exclude migrants from coronavirus vaccine","summary":"<p>President Iván Duque says undocumented Venezuelans will be denied access in a move denounced as unethical and impractical</p><p>Colombia will refuse to administer coronavirus vaccines to <a href=\"https://www.theguardian.com/global-development/2019/nov/01/living-a-daily-tragedy-venezuelans-struggle-to-survive-in-colombia\">hundreds of thousands of Venezuelan refugees within its borders</a>, President Iván Duque has announced, in a move which stunned public health experts and prompted condemnation from humanitarian groups.</p><p>Speaking to a local radio station on Monday, Duque that only Venezuelans with dual nationality or formal migratory status will have access to the vaccine when it is eventually distributed in the country.</p> <a href=\"https://www.theguardian.com/global-development/2020/dec/22/colombia-coronavirus-vaccine-migrants-venezuela-ivan-duque\">Continue reading...</a>","link":"https://www.theguardian.com/global-development/2020/dec/22/colombia-coronavirus-vaccine-migrants-venezuela-ivan-duque","published":"Tue, 22 Dec 2020 10:30:13 GMT","geolocations":[{"name":"Colombia","count":7,"lat":4.61496,"lng":-74.06941,"type":"country"},{"name":"Bogotá","count":2,"lat":4.61496,"lng":-74.06941,"type":"point"}],"source":"The Guardian"},{"feed_name":"World","feed_url":"https://rss.nytimes.com/services/xml/rss/nyt/World.xml","title":"Your Tuesday Briefing","summary":"Britain’s sudden coronavirus Christmas isolation.","link":"https://www.nytimes.com/2020/12/21/briefing/coronavirus-aleksei-navalny-mental-health.html","published":"Tue, 22 Dec 2020 06:44:55 +0000","geolocations":[{"name":"United Kingdom","count":2,"lat":38.95953,"lng":-91.92768,"type":"point"},{"name":"London","count":1,"lat":51.50643,"lng":-0.12719,"type":"point"},{"name":"Europe","count":1,"lat":-33.98201,"lng":18.58413,"type":"point"}],"source":"The New York Times"},{"feed_name":"World","feed_url":"https://rss.nytimes.com/services/xml/rss/nyt/World.xml","title":"Molchat Doma Is Fun on TikTok. In Belarus, It's Serious.","summary":"Molchat Doma, a synth-pop trio, has become an unlikely social media star. Back home, its music was the soundtrack to a traumatic year.","link":"https://www.nytimes.com/2020/12/23/arts/music/molchat-doma-belarus.html","published":"Wed, 23 Dec 2020 15:20:01 +0000","geolocations":[{"name":"Minsk","count":1,"lat":53.89803,"lng":27.56483,"type":"point"},{"name":"Belarus","count":5,"lat":53.90374,"lng":27.56546,"type":"country"},{"name":"Europe","count":1,"lat":-33.98201,"lng":18.58413,"type":"point"}],"source":"The New York Times"},{"feed_name":"World","feed_url":"https://www.aljazeera.com/xml/rss/all.xml","title":"Surviving COVID: The challenges facing India’s small businesses","summary":"COVID dealt a heavy blow to India&#039;s small businesses, but some have used technology and creative thinking to survive.","link":"https://www.aljazeera.com/economy/2020/12/23/surviving-covid-the-challenges-facing-indias-small-businesses","published":"Wed, 23 Dec 2020 10:45:17 +0000","geolocations":[{"name":"India","count":9,"lat":28.63095,"lng":77.21721,"type":"country"},{"name":"Mumbai","count":3,"lat":19.14045,"lng":72.88235,"type":"point"},{"name":"Beirut","count":1,"lat":33.89607,"lng":35.50678,"type":"point"},{"name":"Lebanon","count":1,"lat":33.89607,"lng":35.50678,"type":"country"}],"source":"Aljazeera"},{"feed_name":"World - Europe","feed_url":"http://feeds.bbci.co.uk/news/world/rss.xml","title":"The pioneering lawyer who fought for women’s suffrage in India","summary":"Mithan Lam left an indelible stamp on the struggle for gender equality in India.","link":"https://www.bbc.co.uk/news/world-asia-india-55134978","published":"Wed, 23 Dec 2020 00:16:25 GMT","geolocations":[{"name":"Bombay","count":1,"lat":19.14045,"lng":72.88235,"type":"point"},{"name":"India","count":2,"lat":28.63095,"lng":77.21721,"type":"country"},{"name":"San Francisco'S","count":1,"lat":37.77712,"lng":-122.41964,"type":"point"},{"name":"Us","count":1,"lat":38.89037,"lng":-77.03196,"type":"country"}],"source":"BBC"},{"feed_name":"World","feed_url":"https://rss.nytimes.com/services/xml/rss/nyt/World.xml","title":"France Shooting: 3 Police Officers Killed","summary":"The officers were shot in an isolated hamlet in central France, the authorities said. The gunman was later found dead.","link":"https://www.nytimes.com/2020/12/23/world/europe/france-police-shooting-domestic-abuse.html","published":"Wed, 23 Dec 2020 12:16:26 +0000","geolocations":[{"name":"Paris","count":1,"lat":48.85717,"lng":2.3414,"type":"point"},{"name":"France","count":3,"lat":48.85717,"lng":2.3414,"type":"country"},{"name":"Clermont","count":1,"lat":28.5513,"lng":-81.76642,"type":"point"}],"source":"The New York Times"},{"feed_name":"World","feed_url":"https://www.theguardian.com/world/rss","title":"Australia coronavirus live: NSW reports eight more Covid cases – as it happened","summary":"<p>Sydney to keep 10-visitor rule but from 24-26 December children under 12 not counted; lockdown continues in half of northern beaches, but small Christmas gatherings allowed. This blog is now closed</p><ul><li><a href=\"https://www.theguardian.com/australia-news/2020/dec/21/covid-hotspots-nsw-list-of-sydney-and-regional-coronavirus-case-locations\">NSW Covid hotspots – list of venues and case locations</a></li><li><a href=\"https://www.theguardian.com/australia-news/2020/dec/20/australia-border-restrictions-here-are-the-new-state-and-territory-covid-rules-for-nsw-travellers\">Border restrictions: rules for NSW travellers</a></li><li><a href=\"https://www.theguardian.com/australia-news/2020/nov/09/australia-covid-19-lockdown-rules-coronavirus-restrictions-by-state-how-far-can-travel-interstate-border-social-distancing-nsw-victoria-vic-queensland-qld-wa-sa-act-how-many-people-over-house\">Covid restrictions and lockdown rules – state by state</a></li><li><a href=\"https://www.theguardian.com/society/2020/dec/23/labor-calls-for-australias-covid-vaccine-rollout-to-be-accelerated\">Labor calls for Australia’s vaccine rollout to be accelerated</a></li><li><a href=\"https://www.theguardian.com/world/live/2020/dec/23/coronavirus-live-news-us-cases-increase-14-in-one-week-france-to-reopen-uk-border\">Follow the global liveblog</a></li></ul><p class=\"block-time published-time\"> <time datetime=\"2020-12-23T08:10:19.176Z\">8.10am <span class=\"timezone\">GMT</span></time> </p><p>And with that, we come to the end of today’s live blog. Here’s what went down today:</p><p class=\"block-time published-time\"> <time datetime=\"2020-12-23T07:47:09.934Z\">7.47am <span class=\"timezone\">GMT</span></time> </p><p>Some travellers who have been in Sydney’s hotel quarantine system have told the Guardian they felt secure, but others have said they were “shocked” by some of the processes. </p><p>Some spoke of “environmental complacency” in the system, while others spoke about how “lax” the airport process was.</p><p> <span>Related: </span><a href=\"https://www.theguardian.com/australia-news/2020/dec/23/complacency-in-sydney-hotel-quarantine-system-could-contribute-to-covid-outbreaks-guests\">Complacency in Sydney hotel quarantine system could contribute to Covid outbreaks – guests</a> </p> <a href=\"https://www.theguardian.com/australia-news/live/2020/dec/23/australia-coronavirus-northern-beaches-christmas-covid-hotspots-nsw-victoria\">Continue reading...</a>","link":"https://www.theguardian.com/australia-news/live/2020/dec/23/australia-coronavirus-northern-beaches-christmas-covid-hotspots-nsw-victoria","published":"Wed, 23 Dec 2020 08:27:27 GMT","geolocations":[{"name":"Australia","count":1,"lat":-35.30654,"lng":149.12655,"type":"country"},{"name":"Chester","count":4,"lat":53.18813,"lng":-2.89435,"type":"point"}],"source":"The Guardian"},{"feed_name":"World","feed_url":"https://rss.nytimes.com/services/xml/rss/nyt/World.xml","title":"2021 Travel Guide: Covid Restrictions, Vaccine, Flight Cancellations, Cruises and More","summary":"As 2020 ends, and with vaccination against the coronavirus ramping up, would-be travelers wonder what they can expect in the coming year, and beyond. Here’s what we know.","link":"https://www.nytimes.com/2020/12/22/travel/flight-cancellations-cruise-ships-covid-vaccine.html","published":"Tue, 22 Dec 2020 19:05:43 +0000","geolocations":[{"name":"The Dominican Republic","count":1,"lat":18.47185,"lng":-69.89139,"type":"country"}],"source":"The New York Times"},{"feed_name":"World","feed_url":"https://www.theguardian.com/world/rss","title":"Dan Levy on Schitt's Creek: 'Winning nine Emmys was surreal'","summary":"<p>The writer and star of the dysfunctional-family sitcom on his top shows of 2020 and the touching legacy of his hit series</p><p><strong>Was there a </strong><strong>show that everyone else loved this year that you just couldn’t get on with? <br /></strong><a href=\"https://www.theguardian.com/tv-and-radio/tiger-king\">Tiger King</a>. I couldn’t do it. Something about it felt a little too exploitative for me. I never felt OK when I was watching it. Maybe that’s the main thing. There was a full month when everybody was watching it, when I desperately tried to stay part of the conversation. But I just could not invest. And I don’t know, there is something kind of icky about what was going on there. But this is one man’s opinion in a sea of other people.</p><p><strong>Conversely, were there are any shows you enjoyed over lockdown that you didn’t expect to? <br /></strong>The <a href=\"https://www.theguardian.com/cities/2018/oct/24/real-housewives-of-anywhere-what-does-the-series-say-about-the-cities\">Real Housewives of Atlanta</a>. I feel like the characters on that show are so strong and opinionated and have a sense of humour and self-awareness. It’s an incredible alchemy. It’s a great social group that they’ve put together to film. I was surprised to enjoy it, because I worked in reality television for a long time. I hosted the aftershow for <a href=\"https://www.theguardian.com/tv-and-radio/2016/aug/08/the-hills-10-years-on-reality-tv-hollywood-towie-made-in-chelsea-kardashians\">The Hills</a> before my career started. And I think that when you work in reality TV, it kind of pulls back the curtain in a way that doesn’t necessarily make you want to watch more of it. So this was the first reality show that I had watched for a really long time.</p> <a href=\"https://www.theguardian.com/tv-and-radio/2020/dec/23/dan-levy-on-schitts-creek-winning-nine-emmys-was-surreal\">Continue reading...</a>","link":"https://www.theguardian.com/tv-and-radio/2020/dec/23/dan-levy-on-schitts-creek-winning-nine-emmys-was-surreal","published":"Wed, 23 Dec 2020 11:00:43 GMT","geolocations":[{"name":"Atlanta","count":2,"lat":33.74831,"lng":-84.39111,"type":"point"},{"name":"The Hills","count":1,"lat":30.34907,"lng":-97.97735,"type":"point"},{"name":"Toronto","count":1,"lat":43.64869,"lng":-79.38544,"type":"point"}],"source":"The Guardian"},{"feed_name":"World","feed_url":"https://www.theguardian.com/world/rss","title":"Photos of New Zealand politicians and their bookcases are creepily revealing","summary":"<p>We are what we read; a bookcase is an X-ray of its owner, their ambitions and fears, their IQ and their desires</p><p>A politician anywhere near a book is a rare and incongruous sight. They exist as creatures who act on a range of terrible decisions. It doesn’t do for them to be seen floating around in the nebulous, dreamy world of literature, with its nuances and its conflicting ideas. But all photo opportunities are good photo opportunities when you’re running for office, and I had every confidence that New Zealand’s political leaders would say yes when I approached them this year to pose beside their bookcases.</p><p>It was for the series of photographs I run every Friday to illustrate the weekly best-seller chart at Newsroom, where I serve as books editor. For quite a long time I asked authors and various other literary types to send in photographs of their bookcases. Most of the photos appeared without any response. They were kind of interesting at the same time as being kind of really boring. Eventually I realised it might be a better idea to ask the authors to be in the photographs as well, and I extended the idea to invite political leaders in 2020 as an election year carrot.</p> <a href=\"https://www.theguardian.com/world/commentisfree/2020/dec/23/photos-of-new-zealand-politicians-and-their-bookcases-are-creepily-revealing\">Continue reading...</a>","link":"https://www.theguardian.com/world/commentisfree/2020/dec/23/photos-of-new-zealand-politicians-and-their-bookcases-are-creepily-revealing","published":"Tue, 22 Dec 2020 19:00:23 GMT","geolocations":[{"name":"New Zealand’S","count":1,"lat":-41.28949,"lng":174.77694,"type":"country"},{"name":"New Zealand","count":6,"lat":-41.28949,"lng":174.77694,"type":"country"},{"name":"Tauranga","count":2,"lat":-37.68276,"lng":176.16884,"type":"point"},{"name":"Muller","count":1,"lat":-27.10924,"lng":27.89779,"type":"point"},{"name":"Auckland","count":4,"lat":-36.85232,"lng":174.76388,"type":"point"},{"name":"Pacific","count":1,"lat":38.48359,"lng":-90.74141,"type":"point"},{"name":"Maori","count":1,"lat":31.64786,"lng":76.90999,"type":"point"},{"name":"Kerikeri","count":2,"lat":-35.22731,"lng":173.94902,"type":"point"}],"source":"The Guardian"},{"feed_name":"World","feed_url":"https://www.aljazeera.com/xml/rss/all.xml","title":"Annus horribilis: Key Greek-Turkish developments in 2020","summary":"A timeline of key events that strained relations between Greece and Turkey.","link":"https://www.aljazeera.com/news/2020/12/23/annus-horribilis-key-greek-turkish-developments-in-2020","published":"Wed, 23 Dec 2020 14:44:05 +0000","geolocations":[{"name":"East Med","count":3,"lat":18.3217,"lng":-64.86406,"type":"point"},{"name":"Greece","count":36,"lat":37.97614,"lng":23.7364,"type":"country"},{"name":"Cyprus","count":5,"lat":35.17197,"lng":33.36489,"type":"country"},{"name":"Israel","count":1,"lat":31.78003,"lng":35.21873,"type":"country"},{"name":"Eastern Mediterranean","count":2,"lat":26.40472,"lng":-81.80859,"type":"point"},{"name":"Turkey","count":29,"lat":39.92109,"lng":32.85391,"type":"country"},{"name":"Economic Zone","count":1,"lat":33.22495,"lng":-95.88755,"type":"point"},{"name":"Karpathos","count":1,"lat":35.50739,"lng":27.21554,"type":"point"},{"name":"Europe","count":3,"lat":-33.98201,"lng":18.58413,"type":"point"},{"name":"The Evros River","count":1,"lat":38.48863,"lng":-121.5499,"type":"point"},{"name":"Italy","count":4,"lat":41.90322,"lng":12.49565,"type":"country"},{"name":"The East Mediterranean","count":4,"lat":33.34629,"lng":-111.8169,"type":"point"},{"name":"Egypt","count":4,"lat":30.04427,"lng":31.23525,"type":"country"},{"name":"Libya","count":1,"lat":32.89534,"lng":13.18105,"type":"country"},{"name":"Us","count":4,"lat":38.89037,"lng":-77.03196,"type":"country"},{"name":"France","count":3,"lat":48.85717,"lng":2.3414,"type":"country"},{"name":"West Coast","count":1,"lat":-41.40428,"lng":145.0225,"type":"point"},{"name":"Berlin","count":1,"lat":52.51604,"lng":13.37691,"type":"point"},{"name":"Portugal","count":1,"lat":38.72639,"lng":-9.14948,"type":"country"},{"name":"Spain","count":1,"lat":40.41955,"lng":-3.69196,"type":"country"},{"name":"Malta","count":1,"lat":35.89353,"lng":14.5118,"type":"country"},{"name":"Mitsotakis","count":1,"lat":35.34248,"lng":25.13279,"type":"point"},{"name":"Russia","count":3,"lat":55.75696,"lng":37.61502,"type":"country"},{"name":"The United Arab Emirates","count":2,"lat":24.46918,"lng":54.37173,"type":"country"},{"name":"Abu Dhabi","count":1,"lat":24.46918,"lng":54.37173,"type":"point"},{"name":"Athens","count":1,"lat":37.97614,"lng":23.7364,"type":"point"}],"source":"Aljazeera"},{"feed_name":"World","feed_url":"https://www.aljazeera.com/xml/rss/all.xml","title":"Analysis: A turbulent 2020 spurs Greece to rearm","summary":"As Greece and Turkey wrap their most acrimonious year since 1974, Athens buys 18 French Rafale jets in $3bn deal.","link":"https://www.aljazeera.com/features/2020/12/23/a-turbulent-2020-spurs-greece-to-rearm","published":"Wed, 23 Dec 2020 11:13:48 +0000","geolocations":[{"name":"Greece","count":36,"lat":37.97614,"lng":23.7364,"type":"country"},{"name":"Turkey","count":29,"lat":39.92109,"lng":32.85391,"type":"country"},{"name":"Athens","count":5,"lat":37.97614,"lng":23.7364,"type":"point"},{"name":"France","count":8,"lat":48.85717,"lng":2.3414,"type":"country"},{"name":"Germany","count":3,"lat":52.51604,"lng":13.37691,"type":"country"},{"name":"Cyprus","count":8,"lat":35.17197,"lng":33.36489,"type":"country"},{"name":"Meteor","count":1,"lat":45.69121,"lng":-91.3652,"type":"point"},{"name":"East Med","count":1,"lat":18.3217,"lng":-64.86406,"type":"point"},{"name":"The United Arab Emirates","count":3,"lat":24.46918,"lng":54.37173,"type":"country"},{"name":"Emirates","count":1,"lat":24.46918,"lng":54.37173,"type":"country"},{"name":"Egypt","count":3,"lat":30.04427,"lng":31.23525,"type":"country"},{"name":"Israel","count":4,"lat":31.78003,"lng":35.21873,"type":"country"},{"name":"Belarus","count":1,"lat":53.90374,"lng":27.56546,"type":"country"},{"name":"Ankara","count":2,"lat":39.92109,"lng":32.85391,"type":"point"},{"name":"Varosha","count":1,"lat":43.13275,"lng":24.71831,"type":"point"},{"name":"Mediterranean","count":1,"lat":25.04446,"lng":55.13858,"type":"point"},{"name":"Spain","count":1,"lat":40.41955,"lng":-3.69196,"type":"country"},{"name":"Italy","count":1,"lat":41.90322,"lng":12.49565,"type":"country"},{"name":"Russia","count":4,"lat":55.75696,"lng":37.61502,"type":"country"},{"name":"Crimea","count":1,"lat":45.33314,"lng":34.36801,"type":"point"},{"name":"Europe","count":1,"lat":-33.98201,"lng":18.58413,"type":"point"},{"name":"The East Mediterranean","count":3,"lat":33.34629,"lng":-111.8169,"type":"point"},{"name":"The United States","count":1,"lat":38.89037,"lng":-77.03196,"type":"country"},{"name":"Us","count":5,"lat":38.89037,"lng":-77.03196,"type":"country"},{"name":"America","count":2,"lat":51.43739,"lng":5.98176,"type":"point"},{"name":"Berlin","count":1,"lat":52.51604,"lng":13.37691,"type":"point"},{"name":"Saudi Arabia","count":1,"lat":24.68211,"lng":46.68722,"type":"country"},{"name":"Bahrain","count":1,"lat":26.22952,"lng":50.57604,"type":"country"},{"name":"India","count":1,"lat":28.63095,"lng":77.21721,"type":"country"},{"name":"Pakistan","count":1,"lat":33.70964,"lng":73.07545,"type":"point"},{"name":"Libya","count":1,"lat":32.89534,"lng":13.18105,"type":"country"},{"name":"Syria","count":1,"lat":33.51656,"lng":36.31708,"type":"point"}],"source":"Aljazeera"},{"feed_name":"World - Europe","feed_url":"http://feeds.bbci.co.uk/news/world/rss.xml","title":"Are forest fires unlocking radiation in Chernobyl?","summary":"Ukraine's firefighters expose dangerous conditions tackling fires in Chernobyl's exclusion zone.","link":"https://www.bbc.co.uk/news/world-europe-55404164","published":"Tue, 22 Dec 2020 10:24:52 GMT","geolocations":[{"name":"Chernobyl","count":1,"lat":51.27229,"lng":30.2243,"type":"point"}],"source":"BBC"},{"feed_name":"World","feed_url":"https://www.aljazeera.com/xml/rss/all.xml","title":"Bambari: UN says seized CAR town now under peacekeepers’ control","summary":"The attacks followed government accusations that ex-president Francois Bozize was plotting a coup.","link":"https://www.aljazeera.com/news/2020/12/23/un-says-seized-car-town-under-peacekeepers-control","published":"Wed, 23 Dec 2020 11:38:34 +0000","geolocations":[{"name":"The Central African Republic’S","count":1,"lat":4.39669,"lng":18.5586,"type":"country"},{"name":"Russia","count":1,"lat":55.75696,"lng":37.61502,"type":"country"},{"name":"Rwanda","count":1,"lat":-1.97575,"lng":30.03177,"type":"country"},{"name":"Bangui","count":1,"lat":4.39669,"lng":18.5586,"type":"point"},{"name":"France","count":1,"lat":48.85717,"lng":2.3414,"type":"country"}],"source":"Aljazeera"},