[{"feed_name":"World","feed_url":"https://www.theguardian.com/world/rss","title":"Boris Johnson urges Tory MPs to back Brexit deal as full text published","summary":"<p>PM says he is confident trade deal will withstand ‘ruthless’ scrutiny from Eurosceptics</p><p>The EU and the UK government have published the full text of the Brexit trade deal less than a week before it is due to be implemented, as Boris Johnson urged his backbenchers to support the agreement when it reaches parliament next week.</p><p>The deal, which comes to more than 1,250 pages, will be voted on in the House of Commons on Wednesday, a day before the Brexit transition period ends.</p> <a href=\"https://www.theguardian.com/politics/2020/dec/26/full-brexit-trade-deal-goes-beyond-canada-style-accord\">Continue reading...</a>","link":"https://www.theguardian.com/politics/2020/dec/26/full-brexit-trade-deal-goes-beyond-canada-style-accord","published":"Sat, 26 Dec 2020 10:46:47 GMT","geolocations":[{"name":"Europe","count":1,"lat":-33.98201,"lng":18.58413,"type":"point"},{"name":"Brussels","count":1,"lat":50.84439,"lng":4.35609,"type":"point"},{"name":"Santa","count":1,"lat":35.69177,"lng":-105.93824,"type":"point"},{"name":"Canada","count":2,"lat":45.42178,"lng":-75.69116,"type":"country"},{"name":"Japan","count":1,"lat":35.68408,"lng":139.80885,"type":"country"}],"source":"The Guardian"},{"feed_name":"World","feed_url":"https://rss.nytimes.com/services/xml/rss/nyt/World.xml","title":"Images of Light: Christmas Services Penetrate Darkness Around the World","summary":"Despite the pandemic, Christmas traditions endure, shedding some brightness in a gloomy season.","link":"https://www.nytimes.com/2020/12/25/world/christmas-photos.html","published":"Fri, 25 Dec 2020 21:40:52 +0000","geolocations":[{"name":"London","count":1,"lat":51.50643,"lng":-0.12719,"type":"point"},{"name":"The Westminster Mass","count":1,"lat":33.75931,"lng":-117.98576,"type":"point"},{"name":"Paris","count":1,"lat":48.85717,"lng":2.3414,"type":"point"}],"source":"The New York Times"},{"feed_name":"World","feed_url":"https://www.theguardian.com/world/rss","title":"The best songs of 2020 ... that you didn't hear","summary":"<p>In an unusual year that’s kept us most of us away from live music venues, Guardian writers pick the songs that deserve to have made more impact</p> <a href=\"https://www.theguardian.com/music/2020/dec/26/best-songs-of-2020-that-you-didnt-hear\">Continue reading...</a>","link":"https://www.theguardian.com/music/2020/dec/26/best-songs-of-2020-that-you-didnt-hear","published":"Sat, 26 Dec 2020 07:16:09 GMT","geolocations":[{"name":"La","count":1,"lat":17.9518,"lng":102.61892,"type":"country"},{"name":"Ukg","count":1,"lat":50.45056,"lng":30.52428,"type":"country"},{"name":"Parx","count":1,"lat":23.59885,"lng":86.47098,"type":"point"},{"name":"Us","count":1,"lat":38.89037,"lng":-77.03196,"type":"country"},{"name":"Montreal","count":1,"lat":45.5124,"lng":-73.55469,"type":"point"},{"name":"Kraut-Rock","count":1,"lat":42.6281,"lng":-89.09022,"type":"point"},{"name":"Los Angeles","count":1,"lat":34.05357,"lng":-118.24545,"type":"point"},{"name":"Baja","count":1,"lat":46.1772,"lng":18.95194,"type":"point"},{"name":"California","count":1,"lat":38.57944,"lng":-121.49085,"type":"point"},{"name":"Ecuador","count":1,"lat":-0.20565,"lng":-78.50888,"type":"country"},{"name":"Nairobi","count":1,"lat":-1.28352,"lng":36.82379,"type":"point"},{"name":"Kenya","count":1,"lat":-1.28352,"lng":36.82379,"type":"country"}],"source":"The Guardian"},{"feed_name":"World","feed_url":"https://rss.nytimes.com/services/xml/rss/nyt/World.xml","title":"Snail, Fish and Sheep Soup, Anyone? Savory New Finds at Pompeii","summary":"The ancient site is the archaeological gift that keeps on giving. A food shop excavated this month suggests that its ancient residents had singular culinary tastes.","link":"https://www.nytimes.com/2020/12/26/world/europe/pompeii-snack-bar-thermopolium.html","published":"Sat, 26 Dec 2020 18:36:57 +0000","geolocations":[{"name":"Rome","count":1,"lat":41.90322,"lng":12.49565,"type":"point"},{"name":"Pompeii","count":4,"lat":-23.82859,"lng":31.06975,"type":"point"},{"name":"Roman City","count":2,"lat":40.71392,"lng":-73.84605,"type":"point"},{"name":"A.D. 79","count":1,"lat":25.21849,"lng":55.31453,"type":"point"},{"name":"Mount Vesuvius","count":1,"lat":42.6473,"lng":-82.95566,"type":"point"},{"name":"Lapilli","count":1,"lat":-36.88862,"lng":174.83425,"type":"point"}],"source":"The New York Times"},{"feed_name":"World","feed_url":"https://rss.nytimes.com/services/xml/rss/nyt/World.xml","title":"In a lonely time, a teacher in Brazil creates a ‘hugging kit’ for her students.","summary":"","link":"https://www.nytimes.com/2020/12/24/world/in-a-lonely-time-a-teacher-in-brazil-creates-a-hugging-kit-for-her-students.html","published":"Thu, 24 Dec 2020 20:07:14 +0000","geolocations":[{"name":"Brazil","count":1,"lat":-15.77829,"lng":-47.92909,"type":"country"},{"name":"Padre Miguel","count":1,"lat":-22.87995,"lng":-43.44949,"type":"point"},{"name":"Rio De Janeiro","count":1,"lat":-22.91216,"lng":-43.17501,"type":"point"}],"source":"The New York Times"},{"feed_name":"World","feed_url":"https://www.aljazeera.com/xml/rss/all.xml","title":"Three UN peacekeepers killed in CAR ahead of Sunday’s elections","summary":"Killings come as violence escalates a day before CAR voters head to polls to choose a president and a new parliament.","link":"https://www.aljazeera.com/news/2020/12/26/three-peacekeepers-killed-in-car-as-rebel-group-calls-off-truce","published":"Sat, 26 Dec 2020 05:04:38 +0000","geolocations":[{"name":"The Central African Republic","count":2,"lat":4.39669,"lng":18.5586,"type":"country"},{"name":"Dekoa","count":1,"lat":6.27623,"lng":19.09906,"type":"point"},{"name":"Bakouma","count":2,"lat":5.69794,"lng":22.78434,"type":"point"},{"name":"Mbomou","count":1,"lat":5.50356,"lng":23.38374,"type":"point"},{"name":"Burundi","count":1,"lat":-3.36007,"lng":29.36934,"type":"country"},{"name":"Russia","count":2,"lat":55.75696,"lng":37.61502,"type":"country"},{"name":"Rwanda","count":2,"lat":-1.97575,"lng":30.03177,"type":"country"},{"name":"South Sudan","count":1,"lat":4.83975,"lng":31.59758,"type":"country"},{"name":"Bangui","count":2,"lat":4.39669,"lng":18.5586,"type":"point"},{"name":"London","count":1,"lat":51.50643,"lng":-0.12719,"type":"point"},{"name":"The United Kingdom","count":1,"lat":38.95953,"lng":-91.92768,"type":"point"}],"source":"Aljazeera"},{"feed_name":"World","feed_url":"https://www.aljazeera.com/xml/rss/all.xml","title":"Libya’s warring sides begin prisoner exchange","summary":"First UN-brokered prisoner exchange comes as part of ceasefire deal inked two months ago in Geneva.","link":"https://www.aljazeera.com/news/2020/12/26/libyas-warring-sides-begin-prisoner-exchange-as-part-of-deal","published":"Sat, 26 Dec 2020 11:41:20 +0000","geolocations":[{"name":"Geneva","count":2,"lat":46.20833,"lng":6.14275,"type":"point"},{"name":"Libya","count":5,"lat":32.89534,"lng":13.18105,"type":"country"},{"name":"Al-Shwayrif","count":1,"lat":29.99753,"lng":14.27143,"type":"point"},{"name":"Tripoli","count":4,"lat":32.89534,"lng":13.18105,"type":"point"},{"name":"Sirte","count":1,"lat":52.63796,"lng":-1.14042,"type":"point"},{"name":"Turkey","count":1,"lat":39.92109,"lng":32.85391,"type":"country"},{"name":"The United Arab Emirates","count":1,"lat":24.46918,"lng":54.37173,"type":"country"}],"source":"Aljazeera"},{"feed_name":"World","feed_url":"https://www.theguardian.com/world/rss","title":"17 ways with leftover turkey, from warming ramen to rich risotto","summary":"<p>With Christmas gatherings reduced in size this year, you may have more poultry than usual to eat up. But there are myriad ways to make that more interesting that in sounds</p><p>On top of all the problems we have faced in 2020, we could be experiencing a larger-than-ever glut of turkey this season: restrictions on large gatherings, combined with <a href=\"https://www.bbc.co.uk/news/av/uk-wales-55096256\">high demand for – and a corresponding shortage of – smaller birds</a>, may have left a lot of us with more meat than we can eat in one, two or even three sittings.</p><p>Fortunately, help is at hand: here are 17 easy, delicious and slightly different ways to use up your Christmas turkey.</p> <a href=\"https://www.theguardian.com/lifeandstyle/2020/dec/26/17-ways-with-leftover-turkey-from-warming-ramen-to-rich-risotto\">Continue reading...</a>","link":"https://www.theguardian.com/lifeandstyle/2020/dec/26/17-ways-with-leftover-turkey-from-warming-ramen-to-rich-risotto","published":"Sat, 26 Dec 2020 09:00:13 GMT","geolocations":[{"name":"Turkey","count":14,"lat":39.92109,"lng":32.85391,"type":"country"},{"name":"Brussels","count":1,"lat":50.84439,"lng":4.35609,"type":"point"},{"name":"Poulterer","count":1,"lat":53.46675,"lng":-2.95255,"type":"point"},{"name":"Singapore","count":1,"lat":1.29041,"lng":103.85211,"type":"country"}],"source":"The Guardian"},{"feed_name":"World","feed_url":"https://www.aljazeera.com/xml/rss/all.xml","title":"‘Lingering crisis’: What people in CAR think about Sunday’s polls","summary":"Opposition requests to delay elections denied by the court amid escalating threat of violence.","link":"https://www.aljazeera.com/news/2020/12/26/crisis-car-election-violence","published":"Sat, 26 Dec 2020 11:28:49 +0000","geolocations":[{"name":"The Central African Republic","count":1,"lat":4.39669,"lng":18.5586,"type":"country"},{"name":"France","count":2,"lat":48.85717,"lng":2.3414,"type":"country"},{"name":"Russia","count":1,"lat":55.75696,"lng":37.61502,"type":"country"},{"name":"Rwanda","count":1,"lat":-1.97575,"lng":30.03177,"type":"country"},{"name":"Bangui","count":1,"lat":4.39669,"lng":18.5586,"type":"point"}],"source":"Aljazeera"},{"feed_name":"World","feed_url":"https://rss.nytimes.com/services/xml/rss/nyt/World.xml","title":"‘Box’ or Gem? A Scramble to Save Asia’s Modernist Buildings","summary":"Groups across the region are rallying to save buildings that officials consider too new, too ugly or too unimportant to protect from demolition.","link":"https://www.nytimes.com/2020/12/25/world/asia/modernist-buildings.html","published":"Fri, 25 Dec 2020 18:10:04 +0000","geolocations":[{"name":"Hong Kong’S","count":1,"lat":22.2783,"lng":114.16039,"type":"point"},{"name":"Hong Kong","count":1,"lat":22.2783,"lng":114.16039,"type":"point"}],"source":"The New York Times"},{"feed_name":"World","feed_url":"https://www.latimes.com/world/rss2.0.xml","title":"Trump gives Congress chaos for Christmas, with aid to millions up in the air","summary":"<p>With a veto of a massive defense bill and threatening the spending bill that includes COVID relief, Trump leaves for Mar-a-Lago, chaos in his wake.</p>","link":"https://www.latimes.com/politics/story/2020-12-23/trump-gives-congress-chaos-for-christmas-with-aid-to-millions-up-in-the-air","published":"Wed, 23 Dec 2020 18:45:35 -0500","geolocations":[{"name":"Washington","count":3,"lat":38.89037,"lng":-77.03196,"type":"point"},{"name":"Okla","count":1,"lat":51.99817,"lng":-103.22328,"type":"point"},{"name":"Missouri","count":1,"lat":38.57751,"lng":-92.17784,"type":"point"},{"name":"Vermont","count":1,"lat":44.26029,"lng":-72.57626,"type":"point"},{"name":"Ky","count":1,"lat":19.29657,"lng":-81.38175,"type":"country"},{"name":"Kentucky","count":1,"lat":38.19507,"lng":-84.87869,"type":"point"},{"name":"Egypt","count":1,"lat":30.04427,"lng":31.23525,"type":"country"},{"name":"Bakersfield","count":1,"lat":35.36723,"lng":-119.01886,"type":"point"}],"source":"Los Angeles Times"},{"feed_name":"World","feed_url":"https://www.theguardian.com/world/rss","title":"From plans to panic: how the UK's week of Covid chaos unfolded – video timeline","summary":"<p>The week before Christmas quickly turned chaotic as the health secretary, Matt Hancock, announced a new, more contagious strain of coronavirus had been found in south-east England. The news resulted in a last-minute government U-turn over Christmas mixing rules, the implementation of a new, stricter coronavirus tier, and dozens of countries suspending travel from the UK days before the end of the Brexit transition period, prompting 'Plague Island' to trend on Twitter. Here is a look back at the week of chaos</p><ul><li><a href=\"https://www.theguardian.com/world/2020/dec/22/worlds-media-ask-how-it-went-so-wrong-for-plague-island-britain-covid\">World's media ask how it went so wrong for 'Plague Island' Britain</a><br /></li></ul> <a href=\"https://www.theguardian.com/world/video/2020/dec/23/from-plans-to-panic-how-uk-week-of-covid-chaos-unfolded-video-timeline\">Continue reading...</a>","link":"https://www.theguardian.com/world/video/2020/dec/23/from-plans-to-panic-how-uk-week-of-covid-chaos-unfolded-video-timeline","published":"Wed, 23 Dec 2020 16:16:25 GMT","geolocations":[{"name":"England","count":1,"lat":51.50643,"lng":-0.12719,"type":"country"}],"source":"The Guardian"},{"feed_name":"World","feed_url":"https://www.latimes.com/world/rss2.0.xml","title":"Stimulus checks, marijuana and Trump's loss all come back to: How will it play in Georgia?","summary":"<p>Republicans and Democrats in Washington keep Georgia's two Senate runoffs front of mind when considering the stimulus, Trump and everything else.</p>","link":"https://www.latimes.com/politics/story/2020-12-22/stimulus-checks-marijuana-and-trumps-loss-all-comes-back-to-how-will-it-play-in-georgia","published":"Tue, 22 Dec 2020 19:16:35 -0500","geolocations":[{"name":"Ky","count":1,"lat":19.29657,"lng":-81.38175,"type":"country"},{"name":"Washington","count":4,"lat":38.89037,"lng":-77.03196,"type":"point"},{"name":"D.C.","count":1,"lat":4.61496,"lng":-74.06941,"type":"point"}],"source":"Los Angeles Times"},{"feed_name":"World","feed_url":"https://www.latimes.com/world/rss2.0.xml","title":"A new strain of coronavirus and looming Brexit chaos make the Yuletide gray in Britain","summary":"<p>In beleaguered Britain, Brexit is coming, Christmas is pretty much canceled and a new strain of the coronavirus brings near-pariah status. What next?</p>","link":"https://www.latimes.com/world-nation/story/2020-12-21/britain-christmas-brexit-new-strain-coronavirus-pariah","published":"Mon, 21 Dec 2020 15:40:51 -0500","geolocations":[{"name":"United Kingdom","count":13,"lat":38.95953,"lng":-91.92768,"type":"point"},{"name":"England","count":3,"lat":51.50643,"lng":-0.12719,"type":"country"},{"name":"London","count":2,"lat":51.50643,"lng":-0.12719,"type":"point"},{"name":"France","count":1,"lat":48.85717,"lng":2.3414,"type":"country"},{"name":"Europe","count":2,"lat":-33.98201,"lng":18.58413,"type":"point"},{"name":"Italy","count":1,"lat":41.90322,"lng":12.49565,"type":"country"},{"name":"The United Kingdom’S","count":1,"lat":38.95953,"lng":-91.92768,"type":"point"},{"name":"U.K.","count":1,"lat":29.93186,"lng":77.81922,"type":"point"}],"source":"Los Angeles Times"},{"feed_name":"World - Europe","feed_url":"http://feeds.bbci.co.uk/news/world/rss.xml","title":"Pompeii: Ancient 'fast food' counter to open to the public","summary":"Newly unveiled bright frescos are believed to show the food that was available in the Roman city.","link":"https://www.bbc.co.uk/news/world-europe-55454717","published":"Sat, 26 Dec 2020 16:28:05 GMT","geolocations":[{"name":"Pompeii","count":1,"lat":-23.82859,"lng":31.06975,"type":"point"}],"source":"BBC"},{"feed_name":"World","feed_url":"https://rss.nytimes.com/services/xml/rss/nyt/World.xml","title":"Israeli Election, Take Four: Conservatives vs. Conservatives","summary":"After the center-left failed in three elections to oust Prime Minister Benjamin Netanyahu, the fourth one is shaping up into a contest among right-wing leaders.","link":"https://www.nytimes.com/2020/12/23/world/middleeast/23israel-netanyahu-election.html","published":"Thu, 24 Dec 2020 10:09:59 +0000","geolocations":[{"name":"Israel","count":4,"lat":31.78003,"lng":35.21873,"type":"country"}],"source":"The New York Times"},{"feed_name":"World","feed_url":"https://www.latimes.com/world/rss2.0.xml","title":"Haves vs. have-nots: Who 'deserves' to be next in line for the COVID-19 vaccine?","summary":"<p>Americans waiting their turn for a COVID-19 vaccine may not be pleased to see who's in line ahead of them. Does a prisoner or smoker deserve it more?</p>","link":"https://www.latimes.com/science/story/2020-12-19/who-deserves-to-get-covid-19-vaccine-next","published":"Sat, 19 Dec 2020 15:05:56 -0500","geolocations":[{"name":"U.S.","count":3,"lat":38.89037,"lng":-77.03196,"type":"country"},{"name":"The United States","count":1,"lat":38.89037,"lng":-77.03196,"type":"country"},{"name":"California","count":1,"lat":38.57944,"lng":-121.49085,"type":"point"},{"name":"North Carolina","count":1,"lat":35.78547,"lng":-78.6427,"type":"point"},{"name":"Maryland","count":1,"lat":38.97678,"lng":-76.49014,"type":"point"},{"name":"Delaware","count":1,"lat":39.15803,"lng":-75.52473,"type":"point"},{"name":"Utah","count":1,"lat":40.76031,"lng":-111.88822,"type":"point"},{"name":"New Mexico","count":1,"lat":35.69177,"lng":-105.93824,"type":"point"},{"name":"Nebraska","count":1,"lat":40.81362,"lng":-96.7073,"type":"point"},{"name":"Montana","count":1,"lat":46.58976,"lng":-112.02065,"type":"point"},{"name":"Massachusetts","count":1,"lat":42.35866,"lng":-71.05674,"type":"point"},{"name":"Colorado","count":1,"lat":39.74001,"lng":-104.99202,"type":"point"},{"name":"Polis","count":1,"lat":35.03688,"lng":32.40714,"type":"point"}],"source":"Los Angeles Times"},{"feed_name":"World","feed_url":"https://rss.nytimes.com/services/xml/rss/nyt/World.xml","title":"With Pandemic Raging, London Homeless Shelter in Hotels for Awhile","summary":"Many homeless people in London will stay in hotels over the Christmas and New Year holidays, if not longer, through funding from charities and the government.","link":"https://www.nytimes.com/2020/12/25/world/europe/homeless-coronavirus-christmas.html","published":"Fri, 25 Dec 2020 21:06:25 +0000","geolocations":[{"name":"U.K.","count":1,"lat":29.93186,"lng":77.81922,"type":"point"}],"source":"The New York Times"},{"feed_name":"World","feed_url":"https://www.theguardian.com/world/rss","title":"Discovery of 'cryptic species' shows Earth is even more biologically diverse","summary":"<p>Excitement as DNA barcoding technique leads to unmasking of new species tempered with fear that some are already at risk of extinction</p><ul><li><a href=\"https://www.theguardian.com/environment/2020/oct/07/counting-the-species-how-dna-barcoding-is-rewriting-the-book-of-life-aoe\">Counting the species: how DNA barcoding is rewriting the book of life</a></li><li><a href=\"https://www.theguardian.com/environment/series/biodiversity--what-happened-next-\">Read more in our series Biodiversity: what happened next?</a></li></ul><p>A growing number of “cryptic species” hiding in plain sight have been unmasked in the past year, driven in part by the rise of <a href=\"https://www.theguardian.com/environment/2020/oct/07/counting-the-species-how-dna-barcoding-is-rewriting-the-book-of-life-aoe\">DNA barcoding</a>, a technique that can identify and differentiate between animal and plant species using their genetic divergence.</p><p>The discovery of new species of <a href=\"https://www.sciencedirect.com/science/article/pii/S2287884X20300303\">aloe</a>, <a href=\"https://www.sciencedaily.com/releases/2020/04/200422091212.htm\">African leaf-nosed bats</a> and <a href=\"http://www.markscherz.com/wp-content/uploads/Pro%CC%88tzel-et-al.-2020-Untangling-the-trees-Revision-of-the-Calumma-nasutum-complex-Squamata-Chamaeleonidae-1.pdf\">chameleons</a> that appear similar to the human eye but are in fact many and separate have thrilled and worried conservationists. Scientists say our planet might be more biologically diverse than previously thought, and estimates for the total number of species could be far higher than the current best guess of <a href=\"https://science.sciencemag.org/content/333/6046/1083\">8.7 million</a>. But cryptic discoveries often mean that species once considered common and widespread are actually several, some of which may be endangered and require immediate protection.</p> <a href=\"https://www.theguardian.com/environment/2020/dec/25/discovery-of-cryptic-species-shows-earth-is-even-more-biologically-diverse-aoe\">Continue reading...</a>","link":"https://www.theguardian.com/environment/2020/dec/25/discovery-of-cryptic-species-shows-earth-is-even-more-biologically-diverse-aoe","published":"Fri, 25 Dec 2020 11:30:45 GMT","geolocations":[{"name":"Myanmar","count":1,"lat":21.11892,"lng":96.51169,"type":"country"},{"name":"Marina Blanco","count":1,"lat":36.67687,"lng":-121.74811,"type":"point"},{"name":"Guanacaste","count":1,"lat":10.44615,"lng":-85.39157,"type":"point"},{"name":"Costa Rica","count":1,"lat":9.92975,"lng":-84.08569,"type":"country"},{"name":"Earth","count":2,"lat":38.76564,"lng":-90.46003,"type":"point"},{"name":"Texas","count":1,"lat":30.26759,"lng":-97.74299,"type":"point"},{"name":"Argentina","count":1,"lat":-34.60849,"lng":-58.37344,"type":"country"},{"name":"Latin America","count":2,"lat":41.62788,"lng":13.34278,"type":"point"},{"name":"Montreal","count":1,"lat":45.5124,"lng":-73.55469,"type":"point"},{"name":"Quebec","count":1,"lat":46.81273,"lng":-71.2193,"type":"point"},{"name":"Canada","count":1,"lat":45.42178,"lng":-75.69116,"type":"country"}],"source":"The Guardian"},{"feed_name":"World","feed_url":"https://www.latimes.com/world/rss2.0.xml","title":"An Australian student denounced his university's ties to China. Then he became a target","summary":"<p>Drew Pavlou's battle against the University of Queensland illustrates China's influence over a key U.S. ally.</p>","link":"https://www.latimes.com/world-nation/story/2020-12-21/student-australia-china-xi-jinping-uighurs-muslims","published":"Mon, 21 Dec 2020 04:30:18 -0500","geolocations":[{"name":"Hong Kong","count":9,"lat":22.2783,"lng":114.16039,"type":"point"},{"name":"Brisbane","count":6,"lat":-27.46844,"lng":153.02334,"type":"point"},{"name":"Australia","count":15,"lat":-35.30654,"lng":149.12655,"type":"country"},{"name":"China","count":23,"lat":39.90657,"lng":116.38765,"type":"country"},{"name":"Beijing","count":14,"lat":39.90657,"lng":116.38765,"type":"point"},{"name":"U.S.","count":3,"lat":38.89037,"lng":-77.03196,"type":"country"},{"name":"Canberra","count":3,"lat":-35.30654,"lng":149.12655,"type":"point"},{"name":"Taiwan","count":2,"lat":25.03737,"lng":121.56355,"type":"country"},{"name":"Shanghai","count":1,"lat":39.45274,"lng":-78.15318,"type":"point"},{"name":"Queensland","count":1,"lat":-22.5681,"lng":144.54768,"type":"point"},{"name":"Sydney","count":1,"lat":-33.8696,"lng":151.20691,"type":"point"},{"name":"The South China Sea","count":1,"lat":26.07722,"lng":-97.16543,"type":"point"},{"name":"Xinjiang","count":1,"lat":35.61469,"lng":111.21768,"type":"point"},{"name":"East Turkestan","count":1,"lat":43.31648,"lng":68.2409,"type":"point"},{"name":"Melbourne","count":1,"lat":-37.81739,"lng":144.96751,"type":"point"},{"name":"Singapore","count":1,"lat":1.29041,"lng":103.85211,"type":"country"}],"source":"Los Angeles Times"},{"feed_name":"World","feed_url":"https://www.theguardian.com/world/rss","title":"Birds of a feather","summary":"<p>Exotic wildlife and an evolving cast of furniture bring this Georgian home to life</p><p>This is the house that keeps on giving,” says rug designer Wendy Morrison, who lives in Dunbar, East Lothian, with her family – and lurcher Eddie, as well as some pet chickens and a cockerel, Napoleon – in a Georgian farmhouse. “It has beautiful bones and was built with a lot of thought and love, as Georgian houses tend to be.”</p><p>Wendy and her husband Gregor, and sons Woody, 15, and Harvey, 12, initially rented the house from friends after moving back to Scotland from France. “When I first came here it was a really sunny day and, as I walked down the hall, I remember thinking, this feels like home,” she recalls.</p> <a href=\"https://www.theguardian.com/lifeandstyle/2020/dec/26/birds-of-a-feather-chinoiserie-in-a-home-in-east-lothian\">Continue reading...</a>","link":"https://www.theguardian.com/lifeandstyle/2020/dec/26/birds-of-a-feather-chinoiserie-in-a-home-in-east-lothian","published":"Sat, 26 Dec 2020 16:00:20 GMT","geolocations":[{"name":"Dunbar","count":1,"lat":56.00191,"lng":-2.51581,"type":"point"},{"name":"East Lothian","count":1,"lat":55.94044,"lng":-2.69428,"type":"point"},{"name":"Scotland","count":1,"lat":55.95438,"lng":-3.20144,"type":"country"},{"name":"France","count":1,"lat":48.85717,"lng":2.3414,"type":"country"},{"name":"Edinburgh","count":1,"lat":55.95438,"lng":-3.20144,"type":"point"}],"source":"The Guardian"},{"feed_name":"World","feed_url":"https://www.latimes.com/world/rss2.0.xml","title":"Despite his boasts, Trump again is no deal-maker as Congress seeks pandemic relief bill","summary":"<p>Donald Trump was elected partly on his fame for \"The Art of the Deal,\" yet he's cut no big deals in office. The relief package is the latest, perhaps final, example.</p>","link":"https://www.latimes.com/politics/story/2020-12-20/despite-his-boasts-trump-again-is-no-deal-maker-as-congress-seeks-crisis-relief-bill","published":"Sun, 20 Dec 2020 06:00:32 -0500","geolocations":[{"name":"Rose Garden","count":1,"lat":37.33473,"lng":-121.92853,"type":"point"},{"name":"Ky","count":1,"lat":19.29657,"lng":-81.38175,"type":"country"}],"source":"Los Angeles Times"},{"feed_name":"World - Europe","feed_url":"http://feeds.bbci.co.uk/news/world/rss.xml","title":"UN peacekeepers killed in Central African Republic on eve of election","summary":"The UN said three peacekeepers died in two separate attacks, as rebel and government forces clash.","link":"https://www.bbc.co.uk/news/world-africa-55451763","published":"Sat, 26 Dec 2020 08:46:40 GMT","geolocations":[{"name":"Africa","count":1,"lat":43.10832,"lng":12.77534,"type":"point"}],"source":"BBC"},{"feed_name":"World","feed_url":"https://rss.nytimes.com/services/xml/rss/nyt/World.xml","title":"Coronavirus Briefing: What Happened Today","summary":"In a disrupted holiday season, even Bethlehem is quieter than usual.","link":"https://www.nytimes.com/2020/12/24/us/coronavirus-today.html","published":"Thu, 24 Dec 2020 23:22:29 +0000","geolocations":[{"name":"Norad","count":1,"lat":34.43734,"lng":35.84711,"type":"point"},{"name":"Rome","count":1,"lat":41.90322,"lng":12.49565,"type":"point"},{"name":"Italy","count":1,"lat":41.90322,"lng":12.49565,"type":"country"},{"name":"U.S.","count":1,"lat":38.89037,"lng":-77.03196,"type":"country"}],"source":"The New York Times"},{"feed_name":"World","feed_url":"https://www.theguardian.com/world/rss","title":"Lorry drivers clash with police as tensions boil over in Dover – video","summary":"<p>Frustrated drivers scuffled with police at the entrance to the port of Dover on Wednesday morning, amid anger at the continued partial closure of the French border. Paris and London agreed late on Tuesday that drivers who tested negative for Covid could board ferries for Calais from Wednesday, but there was anger among hauliers stuck in huge queues in Kent at the speed of the rollout of testing facilities</p><ul><li><a href=\"https://www.theguardian.com/world/2020/dec/23/lorry-drivers-clash-police-tensions-rise-over-queues-kent\">Lorry drivers clash with police as tensions rise over queues in Kent</a></li><li><a href=\"https://www.theguardian.com/world/live/2020/dec/23/coronavirus-live-news-us-cases-increase-14-in-one-week-france-to-reopen-uk-border\">Coronavirus live news</a></li></ul> <a href=\"https://www.theguardian.com/world/video/2020/dec/23/lorry-drivers-clash-with-police-as-tensions-boil-over-in-dover-video\">Continue reading...</a>","link":"https://www.theguardian.com/world/video/2020/dec/23/lorry-drivers-clash-with-police-as-tensions-boil-over-in-dover-video","published":"Wed, 23 Dec 2020 13:39:08 GMT","geolocations":[{"name":"Dover","count":1,"lat":39.15803,"lng":-75.52473,"type":"point"},{"name":"Paris","count":1,"lat":48.85717,"lng":2.3414,"type":"point"},{"name":"London","count":1,"lat":51.50643,"lng":-0.12719,"type":"point"},{"name":"Kent","count":1,"lat":47.3807,"lng":-122.23741,"type":"point"}],"source":"The Guardian"},{"feed_name":"World","feed_url":"https://rss.nytimes.com/services/xml/rss/nyt/World.xml","title":"Additional modeling shows the British variant’s high transmissibility.","summary":"","link":"https://www.nytimes.com/2020/12/24/world/additional-modeling-shows-the-british-variants-high-transmissibility.html","published":"Thu, 24 Dec 2020 17:14:58 +0000","geolocations":[{"name":"United Kingdom","count":1,"lat":38.95953,"lng":-91.92768,"type":"point"},{"name":"The United States","count":1,"lat":38.89037,"lng":-77.03196,"type":"country"}],"source":"The New York Times"},{"feed_name":"World - Europe","feed_url":"http://feeds.bbci.co.uk/news/world/rss.xml","title":"Octopuses filmed punching fish in the Red Sea","summary":"Scientists have filmed octopuses in the Red Sea lashing out at fish during a group hunt.","link":"https://www.bbc.co.uk/news/science-environment-55426583","published":"Wed, 23 Dec 2020 12:59:40 GMT","geolocations":[{"name":"The Red Sea","count":1,"lat":25.30473,"lng":55.41072,"type":"point"}],"source":"BBC"},{"feed_name":"World","feed_url":"https://www.theguardian.com/world/rss","title":"The secret of Jacinda Ardern’s success lies in her conservatism | Bryce Edwards","summary":"<p>The New Zealand prime minister’s appeal comes from adding compassion, something her rivals have been unable to emulate </p><p>The biggest misconception about Jacinda Ardern is that she is a pioneering progressive or socialist. This is especially so outside New Zealand.</p><p>Understandably the global media paint the prime minister as a counter to other, more rightwing or illiberal, leaders. Similarly many overseas progressive activists and intellectuals have seized on her as someone they can learn from in their search for a way forward for the political left.</p> <a href=\"https://www.theguardian.com/world/2020/dec/25/the-secret-of-jacinda-arderns-success-lies-in-her-conservatism\">Continue reading...</a>","link":"https://www.theguardian.com/world/2020/dec/25/the-secret-of-jacinda-arderns-success-lies-in-her-conservatism","published":"Thu, 24 Dec 2020 19:00:25 GMT","geolocations":[{"name":"New Zealand","count":4,"lat":-41.28949,"lng":174.77694,"type":"country"},{"name":"White Island","count":1,"lat":51.52105,"lng":0.55613,"type":"point"}],"source":"The Guardian"},{"feed_name":"World","feed_url":"https://www.latimes.com/world/rss2.0.xml","title":"Can COVID-19 vaccines get us to herd immunity? 'The jury is definitely still out'","summary":"<p>The question of how many people must be vaccinated to reach herd immunity against COVID-19 is of crucial importance. Experts say the number is probably higher than previously thought.</p>","link":"https://www.latimes.com/world-nation/story/2020-12-26/covid-19-vaccines-herd-immunity-challenges","published":"Sat, 26 Dec 2020 06:00:23 -0500","geolocations":[{"name":"U.S.","count":2,"lat":38.89037,"lng":-77.03196,"type":"country"},{"name":"Earth","count":1,"lat":38.76564,"lng":-90.46003,"type":"point"}],"source":"Los Angeles Times"},{"feed_name":"World","feed_url":"https://www.theguardian.com/world/rss","title":"Thousands apply to be a Finn for 90 days in migration scheme","summary":"<p>Americans, Canadians and Britons among those lured by campaign to attract foreign tech workers</p><p>Finland has received more than 5,300 applications in a month for a groundbreaking scheme offering foreign tech workers and their families the chance to relocate to the Nordic country for 90 days to see if they want to make the move permanent.</p><p>“We’re not top of many relocation lists, but we know once people do come, they tend to stay,” said Johanna Huurre, of Helsinki Business Hub which devised the campaign. “There’s huge competition globally for talent, so we had to think creatively.”</p> <a href=\"https://www.theguardian.com/world/2020/dec/25/thousands-apply-to-be-a-finn-for-90-days-in-migration-scheme\">Continue reading...</a>","link":"https://www.theguardian.com/world/2020/dec/25/thousands-apply-to-be-a-finn-for-90-days-in-migration-scheme","published":"Fri, 25 Dec 2020 14:00:48 GMT","geolocations":[{"name":"Finland","count":4,"lat":60.17116,"lng":24.93265,"type":"country"},{"name":"Us","count":2,"lat":38.89037,"lng":-77.03196,"type":"country"},{"name":"Canada","count":1,"lat":45.42178,"lng":-75.69116,"type":"country"},{"name":"Pacific","count":1,"lat":38.48359,"lng":-90.74141,"type":"point"},{"name":"Vanuatu","count":1,"lat":-17.73312,"lng":168.32084,"type":"country"}],"source":"The Guardian"},{"feed_name":"World","feed_url":"https://www.aljazeera.com/xml/rss/all.xml","title":"Regression, hope and change: The Middle East in 2020","summary":"While some developments have shined hope on ostensibly unsolvable conflicts, other dynamics have exacerbated issues.","link":"https://www.aljazeera.com/features/2020/12/26/regression-hope-and-change-the-middle-east-in-2020","published":"Sat, 26 Dec 2020 17:17:03 +0000","geolocations":[{"name":"The Middle East","count":1,"lat":39.29996,"lng":-76.58967,"type":"point"},{"name":"Reflections","count":1,"lat":26.58552,"lng":-80.08698,"type":"point"},{"name":"Iraq","count":1,"lat":33.3421,"lng":44.39307,"type":"country"},{"name":"Iran","count":4,"lat":35.68877,"lng":51.41503,"type":"country"},{"name":"Syria","count":3,"lat":33.51656,"lng":36.31708,"type":"point"},{"name":"Turkey","count":4,"lat":39.92109,"lng":32.85391,"type":"country"},{"name":"Russia","count":4,"lat":55.75696,"lng":37.61502,"type":"country"},{"name":"Moscow","count":1,"lat":55.75696,"lng":37.61502,"type":"point"},{"name":"Ankara","count":2,"lat":39.92109,"lng":32.85391,"type":"point"},{"name":"Israel","count":11,"lat":31.78003,"lng":35.21873,"type":"country"},{"name":"The United States","count":1,"lat":38.89037,"lng":-77.03196,"type":"country"},{"name":"Us","count":4,"lat":38.89037,"lng":-77.03196,"type":"country"},{"name":"Yemen","count":3,"lat":15.3667,"lng":44.21122,"type":"point"},{"name":"Saudi Arabia","count":3,"lat":24.68211,"lng":46.68722,"type":"country"},{"name":"Houthis","count":3,"lat":49.76727,"lng":4.67532,"type":"point"},{"name":"Sanaa","count":2,"lat":15.3667,"lng":44.21122,"type":"point"},{"name":"Stc","count":1,"lat":1.40972,"lng":111.52688,"type":"point"},{"name":"Libya","count":4,"lat":32.89534,"lng":13.18105,"type":"country"},{"name":"Egypt","count":5,"lat":30.04427,"lng":31.23525,"type":"country"},{"name":"The United Arab Emirates","count":1,"lat":24.46918,"lng":54.37173,"type":"country"},{"name":"Tripoli","count":1,"lat":32.89534,"lng":13.18105,"type":"point"},{"name":"Switzerland","count":1,"lat":46.94843,"lng":7.44046,"type":"country"},{"name":"Haftar","count":1,"lat":52.84244,"lng":8.70546,"type":"point"},{"name":"The Sinai Peninsula","count":1,"lat":8.31313,"lng":123.52331,"type":"point"},{"name":"El-Sisi’S","count":1,"lat":30.07762,"lng":31.38539,"type":"point"},{"name":"Palestine","count":3,"lat":31.7617,"lng":-95.632,"type":"point"},{"name":"Burhan Ozbilici","count":1,"lat":37.96514,"lng":34.68103,"type":"point"},{"name":"East Jerusalem","count":3,"lat":43.00965,"lng":-93.59917,"type":"point"},{"name":"Bethlehem","count":1,"lat":40.6266,"lng":-75.36798,"type":"point"},{"name":"The West Bank","count":1,"lat":-33.0312,"lng":27.90943,"type":"point"}],"source":"Aljazeera"},{"feed_name":"World","feed_url":"https://rss.nytimes.com/services/xml/rss/nyt/World.xml","title":"Russian Police Arrest a Top Navalny Ally, Lyubov Sobol","summary":"The police detained Lyubov Sobol amid a crackdown on activists seeking to draw attention to the nerve-agent poisoning of the opposition leader Aleksei A. Navalny.","link":"https://www.nytimes.com/2020/12/25/world/europe/navalny-lyubov-sobol.html","published":"Fri, 25 Dec 2020 16:17:05 +0000","geolocations":[{"name":"Moscow","count":1,"lat":55.75696,"lng":37.61502,"type":"point"},{"name":"Russia","count":1,"lat":55.75696,"lng":37.61502,"type":"country"},{"name":"Siberia","count":1,"lat":-30.42356,"lng":28.74034,"type":"point"}],"source":"The New York Times"},{"feed_name":"World - Europe","feed_url":"http://feeds.bbci.co.uk/news/world/rss.xml","title":"737 Max: Air Canada flight in unscheduled landing after engine issue","summary":"The plane with three crew landed safely after rerouting on a flight from the US to Canada.","link":"https://www.bbc.co.uk/news/world-us-canada-55451945","published":"Sat, 26 Dec 2020 10:12:42 GMT","geolocations":[{"name":"Tuscon","count":1,"lat":32.22177,"lng":-110.96977,"type":"point"},{"name":"Arizona","count":1,"lat":33.44825,"lng":-112.0758,"type":"point"}],"source":"BBC"},{"feed_name":"World","feed_url":"https://www.aljazeera.com/xml/rss/all.xml","title":"COVID in besieged Gaza: ‘A blockade inside a blockade’","summary":"With infections surging, COVID-19 has exacerbated the Palestinian enclave&#039;s already dire living conditions in 2020.","link":"https://www.aljazeera.com/features/2020/12/26/covid-in-besieged-gaza-a-blockade-inside-a","published":"Sat, 26 Dec 2020 17:27:29 +0000","geolocations":[{"name":"The Gaza Strip","count":1,"lat":31.40584,"lng":34.37689,"type":"country"},{"name":"Israel","count":10,"lat":31.78003,"lng":35.21873,"type":"country"},{"name":"Egypt","count":1,"lat":30.04427,"lng":31.23525,"type":"country"},{"name":"Gaza","count":22,"lat":-25.04706,"lng":33.64469,"type":"point"},{"name":"Gaza Strip","count":1,"lat":31.40584,"lng":34.37689,"type":"country"},{"name":"The West Bank","count":1,"lat":-33.0312,"lng":27.90943,"type":"point"}],"source":"Aljazeera"},{"feed_name":"World - Europe","feed_url":"http://feeds.bbci.co.uk/news/world/rss.xml","title":"Chinese economy to overtake US 'by 2028' due to Covid","summary":"A UK-based think tank says the pandemic has caused economic momentum to shift further in favour of Asia.","link":"https://www.bbc.co.uk/news/world-asia-china-55454146","published":"Sat, 26 Dec 2020 19:30:48 GMT","geolocations":[{"name":"Us","count":2,"lat":38.89037,"lng":-77.03196,"type":"country"}],"source":"BBC"},{"feed_name":"World","feed_url":"https://rss.nytimes.com/services/xml/rss/nyt/World.xml","title":"A garden leads to a magical friendship.","summary":"","link":"https://www.nytimes.com/2020/12/24/world/a-garden-leads-to-a-magical-friendship.html","published":"Thu, 24 Dec 2020 14:50:10 +0000","geolocations":[{"name":"Los Angeles","count":1,"lat":34.05357,"lng":-118.24545,"type":"point"},{"name":"Sapphire","count":1,"lat":35.11657,"lng":-82.99849,"type":"point"}],"source":"The New York Times"},{"feed_name":"World","feed_url":"https://www.theguardian.com/world/rss","title":"Spain and Sweden report cases of UK Covid variant","summary":"<p>Four people recently arrived from UK test positive for variant in Madrid, and one in Sweden </p><ul><li><a href=\"https://www.theguardian.com/world/series/coronavirus-live/latest\">Coronavirus – latest updates</a></li><li><a href=\"https://www.theguardian.com/world/coronavirus-outbreak\">See all our coronavirus coverage</a></li></ul><p>Spain and Sweden have joined the growing list of countries to have reported cases of the more contagious coronavirus variant first identified in Britain.</p><p>Four cases of the variant have been confirmed in Madrid. All involve people who recently arrived from the UK, the Madrid regional government’s deputy health chief, Antonio Zapatero, told a news conference on Saturday.</p> <a href=\"https://www.theguardian.com/world/2020/dec/26/spain-and-sweden-report-cases-of-uk-covid-variant\">Continue reading...</a>","link":"https://www.theguardian.com/world/2020/dec/26/spain-and-sweden-report-cases-of-uk-covid-variant","published":"Sat, 26 Dec 2020 16:02:01 GMT","geolocations":[{"name":"Spain","count":1,"lat":40.41955,"lng":-3.69196,"type":"country"},{"name":"Sweden","count":4,"lat":59.33257,"lng":18.06683,"type":"country"},{"name":"United Kingdom","count":3,"lat":38.95953,"lng":-91.92768,"type":"point"},{"name":"Madrid","count":3,"lat":40.41955,"lng":-3.69196,"type":"point"},{"name":"Philippines","count":1,"lat":14.60487,"lng":120.98627,"type":"country"},{"name":"Hong Kong","count":1,"lat":22.2783,"lng":114.16039,"type":"point"},{"name":"Singapore","count":1,"lat":1.29041,"lng":103.85211,"type":"country"},{"name":"Australia","count":1,"lat":-35.30654,"lng":149.12655,"type":"country"},{"name":"Japan","count":1,"lat":35.68408,"lng":139.80885,"type":"country"},{"name":"France","count":1,"lat":48.85717,"lng":2.3414,"type":"country"},{"name":"Lebanon","count":1,"lat":33.89607,"lng":35.50678,"type":"country"}],"source":"The Guardian"},{"feed_name":"World","feed_url":"https://rss.nytimes.com/services/xml/rss/nyt/World.xml","title":"Influencers May Face Fines as China Tackles Obesity and Food Waste","summary":"According to a new government report, more than half of the country’s adult population is either overweight or obese. Chinese officials have vowed to address the problem with a campaign.","link":"https://www.nytimes.com/2020/12/24/world/asia/china-obesity-overweight.html","published":"Thu, 24 Dec 2020 13:03:42 +0000","geolocations":[{"name":"Hong Kong","count":1,"lat":22.2783,"lng":114.16039,"type":"point"},{"name":"China","count":3,"lat":39.90657,"lng":116.38765,"type":"country"}],"source":"The New York Times"},{"feed_name":"World","feed_url":"https://rss.nytimes.com/services/xml/rss/nyt/World.xml","title":"Adapting to a Holiday Season Stripped of Its Essence","summary":"Pandemic restrictions mean friends and families will not be gathering this year, but Canadians are coming together in other ways.","link":"https://www.nytimes.com/2020/12/25/world/canada/adapting-to-a-holiday-season-stripped-of-its-essence.html","published":"Fri, 25 Dec 2020 10:00:06 +0000","geolocations":[{"name":"Canada","count":1,"lat":45.42178,"lng":-75.69116,"type":"country"},{"name":"Ontario","count":2,"lat":43.64869,"lng":-79.38544,"type":"point"},{"name":"Quebec","count":2,"lat":46.81273,"lng":-71.2193,"type":"point"},{"name":"Edmonton","count":1,"lat":53.54624,"lng":-113.49037,"type":"point"},{"name":"Tehran","count":1,"lat":35.68877,"lng":51.41503,"type":"point"},{"name":"Ukraine","count":1,"lat":50.45056,"lng":30.52428,"type":"country"},{"name":"Manitoba","count":1,"lat":49.89953,"lng":-97.14113,"type":"point"}],"source":"The New York Times"},{"feed_name":"World","feed_url":"https://www.aljazeera.com/xml/rss/all.xml","title":"Spain confirms first case of coronavirus variant found in UK","summary":"Announcement comes after authorities in France and Lebanon also confirm cases of the UK variant.","link":"https://www.aljazeera.com/news/2020/12/26/first-confirmed-cases-in-spain-of-british-virus-variant-regional","published":"Sat, 26 Dec 2020 12:25:56 +0000","geolocations":[{"name":"France","count":4,"lat":48.85717,"lng":2.3414,"type":"country"},{"name":"Lebanon","count":2,"lat":33.89607,"lng":35.50678,"type":"country"},{"name":"The United Kingdom","count":1,"lat":38.95953,"lng":-91.92768,"type":"point"},{"name":"Madrid","count":3,"lat":40.41955,"lng":-3.69196,"type":"point"},{"name":"Spain","count":2,"lat":40.41955,"lng":-3.69196,"type":"country"},{"name":"Us","count":1,"lat":38.89037,"lng":-77.03196,"type":"country"},{"name":"China","count":1,"lat":39.90657,"lng":116.38765,"type":"country"},{"name":"United Kingdom","count":1,"lat":38.95953,"lng":-91.92768,"type":"point"},{"name":"Britons","count":1,"lat":52.92891,"lng":1.22465,"type":"point"},{"name":"Germany","count":1,"lat":52.51604,"lng":13.37691,"type":"country"},{"name":"Italy","count":1,"lat":41.90322,"lng":12.49565,"type":"country"},{"name":"The Netherlands","count":1,"lat":51.305,"lng":-0.14561,"type":"point"},{"name":"Austria","count":1,"lat":48.20263,"lng":16.36842,"type":"country"},{"name":"Ireland","count":1,"lat":53.34807,"lng":-6.24827,"type":"country"},{"name":"Belgium","count":1,"lat":50.84439,"lng":4.35609,"type":"country"},{"name":"Canada","count":1,"lat":45.42178,"lng":-75.69116,"type":"country"},{"name":"India","count":1,"lat":28.63095,"lng":77.21721,"type":"country"},{"name":"Pakistan","count":1,"lat":33.70964,"lng":73.07545,"type":"point"},{"name":"Poland","count":1,"lat":52.2356,"lng":21.01037,"type":"country"},{"name":"Switzerland","count":1,"lat":46.94843,"lng":7.44046,"type":"country"},{"name":"Sweden","count":1,"lat":59.33257,"lng":18.06683,"type":"country"},{"name":"Russia","count":1,"lat":55.75696,"lng":37.61502,"type":"country"},{"name":"Jordan","count":1,"lat":31.9518,"lng":35.94042,"type":"country"},{"name":"Gulf","count":1,"lat":-30.07321,"lng":152.15272,"type":"point"},{"name":"Saudi Arabia","count":1,"lat":24.68211,"lng":46.68722,"type":"country"},{"name":"Kuwait","count":1,"lat":29.37321,"lng":47.97142,"type":"country"},{"name":"Oman","count":1,"lat":23.61523,"lng":58.59126,"type":"country"}],"source":"Aljazeera"},{"feed_name":"World","feed_url":"https://www.theguardian.com/world/rss","title":"Uganda charges leading lawyer for LGBT rights with money laundering","summary":"<p>Human rights organisation says allegations that Nicholas Opiyo withdrew over $300,000 in funds are ‘frivolous’ and ‘fabricated’</p><p>Nicholas Opiyo, one of Uganda’s most prominent human rights lawyers, has been charged with money laundering.</p><p>Opiyo, known for representing LGBTQ+ people, appeared before magistrates in Kampala on Thursday and was remanded in custody until 28 December.</p> <a href=\"https://www.theguardian.com/global-development/2020/dec/24/uganda-charges-leading-lawyer-for-lgbt-rights-with-money-laundering-nicholas-opiyo\">Continue reading...</a>","link":"https://www.theguardian.com/global-development/2020/dec/24/uganda-charges-leading-lawyer-for-lgbt-rights-with-money-laundering-nicholas-opiyo","published":"Thu, 24 Dec 2020 15:18:41 GMT","geolocations":[{"name":"Uganda","count":4,"lat":0.31589,"lng":32.57501,"type":"country"},{"name":"Kampala","count":3,"lat":0.31589,"lng":32.57501,"type":"point"},{"name":"Us","count":1,"lat":38.89037,"lng":-77.03196,"type":"country"},{"name":"Eu","count":1,"lat":50.04903,"lng":1.42014,"type":"point"}],"source":"The Guardian"},{"feed_name":"World","feed_url":"https://rss.nytimes.com/services/xml/rss/nyt/World.xml","title":"Bollywood, Reeling From the Pandemic, Shifts to Streaming","summary":"India’s film industry, which relied on theatrical releases, is experimenting with going straight to streaming services such as Amazon, Netflix and Disney’s Hotstar.","link":"https://www.nytimes.com/2020/12/24/technology/coolie-no1-bollywood-streaming.html","published":"Fri, 25 Dec 2020 20:41:31 +0000","geolocations":[{"name":"India","count":1,"lat":28.63095,"lng":77.21721,"type":"country"}],"source":"The New York Times"},{"feed_name":"World","feed_url":"https://www.theguardian.com/world/rss","title":"Dance: Sarah Crompton's five best dance of 2020","summary":"<p>Our critic chooses her highlights, recalling inventive lockdown venues and the emotional return of the Royal Ballet</p><ul><li><a href=\"https://www.theguardian.com/film/2020/dec/26/mark-kermode-10-best-films-of-2020\">Film: Mark Kermode’s 10 best of 2020</a></li><li><a href=\"http://www.theguardian.com/culture/series/observer-critics-review-of-2020\">The Observer critics’ review of 2020 in full</a></li></ul><p>1. <strong><a href=\"https://www.theguardian.com/stage/2020/mar/04/revisor-review-sadlers-wells-london-gogol\">Revisor</a></strong><br />Sadler’s Wells, London, March; broadcast on BBC Four in May; <a href=\"https://www.bbc.co.uk/programmes/m000jjjj\">available on iPlayer</a><br />An astonishing assertion from Crystal Pite and her Kidd Pivot company of the interpretative power of dance; a sinuous version of Gogol that combined lip-syncing to a text and visceral movement that articulated every word. Riveting.</p><p>2. <strong><a href=\"https://www.theguardian.com/stage/2020/feb/15/maliphantworks3-russell-dana-fouras-cowpuncher-my-ass-holly-blakey-pina-bausch-bluebeard-review\">Maliphantworks3</a><br /></strong>Coronet, London; February<br />A reminder, just as theatres closed, of the atmospherics of live action, as Russell Maliphant and his dancers, including his wife, Dana Fouras, in her final performance with the company, wove magical movement under rippling light.</p> <a href=\"https://www.theguardian.com/stage/2020/dec/26/sarah-crompton-best-dance-of-2020\">Continue reading...</a>","link":"https://www.theguardian.com/stage/2020/dec/26/sarah-crompton-best-dance-of-2020","published":"Sat, 26 Dec 2020 16:00:20 GMT","geolocations":[{"name":"Wells","count":1,"lat":51.2115,"lng":-2.64563,"type":"point"},{"name":"London","count":3,"lat":51.50643,"lng":-0.12719,"type":"point"},{"name":"Crystal Pite","count":1,"lat":35.43941,"lng":-97.72628,"type":"point"},{"name":"Coronet","count":1,"lat":27.98785,"lng":-82.0841,"type":"point"},{"name":"Senegal","count":1,"lat":14.66927,"lng":-17.43661,"type":"country"}],"source":"The Guardian"},{"feed_name":"World","feed_url":"https://rss.nytimes.com/services/xml/rss/nyt/World.xml","title":"1895: Wretched Weather Mars Christmas in London","summary":"Rain, snow and driving sleet hit the British capital 125 years ago, though a program offering poor children a hamper of holiday foods was a bright spot.","link":"https://www.nytimes.com/2020/12/26/world/europe/1895-london-christmas.html","published":"Sat, 26 Dec 2020 09:00:03 +0000","geolocations":[{"name":"London","count":3,"lat":51.50643,"lng":-0.12719,"type":"point"},{"name":"St. James’S","count":1,"lat":51.50777,"lng":-0.13379,"type":"point"},{"name":"Westminster","count":1,"lat":33.75931,"lng":-117.98576,"type":"point"},{"name":"Regent-Street","count":1,"lat":51.5116,"lng":-0.13933,"type":"point"}],"source":"The New York Times"},{"feed_name":"World","feed_url":"https://rss.nytimes.com/services/xml/rss/nyt/World.xml","title":"French President Macron, Free of Covid Symptoms, Leaves Isolation","summary":"The French leader, who suffered from a cough, headaches and fatigue after contracting the coronavirus, has remained active during his quarantine period, his office said.","link":"https://www.nytimes.com/2020/12/24/world/europe/france-macron-covid.html","published":"Thu, 24 Dec 2020 18:06:35 +0000","geolocations":[{"name":"Paris","count":1,"lat":48.85717,"lng":2.3414,"type":"point"},{"name":"France","count":2,"lat":48.85717,"lng":2.3414,"type":"country"}],"source":"The New York Times"},{"feed_name":"World","feed_url":"https://www.theguardian.com/world/rss","title":"New museums and Smokey Bear: what's in the $900bn US stimulus package?","summary":"<p>Analysis: Tucked into a 5,593-page bill are obscure provisions that appear to have little to do with fortifying a fragile economy</p><p>Late on Monday night, <a href=\"https://www.theguardian.com/world/2020/dec/21/covid-relief-bill-stimulus-checks-congress-republicans-democrats\">Congress approved a $900bn stimulus package</a> which will deliver financial aid to millions of families and businesses facing economic distress from coronavirus pandemic. Though far smaller than a bill lawmakers passed at the outset of the pandemic, earlier this year, the measure is one the largest pieces of legislation in US history.</p><p> <span>Related: </span><a href=\"https://www.theguardian.com/world/2020/dec/22/covid-coronavirus-us-life-expectancy-experts\">Covid could shorten US life expectancy by up to three years, experts say</a> </p> <a href=\"https://www.theguardian.com/us-news/2020/dec/22/congress-us-coronavirus-aid-package-stimulus\">Continue reading...</a>","link":"https://www.theguardian.com/us-news/2020/dec/22/congress-us-coronavirus-aid-package-stimulus","published":"Tue, 22 Dec 2020 21:07:58 GMT","geolocations":[{"name":"Us","count":8,"lat":38.89037,"lng":-77.03196,"type":"country"},{"name":"Washington","count":1,"lat":38.89037,"lng":-77.03196,"type":"point"},{"name":"Utah","count":1,"lat":40.76031,"lng":-111.88822,"type":"point"},{"name":"The United States","count":1,"lat":38.89037,"lng":-77.03196,"type":"country"},{"name":"China","count":3,"lat":39.90657,"lng":116.38765,"type":"country"},{"name":"The People’S Republic Of China","count":1,"lat":11.28537,"lng":75.77659,"type":"point"},{"name":"Tibet","count":1,"lat":44.21739,"lng":0.61961,"type":"point"},{"name":"Lhasa","count":1,"lat":29.66176,"lng":91.13071,"type":"point"},{"name":"Hawaii","count":2,"lat":21.30493,"lng":-157.85788,"type":"point"},{"name":"New York","count":1,"lat":40.71455,"lng":-74.00714,"type":"point"}],"source":"The Guardian"},{"feed_name":"World","feed_url":"https://www.latimes.com/world/rss2.0.xml","title":"For a nurse in the COVID unit, death is part of the day","summary":"<p>Once nurses enter the COVID-19 ward, they often feel as isolated as their patients.</p>","link":"https://www.latimes.com/world-nation/story/2020-12-20/a-nurse-confronts-death-in-covid-19-un","published":"Sun, 20 Dec 2020 07:00:18 -0500","geolocations":[{"name":"New Mexico","count":1,"lat":35.69177,"lng":-105.93824,"type":"point"},{"name":"Houston","count":4,"lat":29.76078,"lng":-95.36952,"type":"point"},{"name":"Jose","count":1,"lat":40.83551,"lng":-78.67707,"type":"point"},{"name":"Texas","count":2,"lat":30.26759,"lng":-97.74299,"type":"point"},{"name":"Beaumont","count":1,"lat":53.35783,"lng":-113.41366,"type":"point"},{"name":"San Antonio","count":1,"lat":29.42458,"lng":-98.49461,"type":"point"},{"name":"Louisiana","count":1,"lat":30.44335,"lng":-91.18664,"type":"point"}],"source":"Los Angeles Times"},{"feed_name":"World","feed_url":"https://rss.nytimes.com/services/xml/rss/nyt/World.xml","title":"Sailors Stranded for Months as China Refuses to Let Ships Unload Australian Coal","summary":"China is vague about why vessels that carried Australian coal to its ports can’t unload their cargo. “We’re all depressed; our mental health is deteriorating,” one sailor said.","link":"https://www.nytimes.com/2020/12/26/business/coal-ships-china-australia.html","published":"Sat, 26 Dec 2020 12:30:58 +0000","geolocations":[{"name":"Minneapolis","count":1,"lat":44.97902,"lng":-93.26494,"type":"point"},{"name":"Jingtang","count":1,"lat":16.04357,"lng":102.82628,"type":"point"},{"name":"Tangshan","count":1,"lat":53.25198,"lng":-0.54639,"type":"point"},{"name":"Switzerland","count":1,"lat":46.94843,"lng":7.44046,"type":"country"},{"name":"The British Virgin Islands","count":1,"lat":18.42878,"lng":-64.61324,"type":"country"},{"name":"China","count":3,"lat":39.90657,"lng":116.38765,"type":"country"},{"name":"Australia","count":2,"lat":-35.30654,"lng":149.12655,"type":"country"}],"source":"The New York Times"},{"feed_name":"World","feed_url":"https://www.aljazeera.com/xml/rss/all.xml","title":"Which countries have reported new variants of COVID-19?","summary":"Three new variants of the coronavirus have been detected in recent weeks, spreading to at least 13 countries worldwide.","link":"https://www.aljazeera.com/news/2020/12/26/which-countries-have-reported-new-variants-of-covid-19","published":"Sat, 26 Dec 2020 18:15:10 +0000","geolocations":[{"name":"The United Kingdom","count":2,"lat":38.95953,"lng":-91.92768,"type":"point"},{"name":"South Africa","count":7,"lat":-25.74587,"lng":28.18764,"type":"country"},{"name":"Africa","count":2,"lat":43.10832,"lng":12.77534,"type":"point"},{"name":"Nigeria","count":4,"lat":9.06344,"lng":7.46228,"type":"country"},{"name":"Australia","count":1,"lat":-35.30654,"lng":149.12655,"type":"country"},{"name":"Denmark","count":2,"lat":55.67567,"lng":12.56756,"type":"country"},{"name":"France","count":2,"lat":48.85717,"lng":2.3414,"type":"country"},{"name":"Tours","count":1,"lat":47.38846,"lng":0.68957,"type":"point"},{"name":"Italy","count":2,"lat":41.90322,"lng":12.49565,"type":"country"},{"name":"Ancona","count":1,"lat":43.61849,"lng":13.50898,"type":"point"},{"name":"Rome","count":1,"lat":41.90322,"lng":12.49565,"type":"point"},{"name":"Fiumicino","count":1,"lat":41.77008,"lng":12.22708,"type":"point"},{"name":"Japan","count":2,"lat":35.68408,"lng":139.80885,"type":"country"},{"name":"Lebanon","count":2,"lat":33.89607,"lng":35.50678,"type":"country"},{"name":"London","count":1,"lat":51.50643,"lng":-0.12719,"type":"point"},{"name":"Netherlands","count":1,"lat":52.36993,"lng":4.90788,"type":"country"},{"name":"Amsterdam","count":1,"lat":52.37018,"lng":4.87324,"type":"point"},{"name":"Osun","count":1,"lat":7.98569,"lng":5.09663,"type":"point"},{"name":"Singapore","count":3,"lat":1.29041,"lng":103.85211,"type":"country"},{"name":"Spain","count":2,"lat":40.41955,"lng":-3.69196,"type":"country"},{"name":"Sweden","count":3,"lat":59.33257,"lng":18.06683,"type":"country"},{"name":"United Kingdom","count":1,"lat":38.95953,"lng":-91.92768,"type":"point"},{"name":"England","count":1,"lat":51.50643,"lng":-0.12719,"type":"country"},{"name":"Hancock","count":1,"lat":47.12666,"lng":-88.58466,"type":"point"}],"source":"Aljazeera"},{"feed_name":"World","feed_url":"https://rss.nytimes.com/services/xml/rss/nyt/World.xml","title":"An Irish boy writes to Pfizer requesting a vaccination for Santa, and receives a reply from its C.E.O.","summary":"","link":"https://www.nytimes.com/2020/12/24/world/an-irish-boy-writes-to-pfizer-requesting-a-vaccination-for-santa-and-receives-a-reply-from-its-ceo.html","published":"Thu, 24 Dec 2020 15:48:53 +0000","geolocations":[{"name":"The North Pole","count":1,"lat":-20.60773,"lng":27.55545,"type":"point"},{"name":"Santa","count":1,"lat":35.69177,"lng":-105.93824,"type":"point"}],"source":"The New York Times"},{"feed_name":"World","feed_url":"https://www.aljazeera.com/xml/rss/all.xml","title":"Manhunt under way after four injured in Berlin shooting","summary":"Injured taken to hospital in an altercation involving several people in the Kreuzberg district, police say.","link":"https://www.aljazeera.com/news/2020/12/26/manhunt-underway-as-four-injured-in-berlin-shooting-police-say","published":"Sat, 26 Dec 2020 08:58:22 +0000","geolocations":[{"name":"Kreuzberg","count":3,"lat":52.49382,"lng":13.38358,"type":"point"},{"name":"Berlin","count":1,"lat":52.51604,"lng":13.37691,"type":"point"},{"name":"Germany","count":2,"lat":52.51604,"lng":13.37691,"type":"country"},{"name":"Halle","count":1,"lat":51.4822,"lng":11.97494,"type":"point"},{"name":"Munich","count":1,"lat":48.13641,"lng":11.57754,"type":"point"}],"source":"Aljazeera"},{"feed_name":"World","feed_url":"https://www.theguardian.com/world/rss","title":"Pardons sink Trump further into swamp of his own shamelessness","summary":"<p><strong>Analysis: </strong>President sanctions first federal execution of a woman in 67 years – but war criminals, fraudsters and Russia-linked cronies go free</p><p>Lisa Montgomery is set to become the first woman put to death by the US federal government in 67 years. On Tuesday senators including Cory Booker, Bernie Sanders and Elizabeth Warren wrote to the justice department <a href=\"https://www.warren.senate.gov/imo/media/doc/2020.12.21%20Letter%20to%20DOJ%20IG%20on%20federal%20executions%20FINAL.pdf\">demanding an investigation</a> into an “unprecedented spree” of federal executions on Donald Trump’s watch.</p><p>A few hours later the president <a href=\"https://www.theguardian.com/us-news/2020/dec/22/who-trump-pardon-guide-george-papadopoulos-duncan-hunter\">announced a slew of 15 pardons</a>. Strikingly they included <a href=\"https://www.theguardian.com/world/2020/dec/23/trump-pardons-blackwater-contractors-jailed-for-massacre-of-iraq-civilians\">four military contractors</a> imprisoned for the killing of unarmed men, women and children in Iraq. In short, war criminals.</p> <a href=\"https://www.theguardian.com/us-news/2020/dec/23/pardons-sink-trump-further-into-swamp-of-his-own-shamelessness\">Continue reading...</a>","link":"https://www.theguardian.com/us-news/2020/dec/23/pardons-sink-trump-further-into-swamp-of-his-own-shamelessness","published":"Wed, 23 Dec 2020 04:54:16 GMT","geolocations":[{"name":"Us","count":2,"lat":38.89037,"lng":-77.03196,"type":"country"},{"name":"Iraq","count":1,"lat":33.3421,"lng":44.39307,"type":"country"},{"name":"Blackwater","count":2,"lat":-23.58569,"lng":148.88012,"type":"point"},{"name":"Baghdad","count":1,"lat":33.3421,"lng":44.39307,"type":"point"},{"name":"The District Of Columbia","count":1,"lat":44.63305,"lng":-67.85116,"type":"point"},{"name":"Russia","count":1,"lat":55.75696,"lng":37.61502,"type":"country"},{"name":"Moscow","count":1,"lat":55.75696,"lng":37.61502,"type":"point"},{"name":"Washington","count":1,"lat":38.89037,"lng":-77.03196,"type":"point"},{"name":"America","count":1,"lat":51.43739,"lng":5.98176,"type":"point"}],"source":"The Guardian"},{"feed_name":"World","feed_url":"https://rss.nytimes.com/services/xml/rss/nyt/World.xml","title":"Truck Jam Eases at U.K. Port Days After France Reopens Border","summary":"Even with new restrictions around the world to try to stop the transmission of a virus variant sweeping rapidly across Britain, the mutation has already spread to France, Spain and Japan.","link":"https://www.nytimes.com/2020/12/26/world/europe/truck-jam-uk-france-covid.html","published":"Sat, 26 Dec 2020 15:35:49 +0000","geolocations":[{"name":"London","count":1,"lat":51.50643,"lng":-0.12719,"type":"point"},{"name":"England","count":1,"lat":51.50643,"lng":-0.12719,"type":"country"},{"name":"France","count":2,"lat":48.85717,"lng":2.3414,"type":"country"},{"name":"Europe","count":1,"lat":-33.98201,"lng":18.58413,"type":"point"},{"name":"Japan","count":1,"lat":35.68408,"lng":139.80885,"type":"country"},{"name":"U.K.","count":1,"lat":29.93186,"lng":77.81922,"type":"point"}],"source":"The New York Times"},{"feed_name":"World","feed_url":"https://www.latimes.com/world/rss2.0.xml","title":"Biden's test: Rebuilding the Iran nuclear deal Trump tore apart","summary":"<p>Biden considers an Iran nuclear deal 2.0 as a way to calm opposition as he returns the U.S. to the international pact.</p>","link":"https://www.latimes.com/politics/story/2020-12-21/bidens-plans-to-restore-iran-nuclear-deal-perhaps-with-leverage-provided-by-trump","published":"Mon, 21 Dec 2020 06:00:19 -0500","geolocations":[{"name":"U.S.","count":6,"lat":38.89037,"lng":-77.03196,"type":"country"},{"name":"Iran","count":18,"lat":35.68877,"lng":51.41503,"type":"country"},{"name":"Middle East","count":2,"lat":39.29996,"lng":-76.58967,"type":"point"},{"name":"Israel","count":2,"lat":31.78003,"lng":35.21873,"type":"country"},{"name":"France","count":1,"lat":48.85717,"lng":2.3414,"type":"country"},{"name":"United Kingdom","count":1,"lat":38.95953,"lng":-91.92768,"type":"point"},{"name":"Germany","count":1,"lat":52.51604,"lng":13.37691,"type":"country"},{"name":"Russia","count":1,"lat":55.75696,"lng":37.61502,"type":"country"},{"name":"China","count":1,"lat":39.90657,"lng":116.38765,"type":"country"},{"name":"Tehran","count":1,"lat":35.68877,"lng":51.41503,"type":"point"},{"name":"Washington","count":1,"lat":38.89037,"lng":-77.03196,"type":"point"}],"source":"Los Angeles Times"},{"feed_name":"World","feed_url":"https://www.latimes.com/world/rss2.0.xml","title":"Rich countries are hoarding COVID-19 vaccines. Elsewhere, the pandemic may keep killing for years","summary":"<p>Poor countries face long waits for injections as the U.S. and others buy up nearly all the global supply of Pfizer and Moderna vaccines.</p>","link":"https://www.latimes.com/world-nation/story/2020-12-22/rich-nations-snap-up-covid-19-vaccines-leaving-less-for-the-poor","published":"Tue, 22 Dec 2020 05:00:42 -0500","geolocations":[{"name":"China","count":4,"lat":39.90657,"lng":116.38765,"type":"country"},{"name":"Russia","count":2,"lat":55.75696,"lng":37.61502,"type":"country"},{"name":"Geneva","count":1,"lat":46.20833,"lng":6.14275,"type":"point"},{"name":"India","count":7,"lat":28.63095,"lng":77.21721,"type":"country"},{"name":"South Africa","count":1,"lat":-25.74587,"lng":28.18764,"type":"country"},{"name":"Africa","count":1,"lat":43.10832,"lng":12.77534,"type":"point"},{"name":"Ahmedabad","count":1,"lat":23.02778,"lng":72.60025,"type":"point"},{"name":"The United States","count":4,"lat":38.89037,"lng":-77.03196,"type":"country"},{"name":"The United Kingdom","count":1,"lat":38.95953,"lng":-91.92768,"type":"point"},{"name":"U.S.","count":4,"lat":38.89037,"lng":-77.03196,"type":"country"},{"name":"Covax","count":6,"lat":40.12734,"lng":-8.85287,"type":"point"},{"name":"Sub-Saharan Africa","count":1,"lat":-27.17536,"lng":21.91836,"type":"point"},{"name":"France","count":1,"lat":48.85717,"lng":2.3414,"type":"country"},{"name":"Canada","count":2,"lat":45.42178,"lng":-75.69116,"type":"country"},{"name":"Mexico City","count":2,"lat":19.27691,"lng":-99.13939,"type":"point"},{"name":"Latin America","count":1,"lat":41.62788,"lng":13.34278,"type":"point"},{"name":"Caribbean","count":1,"lat":30.47333,"lng":-86.42132,"type":"point"},{"name":"Mexico","count":2,"lat":23.94757,"lng":-102.5411,"type":"country"},{"name":"Brazil","count":1,"lat":-15.77829,"lng":-47.92909,"type":"country"},{"name":"Chile","count":1,"lat":-33.43722,"lng":-70.65002,"type":"country"},{"name":"Bolivia","count":1,"lat":-16.49908,"lng":-68.13378,"type":"country"},{"name":"El Salvador","count":1,"lat":13.69967,"lng":-89.2068,"type":"country"},{"name":"Nicaragua","count":1,"lat":12.1172,"lng":-86.24081,"type":"country"},{"name":"Indonesia","count":1,"lat":-6.17148,"lng":106.82649,"type":"country"},{"name":"Asia","count":1,"lat":-12.76551,"lng":-76.61171,"type":"point"},{"name":"Singapore","count":1,"lat":1.29041,"lng":103.85211,"type":"country"},{"name":"Linthicum","count":1,"lat":39.21251,"lng":-76.66941,"type":"point"}],"source":"Los Angeles Times"},{"feed_name":"World","feed_url":"https://www.latimes.com/world/rss2.0.xml","title":"Biden team plans ambitious push to address racial disparities in healthcare","summary":"<p>Led by California Atty. Gen. Xavier Becerra, tapped by Biden to lead the Department of Health and Human Services, Biden's healthcare team is aiming for an ambitious agenda to reshape a healthcare system that still leaves millions of Black and Latino Americans with weaker insurance protections, less access to care and poorer outcome. </p>","link":"https://www.latimes.com/politics/story/2020-12-23/biden-team-to-lead-historic-push-to-address-racial-disparities-in-healthcare","published":"Wed, 23 Dec 2020 13:17:01 -0500","geolocations":[{"name":"California","count":1,"lat":38.57944,"lng":-121.49085,"type":"point"},{"name":"U.S.","count":1,"lat":38.89037,"lng":-77.03196,"type":"country"},{"name":"Wilmington","count":1,"lat":39.74023,"lng":-75.55084,"type":"point"},{"name":"Los Angeles","count":1,"lat":34.05357,"lng":-118.24545,"type":"point"},{"name":"South","count":1,"lat":33.56253,"lng":35.36757,"type":"point"},{"name":"The United States","count":1,"lat":38.89037,"lng":-77.03196,"type":"country"}],"source":"Los Angeles Times"},{"feed_name":"World - Europe","feed_url":"http://feeds.bbci.co.uk/news/world/rss.xml","title":"Nashville explosion: Businesses and celebrities pledge $315,000 reward","summary":"Three people were injured when a camper van exploded in the city centre early on Christmas Day","link":"https://www.bbc.co.uk/news/world-us-canada-55451768","published":"Sat, 26 Dec 2020 19:06:52 GMT","geolocations":[{"name":"Rv","count":1,"lat":-30.90501,"lng":-55.54352,"type":"point"}],"source":"BBC"},{"feed_name":"World","feed_url":"https://www.theguardian.com/world/rss","title":"Gabbi Bolt used to write love songs. Now she's best known for a TikTok tune about a rat","summary":"<p>The Australian songwriter has capped her ‘dumbest, craziest, wildest’ year with an invitation from Broadway for her Ratatouille-inspired show tune</p><p>After years of making heartfelt songs about love and loss, Bathurst musician Gabbi Bolt is now best known for her songs about ABC political editor Andrew Probyn and rats. The latter, an original show tune sung from the perspective of the father rat in the Pixar film Ratatouille, <a href=\"https://www.nytimes.com/2020/12/09/theater/ratatouille-tiktok-musical.html\">is heading to Broadway.</a></p><p>It’s been a strange year.</p> <a href=\"https://www.theguardian.com/music/2020/dec/27/gabbi-bolt-used-to-write-love-songs-now-shes-best-known-for-a-tiktok-tune-about-a-rat\">Continue reading...</a>","link":"https://www.theguardian.com/music/2020/dec/27/gabbi-bolt-used-to-write-love-songs-now-shes-best-known-for-a-tiktok-tune-about-a-rat","published":"Sat, 26 Dec 2020 19:00:24 GMT","geolocations":[{"name":"Bathurst","count":2,"lat":47.61678,"lng":-65.64889,"type":"point"},{"name":"Sydney","count":2,"lat":-33.8696,"lng":151.20691,"type":"point"}],"source":"The Guardian"},{"feed_name":"World","feed_url":"https://rss.nytimes.com/services/xml/rss/nyt/World.xml","title":"France and Japan report cases of the virus variant that prompted lockdowns in Britain.","summary":"","link":"https://www.nytimes.com/2020/12/25/world/france-and-japan-report-cases-of-the-virus-variant-that-prompted-lockdowns-in-britain.html","published":"Sat, 26 Dec 2020 05:08:31 +0000","geolocations":[{"name":"France","count":2,"lat":48.85717,"lng":2.3414,"type":"country"},{"name":"Japan","count":2,"lat":35.68408,"lng":139.80885,"type":"country"},{"name":"United Kingdom","count":2,"lat":38.95953,"lng":-91.92768,"type":"point"},{"name":"England","count":2,"lat":51.50643,"lng":-0.12719,"type":"country"},{"name":"Tours","count":1,"lat":47.38846,"lng":0.68957,"type":"point"},{"name":"London","count":1,"lat":51.50643,"lng":-0.12719,"type":"point"}],"source":"The New York Times"},{"feed_name":"World","feed_url":"https://www.aljazeera.com/xml/rss/all.xml","title":"New Yemen gov’t sworn in after Saudi-brokered power-sharing deal","summary":"The 24-member cabinet, announced last week, sworn in during a ceremony in Riyadh where Yemen&#039;s President Hadi is living.","link":"https://www.aljazeera.com/news/2020/12/26/yemens-new-government-sworn-in-after-power-sharing-agreement","published":"Sat, 26 Dec 2020 16:33:36 +0000","geolocations":[{"name":"Riyadh","count":2,"lat":24.68211,"lng":46.68722,"type":"point"},{"name":"Yemen","count":8,"lat":15.3667,"lng":44.21122,"type":"point"},{"name":"Saudi Arabia","count":5,"lat":24.68211,"lng":46.68722,"type":"country"},{"name":"Stc","count":3,"lat":1.40972,"lng":111.52688,"type":"point"},{"name":"Saba","count":1,"lat":17.62659,"lng":-63.24951,"type":"country"},{"name":"Sanaa","count":1,"lat":15.3667,"lng":44.21122,"type":"point"},{"name":"The United Arab Emirates","count":1,"lat":24.46918,"lng":54.37173,"type":"country"}],"source":"Aljazeera"},{"feed_name":"World","feed_url":"https://rss.nytimes.com/services/xml/rss/nyt/World.xml","title":"Mexico Begins Covid Vaccine Rollout","summary":"Mexico is the first country in Latin America, a region hard hit by the coronavirus, to begin delivering vaccines. A head nurse at a Mexico City hospital was the first to get a shot.","link":"https://www.nytimes.com/2020/12/24/world/americas/mexico-coronavirus-vaccine.html","published":"Thu, 24 Dec 2020 20:53:56 +0000","geolocations":[{"name":"Mexico City","count":2,"lat":19.27691,"lng":-99.13939,"type":"point"},{"name":"Mexico","count":1,"lat":23.94757,"lng":-102.5411,"type":"country"},{"name":"Latin America","count":2,"lat":41.62788,"lng":13.34278,"type":"point"}],"source":"The New York Times"},{"feed_name":"World","feed_url":"https://rss.nytimes.com/services/xml/rss/nyt/World.xml","title":"Germany and Hungary Begin Vaccinations a Day Early","summary":"The full rollout of the European Union’s vast vaccine campaign begins Sunday.","link":"https://www.nytimes.com/2020/12/26/world/Germany-Hungary-vaccinations-begin.html","published":"Sat, 26 Dec 2020 19:23:06 +0000","geolocations":[{"name":"Germany","count":1,"lat":52.51604,"lng":13.37691,"type":"country"},{"name":"Hungary","count":1,"lat":47.49972,"lng":19.05508,"type":"country"},{"name":"Budapest","count":1,"lat":47.49972,"lng":19.05508,"type":"point"},{"name":"Slovakia","count":1,"lat":48.14924,"lng":17.10699,"type":"country"}],"source":"The New York Times"},{"feed_name":"World","feed_url":"https://rss.nytimes.com/services/xml/rss/nyt/World.xml","title":"George Blake, British Spy Who Betrayed the West, Dies at 98","summary":"He was caught spilling secrets to the Soviets in 1961 and imprisoned. Five years later, he escaped and fled to Moscow, where he was hailed as a hero.","link":"https://www.nytimes.com/2020/12/26/obituaries/george-blake-british-spy-dead.html","published":"Sat, 26 Dec 2020 15:32:21 +0000","geolocations":[{"name":"Rotterdam","count":1,"lat":51.91438,"lng":4.48716,"type":"point"},{"name":"Turkey","count":1,"lat":39.92109,"lng":32.85391,"type":"country"},{"name":"The Ottoman Empire","count":1,"lat":37.70098,"lng":-76.52037,"type":"point"},{"name":"Netherlands","count":2,"lat":52.36993,"lng":4.90788,"type":"country"},{"name":"Cairo","count":1,"lat":30.04427,"lng":31.23525,"type":"point"},{"name":"England","count":1,"lat":51.50643,"lng":-0.12719,"type":"country"},{"name":"United Kingdom","count":3,"lat":38.95953,"lng":-91.92768,"type":"point"},{"name":"Cambridge","count":1,"lat":52.20992,"lng":0.11161,"type":"point"},{"name":"Germany","count":1,"lat":52.51604,"lng":13.37691,"type":"country"},{"name":"Berlin","count":1,"lat":52.51604,"lng":13.37691,"type":"point"},{"name":"Hamburg","count":1,"lat":53.55562,"lng":9.98745,"type":"point"},{"name":"Seoul","count":1,"lat":37.55886,"lng":126.99989,"type":"point"},{"name":"South Korea’S","count":1,"lat":37.55886,"lng":126.99989,"type":"country"},{"name":"North Korea","count":3,"lat":39.01196,"lng":125.78684,"type":"country"}],"source":"The New York Times"},{"feed_name":"World","feed_url":"https://rss.nytimes.com/services/xml/rss/nyt/World.xml","title":"Shinzo Abe Aide Faces Fine Over Campaign Finance Allegations in Japan","summary":"Prime Minister Yoshihide Suga said he had unintentionally misrepresented the facts around a political scandal after prosecutors announced they would seek to punish a former aide to Shinzo Abe.","link":"https://www.nytimes.com/2020/12/24/world/asia/japan-campaign-finance-scandal.html","published":"Thu, 24 Dec 2020 20:45:21 +0000","geolocations":[{"name":"Tokyo","count":1,"lat":35.68408,"lng":139.80885,"type":"point"},{"name":"Japan","count":2,"lat":35.68408,"lng":139.80885,"type":"country"}],"source":"The New York Times"},{"feed_name":"World","feed_url":"https://www.theguardian.com/world/rss","title":"Nashville: FBI combs wreckage as mystery surrounds Christmas Day blast","summary":"<ul><li>Three people lightly injured and possible human remains found</li><li>Unclear if or how remains are linked to downtown explosion</li></ul><p>Mystery surrounds the motivation behind the detonation of an apparent bomb on the streets of downtown Nashville that rocked Tennessee’s biggest city on Christmas morning as investigators continued to comb the wreckage for clues.</p><p>Three people were lightly injured in the blast and some possible human remains have been found near the site of the RV that exploded and caused serious damage to Nashville’s historic core. But it is not clear if or how the remains are linked to the incident.</p> <a href=\"https://www.theguardian.com/us-news/2020/dec/26/nashville-blast-christmas-bomb-explosion\">Continue reading...</a>","link":"https://www.theguardian.com/us-news/2020/dec/26/nashville-blast-christmas-bomb-explosion","published":"Sat, 26 Dec 2020 13:21:04 GMT","geolocations":[{"name":"Nashville","count":8,"lat":36.16784,"lng":-86.77816,"type":"point"},{"name":"Tennessee","count":2,"lat":36.16784,"lng":-86.77816,"type":"point"},{"name":"Rv","count":4,"lat":-30.90501,"lng":-55.54352,"type":"point"},{"name":"Kentucky","count":1,"lat":38.19507,"lng":-84.87869,"type":"point"},{"name":"Knox County","count":1,"lat":33.46398,"lng":-99.77954,"type":"point"},{"name":"Knoxville","count":1,"lat":35.96068,"lng":-83.92103,"type":"point"}],"source":"The Guardian"},{"feed_name":"World","feed_url":"https://rss.nytimes.com/services/xml/rss/nyt/World.xml","title":"Brexit Deal Poses Threat to Boris Johnson and U.K. Conservative Party","summary":"Conservatives are united for now over the British prime minister’s trade deal, but as details emerge, he could face challenges from hard-liners and business groups.","link":"https://www.nytimes.com/2020/12/25/world/europe/brexit-uk-tories.html","published":"Fri, 25 Dec 2020 17:42:35 +0000","geolocations":[{"name":"London","count":1,"lat":51.50643,"lng":-0.12719,"type":"point"},{"name":"Europe","count":2,"lat":-33.98201,"lng":18.58413,"type":"point"}],"source":"The New York Times"},{"feed_name":"World","feed_url":"https://rss.nytimes.com/services/xml/rss/nyt/World.xml","title":"Stateless, She Became the Face of a Largely Invisible Plight","summary":"Maha Mamo had no citizenship. Born in Lebanon of Syrian parents, she was ineligible for either nationality. It took her years of perseverance and some lucky breaks to find a homeland — in Brazil.","link":"https://www.nytimes.com/2020/12/25/world/americas/stateless-brazil.html","published":"Fri, 25 Dec 2020 14:42:22 +0000","geolocations":[{"name":"Rio De Janeiro","count":1,"lat":-22.91216,"lng":-43.17501,"type":"point"},{"name":"Lebanon","count":2,"lat":33.89607,"lng":35.50678,"type":"country"},{"name":"Girl Scouts","count":1,"lat":39.70959,"lng":-79.66861,"type":"point"},{"name":"Syria","count":1,"lat":33.51656,"lng":36.31708,"type":"point"}],"source":"The New York Times"},{"feed_name":"World","feed_url":"https://rss.nytimes.com/services/xml/rss/nyt/World.xml","title":"U.K. Virus Variant Found in Japan, Spain and France","summary":"The discovery of the U.K. variant has prompted more travel restrictions.","link":"https://www.nytimes.com/2020/12/26/world/japan-spain-france-virus-variant.html","published":"Sat, 26 Dec 2020 17:59:20 +0000","geolocations":[{"name":"Japan","count":2,"lat":35.68408,"lng":139.80885,"type":"country"},{"name":"Spain","count":1,"lat":40.41955,"lng":-3.69196,"type":"country"},{"name":"France","count":1,"lat":48.85717,"lng":2.3414,"type":"country"},{"name":"U.K.","count":3,"lat":29.93186,"lng":77.81922,"type":"point"},{"name":"London","count":1,"lat":51.50643,"lng":-0.12719,"type":"point"},{"name":"England","count":1,"lat":51.50643,"lng":-0.12719,"type":"country"},{"name":"United Kingdom","count":1,"lat":38.95953,"lng":-91.92768,"type":"point"}],"source":"The New York Times"},{"feed_name":"World","feed_url":"https://www.aljazeera.com/xml/rss/all.xml","title":"Why oil makes Gulf countries vulnerable to Iran","summary":"The US shale oil boom has removed protecting Gulf oil from Washington&#039;s list of top priorities.","link":"https://www.aljazeera.com/opinions/2020/12/26/why-oil-makes-the-gcc-countries-vulnerable-to-iran","published":"Sat, 26 Dec 2020 11:59:07 +0000","geolocations":[{"name":"Tehran","count":7,"lat":35.68877,"lng":51.41503,"type":"point"},{"name":"Israel","count":3,"lat":31.78003,"lng":35.21873,"type":"country"},{"name":"Haifa","count":1,"lat":32.80123,"lng":35.00326,"type":"point"},{"name":"The United States","count":1,"lat":38.89037,"lng":-77.03196,"type":"country"},{"name":"Iran","count":13,"lat":35.68877,"lng":51.41503,"type":"country"},{"name":"Us","count":18,"lat":38.89037,"lng":-77.03196,"type":"country"},{"name":"Gulf","count":13,"lat":-30.07321,"lng":152.15272,"type":"point"},{"name":"The United Arab Emirates","count":2,"lat":24.46918,"lng":54.37173,"type":"country"},{"name":"Houthis","count":2,"lat":49.76727,"lng":4.67532,"type":"point"},{"name":"Yemen","count":2,"lat":15.3667,"lng":44.21122,"type":"point"},{"name":"Saudi Arabia","count":3,"lat":24.68211,"lng":46.68722,"type":"country"},{"name":"Abu Dhabi","count":1,"lat":24.46918,"lng":54.37173,"type":"point"},{"name":"Riyadh","count":3,"lat":24.68211,"lng":46.68722,"type":"point"},{"name":"Jizan","count":2,"lat":16.89795,"lng":42.55054,"type":"point"},{"name":"Asir","count":1,"lat":29.87822,"lng":74.91862,"type":"point"},{"name":"Najran","count":1,"lat":17.54334,"lng":44.22398,"type":"point"},{"name":"Jeddah","count":1,"lat":21.4817,"lng":39.1828,"type":"point"},{"name":"Red Sea","count":1,"lat":14.54535,"lng":121.13113,"type":"point"},{"name":"The Arabian Peninsula","count":1,"lat":60.52679,"lng":-150.77577,"type":"point"},{"name":"Khurais","count":1,"lat":26.39422,"lng":50.0489,"type":"point"},{"name":"Tel Aviv","count":1,"lat":32.08556,"lng":34.78953,"type":"point"},{"name":"Washington","count":3,"lat":38.89037,"lng":-77.03196,"type":"point"},{"name":"The Strait Of Hormuz","count":4,"lat":38.90478,"lng":-77.01631,"type":"point"},{"name":"Sanaa","count":1,"lat":15.3667,"lng":44.21122,"type":"point"},{"name":"The Middle East","count":2,"lat":39.29996,"lng":-76.58967,"type":"point"},{"name":"Libya","count":1,"lat":32.89534,"lng":13.18105,"type":"country"},{"name":"Venezuela","count":1,"lat":10.50526,"lng":-66.91776,"type":"country"},{"name":"Baghdad","count":1,"lat":33.3421,"lng":44.39307,"type":"point"},{"name":"The Red Sea","count":1,"lat":25.30473,"lng":55.41072,"type":"point"}],"source":"Aljazeera"},{"feed_name":"World","feed_url":"https://rss.nytimes.com/services/xml/rss/nyt/World.xml","title":"Post-Brexit Trade Deal: 5 Takeaways","summary":"Britain and the European Union spent months negotiating the terms of commercial relations after Dec. 31.","link":"https://www.nytimes.com/2020/12/24/world/europe/brexit-uk-eu-explained.html","published":"Thu, 24 Dec 2020 22:53:12 +0000","geolocations":[{"name":"United Kingdom","count":3,"lat":38.95953,"lng":-91.92768,"type":"point"},{"name":"Europe","count":1,"lat":-33.98201,"lng":18.58413,"type":"point"}],"source":"The New York Times"},{"feed_name":"World","feed_url":"https://rss.nytimes.com/services/xml/rss/nyt/World.xml","title":"Brazil Is Famous for Its Meat. But Vegetarianism Is Soaring.","summary":"The number of vegetarians in Brazil doubled over a six-year period, which has given rise to a booming plant-based industry that is seeking to turn meatpacking plants obsolete.","link":"https://www.nytimes.com/2020/12/26/world/americas/brazil-vegetarian.html","published":"Sat, 26 Dec 2020 14:30:55 +0000","geolocations":[{"name":"Rio De Janeiro","count":2,"lat":-22.91216,"lng":-43.17501,"type":"point"},{"name":"Brazil","count":2,"lat":-15.77829,"lng":-47.92909,"type":"country"}],"source":"The New York Times"},{"feed_name":"World","feed_url":"https://www.theguardian.com/world/rss","title":"Anger of 10,000 lorry drivers ‘held hostage’ in Covid Christmas standoff","summary":"<p>Hauliers stranded in their cabs on UK roads say they are being used as political pawns</p><ul><li><strong><a href=\"https://www.theguardian.com/world/coronavirus-outbreak\">See all our coronavirus coverage</a></strong></li></ul><p>Juan Andrés had braced himself for what promised to be an atypical holiday season. But the lorry driver from southern Spain never imagined that Christmas Day would be spent in his cab tucking into a ham and cheese sandwich – among provisions handed out by the British military – as he inched towards the Channel.</p><p>“I would describe it as a kidnapping,” said the 52-year-old when asked about the diplomatic impasse that left him stranded on British roads for nearly a week. <a href=\"https://www.theguardian.com/world/2020/dec/24/french-firefighters-arrive-in-dover-with-10000-covid-tests-for-lorry-drivers\" title=\"\">As many as 10,000 lorries from across Europe</a> were stuck after France temporarily closed its border over fears of a fast-spreading coronavirus variant, reopening only to those drivers who could show a negative coronavirus test.</p> <a href=\"https://www.theguardian.com/uk-news/2020/dec/26/anger-of-10000-lorry-drivers-held-hostage-in-covid-christmas-standoff\">Continue reading...</a>","link":"https://www.theguardian.com/uk-news/2020/dec/26/anger-of-10000-lorry-drivers-held-hostage-in-covid-christmas-standoff","published":"Sat, 26 Dec 2020 16:36:58 GMT","geolocations":[{"name":"Spain","count":1,"lat":40.41955,"lng":-3.69196,"type":"country"},{"name":"Europe","count":1,"lat":-33.98201,"lng":18.58413,"type":"point"},{"name":"France","count":2,"lat":48.85717,"lng":2.3414,"type":"country"},{"name":"Northamptonshire","count":1,"lat":52.27924,"lng":-0.87237,"type":"point"},{"name":"Seville","count":2,"lat":37.38788,"lng":-6.00196,"type":"point"},{"name":"England","count":2,"lat":51.50643,"lng":-0.12719,"type":"country"}],"source":"The Guardian"},{"feed_name":"World - Europe","feed_url":"http://feeds.bbci.co.uk/news/world/rss.xml","title":"The refugees feeding a nation","summary":"How did French Guiana come to rely on its Hmong citizens for food?","link":"https://www.bbc.co.uk/news/world-55412180","published":"Fri, 25 Dec 2020 00:07:39 GMT","geolocations":[{"name":"France","count":2,"lat":48.85717,"lng":2.3414,"type":"country"},{"name":"Laos","count":1,"lat":17.9518,"lng":102.61892,"type":"country"},{"name":"South America","count":1,"lat":44.76704,"lng":-93.92739,"type":"point"},{"name":"Us","count":1,"lat":38.89037,"lng":-77.03196,"type":"country"}],"source":"BBC"},{"feed_name":"World","feed_url":"https://www.latimes.com/world/rss2.0.xml","title":"Trump finds himself isolated in refusal to blame Russia for big cyberattack","summary":"<p>Some lawmakers want the Kremlin punished over the suspected hack, but Trump refuses to point fingers.</p>","link":"https://www.latimes.com/world-nation/story/2020-12-20/lawmakers-experts-baffled-trump-brushes-off-suspected-russian-hack","published":"Sun, 20 Dec 2020 16:10:25 -0500","geolocations":[{"name":"U.S.","count":7,"lat":38.89037,"lng":-77.03196,"type":"country"},{"name":"Russia","count":7,"lat":55.75696,"lng":37.61502,"type":"country"},{"name":"The United States","count":3,"lat":38.89037,"lng":-77.03196,"type":"country"},{"name":"Utah","count":1,"lat":40.76031,"lng":-111.88822,"type":"point"},{"name":"China","count":1,"lat":39.90657,"lng":116.38765,"type":"country"},{"name":"Virginia","count":1,"lat":37.54068,"lng":-77.43367,"type":"point"},{"name":"Austin","count":1,"lat":30.26759,"lng":-97.74299,"type":"point"},{"name":"Wyo","count":1,"lat":39.78186,"lng":-122.19752,"type":"point"},{"name":"Moscow","count":1,"lat":55.75696,"lng":37.61502,"type":"point"},{"name":"Washington","count":1,"lat":38.89037,"lng":-77.03196,"type":"point"}],"source":"Los Angeles Times"},{"feed_name":"World","feed_url":"https://www.aljazeera.com/xml/rss/all.xml","title":"Israeli air attacks cause injuries, damage in Gaza Strip","summary":"At least two Palestinians were wounded in what Israel called a retaliatory attack on Hamas positions in the Gaza Strip.","link":"https://www.aljazeera.com/news/2020/12/26/israeli-air-attacks-gaza-injuries","published":"Sat, 26 Dec 2020 08:04:57 +0000","geolocations":[{"name":"Israel","count":9,"lat":31.78003,"lng":35.21873,"type":"country"},{"name":"The Gaza Strip","count":5,"lat":31.40584,"lng":34.37689,"type":"country"},{"name":"Gaza Strip","count":2,"lat":31.40584,"lng":34.37689,"type":"country"},{"name":"Gaza","count":5,"lat":-25.04706,"lng":33.64469,"type":"point"},{"name":"Ashkelon","count":1,"lat":31.66667,"lng":34.5697,"type":"point"}],"source":"Aljazeera"},{"feed_name":"World","feed_url":"https://rss.nytimes.com/services/xml/rss/nyt/World.xml","title":"As Virus Resurges in Africa, Doctors Fear the Worst Is Yet to Come","summary":"The coronavirus killed far fewer people in Africa than in Europe and the Americas, leading to a widespread perception that it was a disease of the West. Now, a tide of new cases on the continent is raising alarms.","link":"https://www.nytimes.com/2020/12/26/world/africa/africa-coronavirus-pandemic.html","published":"Sat, 26 Dec 2020 16:01:40 +0000","geolocations":[{"name":"West","count":1,"lat":-14.3239,"lng":-170.76852,"type":"point"},{"name":"The United States","count":1,"lat":38.89037,"lng":-77.03196,"type":"country"},{"name":"Europe","count":1,"lat":-33.98201,"lng":18.58413,"type":"point"},{"name":"Cape Town","count":1,"lat":-33.91909,"lng":18.42198,"type":"point"},{"name":"Durban","count":1,"lat":-29.84703,"lng":31.02574,"type":"point"},{"name":"The United States’","count":1,"lat":38.89037,"lng":-77.03196,"type":"country"},{"name":"South Africa","count":1,"lat":-25.74587,"lng":28.18764,"type":"country"},{"name":"The Eastern Cape","count":1,"lat":-32.84831,"lng":27.44078,"type":"point"}],"source":"The New York Times"},{"feed_name":"World","feed_url":"https://rss.nytimes.com/services/xml/rss/nyt/World.xml","title":"How Covid-19 Vaccine Launch Evokes Memories of Polio Era","summary":"Many older Americans, shut in during this year’s pandemic, share haunting recollections from the polio era of their childhood.","link":"https://www.nytimes.com/2020/12/25/health/covid-vaccine-polio.html","published":"Fri, 25 Dec 2020 10:00:18 +0000","geolocations":[{"name":"Berkeley","count":1,"lat":37.86988,"lng":-122.27054,"type":"point"},{"name":"Boston","count":1,"lat":42.35866,"lng":-71.05674,"type":"point"},{"name":"U.S.","count":1,"lat":38.89037,"lng":-77.03196,"type":"country"},{"name":"Afghanistan","count":1,"lat":34.53313,"lng":69.10223,"type":"country"},{"name":"Pakistan","count":1,"lat":33.70964,"lng":73.07545,"type":"point"}],"source":"The New York Times"},{"feed_name":"World","feed_url":"https://www.theguardian.com/world/rss","title":"Tunisia minister sacked and arrested in scandal over illegal waste from Italy","summary":"<p>Mustapha Aroui held along with 22 others after 200 containers of decaying household and medical waste discovered in July</p><p>Tunisia’s environment minister has been arrested following the attempted importation of household and hospital waste from Italy.</p><p>Mustapha Aroui was dismissed from his post and <a href=\"https://www.voaafrique.com/a/controverse-autour-des-centaines-de-conteneurs-de-d%C3%A9chets-d-italie/5707396.html\">subsequently arrested</a> on Sunday, along with several other people, <a href=\"https://www.france24.com/fr/afrique/20201221-d%C3%A9chets-italiens-ill%C3%A9gaux-en-tunisie-plusieurs-hauts-responsables-interpell%C3%A9s\">including</a> senior customs officials, members of its waste management agency, Agence Nationale de Gestion des Déchets (<a href=\"http://www.anged.nat.tn/\">ANGed</a>) and a Tunisian diplomat based in Naples.</p> <a href=\"https://www.theguardian.com/global-development/2020/dec/24/tunisia-minister-sacked-and-arrested-in-scandal-over-waste-from-italy-mustapha-aroui\">Continue reading...</a>","link":"https://www.theguardian.com/global-development/2020/dec/24/tunisia-minister-sacked-and-arrested-in-scandal-over-waste-from-italy-mustapha-aroui","published":"Thu, 24 Dec 2020 10:46:37 GMT","geolocations":[{"name":"Tunisia","count":6,"lat":36.80001,"lng":10.1827,"type":"country"},{"name":"Italy","count":3,"lat":41.90322,"lng":12.49565,"type":"country"},{"name":"Naples","count":1,"lat":40.84016,"lng":14.25222,"type":"point"},{"name":"Sousse","count":1,"lat":35.82903,"lng":10.63778,"type":"point"}],"source":"The Guardian"},{"feed_name":"World","feed_url":"https://www.latimes.com/world/rss2.0.xml","title":"Fox News runs fact check in response to defamation charges by voting software firm","summary":"<p>The network is running a pre-taped interview to counter claims made by pro-Trump guests and hosts on election fraud.</p>","link":"https://www.latimes.com/entertainment-arts/business/story/2020-12-19/fox-news-airing-a-fact-check-in-response-to-defamation-charges-by-voting-software-firm","published":"Sat, 19 Dec 2020 19:10:23 -0500","geolocations":[{"name":"London","count":1,"lat":51.50643,"lng":-0.12719,"type":"point"},{"name":"Palo Alto","count":1,"lat":37.44466,"lng":-122.16079,"type":"point"},{"name":"Los Angeles County","count":1,"lat":34.28089,"lng":-119.14472,"type":"point"},{"name":"U.S.","count":1,"lat":38.89037,"lng":-77.03196,"type":"country"},{"name":"The United States","count":3,"lat":38.89037,"lng":-77.03196,"type":"country"}],"source":"Los Angeles Times"},{"feed_name":"World","feed_url":"https://rss.nytimes.com/services/xml/rss/nyt/World.xml","title":"US Will Require UK Travelers to Have a Negative Coronavirus Test","summary":"The new rule, which takes effect on Monday, will apply to Americans as well as foreign nationals.","link":"https://www.nytimes.com/2020/12/24/us/travel-restriction-uk.html","published":"Fri, 25 Dec 2020 14:20:40 +0000","geolocations":[{"name":"Gatwick","count":1,"lat":51.16345,"lng":-0.17476,"type":"point"},{"name":"London","count":2,"lat":51.50643,"lng":-0.12719,"type":"point"},{"name":"The United States","count":1,"lat":38.89037,"lng":-77.03196,"type":"country"},{"name":"New York","count":1,"lat":40.71455,"lng":-74.00714,"type":"point"},{"name":"New Jersey","count":1,"lat":40.21788,"lng":-74.7594,"type":"point"},{"name":"Europe","count":1,"lat":-33.98201,"lng":18.58413,"type":"point"},{"name":"Asia","count":1,"lat":-12.76551,"lng":-76.61171,"type":"point"},{"name":"United Kingdom","count":1,"lat":38.95953,"lng":-91.92768,"type":"point"},{"name":"U.S.","count":1,"lat":38.89037,"lng":-77.03196,"type":"country"}],"source":"The New York Times"},{"feed_name":"World","feed_url":"https://www.latimes.com/world/rss2.0.xml","title":"Harry Reid made Nevada a presidential battleground. Now he wants more","summary":"<p>The former Senate majority leader wants to shove aside Iowa and New Hampshire and make his state first in the nominating process.</p>","link":"https://www.latimes.com/politics/story/2020-12-22/harry-reid-joe-biden-nevada-presidential-calendar","published":"Tue, 22 Dec 2020 08:00:32 -0500","geolocations":[{"name":"Nevada","count":13,"lat":39.16506,"lng":-119.76697,"type":"point"},{"name":"Iowa","count":9,"lat":41.58981,"lng":-93.61538,"type":"point"},{"name":"New Hampshire","count":10,"lat":43.20725,"lng":-71.5366,"type":"point"},{"name":"Henderson","count":1,"lat":36.03178,"lng":-114.98207,"type":"point"},{"name":"Las Vegas","count":2,"lat":36.17193,"lng":-115.14001,"type":"point"},{"name":"West","count":2,"lat":-14.3239,"lng":-170.76852,"type":"point"},{"name":"California","count":2,"lat":38.57944,"lng":-121.49085,"type":"point"},{"name":"America","count":1,"lat":51.43739,"lng":5.98176,"type":"point"},{"name":"South Carolina","count":1,"lat":33.99882,"lng":-81.04537,"type":"point"}],"source":"Los Angeles Times"},{"feed_name":"World","feed_url":"https://rss.nytimes.com/services/xml/rss/nyt/World.xml","title":"Pope Francis Makes Christmas Appeal for Nations to Share Covid-19 Vaccines","summary":"The pope made his remarks from inside the Vatican instead of before large crowds on St. Peter’s Square, as Christians around the world scaled back or reimagined Christmas traditions.","link":"https://www.nytimes.com/2020/12/25/world/europe/pope-francis-christmas-vaccines.html","published":"Fri, 25 Dec 2020 17:08:51 +0000","geolocations":[{"name":"Rome","count":1,"lat":41.90322,"lng":12.49565,"type":"point"},{"name":"St. Peter’S Square","count":1,"lat":52.95231,"lng":-1.14915,"type":"point"}],"source":"The New York Times"},{"feed_name":"World - Europe","feed_url":"http://feeds.bbci.co.uk/news/world/rss.xml","title":"Rags to riches for cat rescued by waste worker","summary":"A waste disposal worker rescues a cat from imminent death while sorting through rubbish at a plant in Russia.","link":"https://www.bbc.co.uk/news/world-europe-55445476","published":"Fri, 25 Dec 2020 13:44:11 GMT","geolocations":[{"name":"Ulyanovsk","count":1,"lat":54.30792,"lng":48.39463,"type":"point"},{"name":"Russia","count":1,"lat":55.75696,"lng":37.61502,"type":"country"},{"name":"Moscow","count":1,"lat":55.75696,"lng":37.61502,"type":"point"}],"source":"BBC"},{"feed_name":"World","feed_url":"https://rss.nytimes.com/services/xml/rss/nyt/World.xml","title":"U.K. Tightens Restrictions as Alarm About Coronavirus Variant Grows","summary":"British officials said severely curtailing human contact was the only way to protect people. Efforts to restart trade stalled, with more than 5,000 trucks stuck at English ports.","link":"https://www.nytimes.com/2020/12/23/world/europe/coronavirus-variant-uk-ports.html","published":"Thu, 24 Dec 2020 16:08:02 +0000","geolocations":[{"name":"England","count":4,"lat":51.50643,"lng":-0.12719,"type":"country"},{"name":"Cambridgeshire","count":1,"lat":52.38033,"lng":-0.06823,"type":"point"},{"name":"Norfolk","count":1,"lat":42.87221,"lng":-80.31663,"type":"point"},{"name":"Oxfordshire","count":1,"lat":51.81809,"lng":-1.28991,"type":"point"},{"name":"Suffolk","count":1,"lat":36.73115,"lng":-76.58895,"type":"point"},{"name":"Sussex","count":1,"lat":45.72357,"lng":-65.51184,"type":"point"},{"name":"London","count":1,"lat":51.50643,"lng":-0.12719,"type":"point"},{"name":"South Africa","count":4,"lat":-25.74587,"lng":28.18764,"type":"country"},{"name":"United Kingdom","count":2,"lat":38.95953,"lng":-91.92768,"type":"point"}],"source":"The New York Times"},{"feed_name":"World","feed_url":"https://www.theguardian.com/world/rss","title":"Maradonaland: Naples plans statues and museum to honour  'Saint Diego'","summary":"<p>City’s murals of Maradona have become pilgrimage sites since footballer’s death in November</p><p>A month since the death of Diego Armando Maradona and the southern Italian city of Naples is looking more like a Maradonaland each day.</p><p>After renaming Napoli football club’s San Paolo Stadium and a train station in his honour this month, local authorities are planning a large museum, commissioning statues and dedicating an entire square to the Argentinian who took the city’s football team to glory and is regarded as one of the greatest players of all time.</p> <a href=\"https://www.theguardian.com/world/2020/dec/25/maradonaland-naples-statues-museum-diego-maradona\">Continue reading...</a>","link":"https://www.theguardian.com/world/2020/dec/25/maradonaland-naples-statues-museum-diego-maradona","published":"Sat, 26 Dec 2020 11:25:01 GMT","geolocations":[{"name":"Diego","count":2,"lat":32.71568,"lng":-117.16171,"type":"point"},{"name":"Naples","count":8,"lat":40.84016,"lng":14.25222,"type":"point"},{"name":"Napoli","count":2,"lat":40.84016,"lng":14.25222,"type":"point"},{"name":"San Giovanni","count":1,"lat":41.99588,"lng":8.77638,"type":"point"},{"name":"El Diego","count":1,"lat":10.25731,"lng":-67.95481,"type":"point"},{"name":"San Gennaro","count":1,"lat":43.89979,"lng":10.63825,"type":"point"},{"name":"Neapolitan","count":1,"lat":26.2028,"lng":-81.80541,"type":"point"},{"name":"Italy","count":1,"lat":41.90322,"lng":12.49565,"type":"country"}],"source":"The Guardian"},{"feed_name":"World","feed_url":"https://www.theguardian.com/world/rss","title":"Israeli jets strike Gaza after rockets fired across border","summary":"<p>Israeli army says it targeted three Hamas sites in Palestinian territory, including a rocket-manufacturing facility </p><p>Israel has targeted a number of sites in Gaza after the army said Palestinian militants had fired rockets into the south of the country.</p><p>The Israeli Defence Force (IDF) said Israeli aircraft had struck three Hamas targets including a rocket manufacturing facility, underground infrastructure and a military post.</p> <a href=\"https://www.theguardian.com/world/2020/dec/26/israeli-jets-strike-gaza-after-rockets-fired-across-border\">Continue reading...</a>","link":"https://www.theguardian.com/world/2020/dec/26/israeli-jets-strike-gaza-after-rockets-fired-across-border","published":"Sat, 26 Dec 2020 06:08:41 GMT","geolocations":[{"name":"Israel","count":5,"lat":31.78003,"lng":35.21873,"type":"country"},{"name":"Gaza","count":4,"lat":-25.04706,"lng":33.64469,"type":"point"},{"name":"Ashkelon","count":1,"lat":31.66667,"lng":34.5697,"type":"point"},{"name":"The Gaza Strip","count":2,"lat":31.40584,"lng":34.37689,"type":"country"},{"name":"Gaza Strip","count":2,"lat":31.40584,"lng":34.37689,"type":"country"}],"source":"The Guardian"},