[{"feed_name":"World","feed_url":"https://www.theguardian.com/world/rss","title":"Chernobyl fears resurface as river dredging begins in exclusion zone","summary":"<p>Scientists warn of threat of nuclear contamination from work on giant E40 waterway linking Baltic to the Black Sea</p><ul><li><a href=\"https://www.theguardian.com/world/2020/mar/06/the-race-to-save-polesia-europes-secret-amazon-aoe\">The race to save Polesia, Europe’s secret Amazon</a></li><li><a href=\"https://www.theguardian.com/environment/series/biodiversity--what-happened-next-\">Read more in our series Biodiversity: what happened next?</a></li></ul><p>The river running past the Chernobyl nuclear reactor is being dredged to create an inland shipping route, potentially resurfacing radioactive sludge from the 1986 disaster that could contaminate drinking water for 8 million people in Ukraine, scientists and conservationists have warned.</p><p>The dredging of the Pripyat began in July and is part of an international project to create the 2,000km (1,240-mile) long <a href=\"https://www.theguardian.com/world/2020/mar/06/the-race-to-save-polesia-europes-secret-amazon-aoe\">E40 waterway</a> linking the Baltic and Black seas, passing through Poland, Belarus and Ukraine. The river – which snakes within 2.5km of the reactor responsible for the world’s worst nuclear disaster – has already been dredged in at least seven different places, five of which are within 10km of the reactor, according to the <a href=\"https://savepolesia.org/\">Save Polesia</a> coalition.</p> <a href=\"https://www.theguardian.com/environment/2020/dec/23/chernobyl-fears-resurface-over-contract-to-dredge-river-in-exclusion-zone-aoe\">Continue reading...</a>","link":"https://www.theguardian.com/environment/2020/dec/23/chernobyl-fears-resurface-over-contract-to-dredge-river-in-exclusion-zone-aoe","published":"Wed, 23 Dec 2020 07:30:38 GMT","geolocations":[{"name":"Chernobyl","count":5,"lat":51.27229,"lng":30.2243,"type":"point"},{"name":"Ukraine","count":3,"lat":50.45056,"lng":30.52428,"type":"country"},{"name":"Baltic","count":1,"lat":40.43737,"lng":-81.74906,"type":"point"},{"name":"Black Seas","count":1,"lat":36.26039,"lng":-115.19865,"type":"point"},{"name":"Poland","count":4,"lat":52.2356,"lng":21.01037,"type":"country"},{"name":"Belarus","count":4,"lat":53.90374,"lng":27.56546,"type":"country"},{"name":"Polesia","count":3,"lat":51.98542,"lng":16.72226,"type":"point"},{"name":"The Pripyat River","count":1,"lat":51.39832,"lng":30.07661,"type":"point"},{"name":"Kyiv","count":2,"lat":50.45056,"lng":30.52428,"type":"point"},{"name":"Europe","count":2,"lat":-33.98201,"lng":18.58413,"type":"point"},{"name":"Kherson","count":1,"lat":46.64009,"lng":32.61421,"type":"point"},{"name":"Siarzewo","count":1,"lat":52.86325,"lng":18.85148,"type":"point"},{"name":"Bison","count":1,"lat":45.53071,"lng":-102.46564,"type":"point"}],"source":"The Guardian"},{"feed_name":"World","feed_url":"https://www.theguardian.com/world/rss","title":"France shooting suspect found dead after three police officers killed","summary":"<p>Man opened fire on gendarmes attending domestic violence incident in village south of Clermont-Ferrand</p><p>A man suspected of killing three gendarmes who were responding to a domestic violence incident in the Puy-de-Dôme region of central France has been found dead, the French interior minister has said.</p><p>“Tonight, the gendarmerie has lost three of its own,” Gérald Darmanin tweeted. “The nation bows before their courage and devotion.” He added that the body of the presumed killer had been found and that he was on his way to the scene.</p> <a href=\"https://www.theguardian.com/world/2020/dec/23/three-police-shot-dead-in-central-france\">Continue reading...</a>","link":"https://www.theguardian.com/world/2020/dec/23/three-police-shot-dead-in-central-france","published":"Wed, 23 Dec 2020 09:00:06 GMT","geolocations":[{"name":"France","count":1,"lat":48.85717,"lng":2.3414,"type":"country"}],"source":"The Guardian"},{"feed_name":"World","feed_url":"https://rss.nytimes.com/services/xml/rss/nyt/World.xml","title":"Kashmir Votes, and India Hails It as Normalcy in a Dominated Region","summary":"India’s ruling party worked to make Kashmir’s rural development council elections a showcase. But a visit by Times reporters showed a place still struggling under heavy-handed rule.","link":"https://www.nytimes.com/2020/12/22/world/asia/kashmir-modi-election.html","published":"Tue, 22 Dec 2020 17:17:53 +0000","geolocations":[{"name":"Kashmir","count":3,"lat":24.86905,"lng":86.18022,"type":"point"},{"name":"India","count":1,"lat":28.63095,"lng":77.21721,"type":"country"}],"source":"The New York Times"},{"feed_name":"World","feed_url":"https://www.theguardian.com/world/rss","title":"Dan Levy on Schitt's Creek: 'Winning nine Emmys was surreal'","summary":"<p>The writer and star of the dysfunctional-family sitcom on his top shows of 2020 and the touching legacy of his hit series</p><p><strong>Was there a </strong><strong>show that everyone else loved this year that you just couldn’t get on with? <br /></strong><a href=\"https://www.theguardian.com/tv-and-radio/tiger-king\">Tiger King</a>. I couldn’t do it. Something about it felt a little too exploitative for me. I never felt OK when I was watching it. Maybe that’s the main thing. There was a full month when everybody was watching it, when I desperately tried to stay part of the conversation. But I just could not invest. And I don’t know, there is something kind of icky about what was going on there. But this is one man’s opinion in a sea of other people.</p><p><strong>Conversely, were there are any shows you enjoyed over lockdown that you didn’t expect to? <br /></strong>The <a href=\"https://www.theguardian.com/cities/2018/oct/24/real-housewives-of-anywhere-what-does-the-series-say-about-the-cities\">Real Housewives of Atlanta</a>. I feel like the characters on that show are so strong and opinionated and have a sense of humour and self-awareness. It’s an incredible alchemy. It’s a great social group that they’ve put together to film. I was surprised to enjoy it, because I worked in reality television for a long time. I hosted the aftershow for <a href=\"https://www.theguardian.com/tv-and-radio/2016/aug/08/the-hills-10-years-on-reality-tv-hollywood-towie-made-in-chelsea-kardashians\">The Hills</a> before my career started. And I think that when you work in reality TV, it kind of pulls back the curtain in a way that doesn’t necessarily make you want to watch more of it. So this was the first reality show that I had watched for a really long time.</p> <a href=\"https://www.theguardian.com/tv-and-radio/2020/dec/23/dan-levy-on-schitts-creek-winning-nine-emmys-was-surreal\">Continue reading...</a>","link":"https://www.theguardian.com/tv-and-radio/2020/dec/23/dan-levy-on-schitts-creek-winning-nine-emmys-was-surreal","published":"Wed, 23 Dec 2020 11:00:43 GMT","geolocations":[{"name":"Atlanta","count":2,"lat":33.74831,"lng":-84.39111,"type":"point"},{"name":"The Hills","count":1,"lat":30.34907,"lng":-97.97735,"type":"point"},{"name":"Toronto","count":1,"lat":43.64869,"lng":-79.38544,"type":"point"}],"source":"The Guardian"},{"feed_name":"World","feed_url":"https://www.theguardian.com/world/rss","title":"The roles I've played brought home to me the scourge of violence against women | Nicole Kidman","summary":"<p>There is a pandemic of violence against women and girls – and we can all act as the vaccine</p><p><em>• </em>Nicole Kidman is an Oscar-winning actor, who played a lead role in 2020 drama The Undoing</p><ul><li><a href=\"https://www.theguardian.com/society/2020/dec/22/nicole-kidman-vows-speak-out-abuse-big-little-lies\">Nicole Kidman vows to speak out against abuse after Big Little Lies role</a><br /></li></ul><p>We have been through the unimaginable this year. Separated from family and people we love, our dreams put on pause, while fearing for our health and our very lives.</p><p>In addition to Covid-19, a shadow pandemic has been unfolding: violence against women. Calls to helplines increased up to fivefold in the <a href=\"https://www.theguardian.com/society/2020/mar/28/lockdowns-world-rise-domestic-violence\">first few weeks</a> of the pandemic. And an issue that was <a href=\"https://www.unwomen.org/en/what-we-do/ending-violence-against-women/facts-and-figures\">already pervasive</a> before Covid-19 hit – evident on the streets, in the tube or a hotel room, on the news, in a conversation with a friend, in the scripts I read and the roles I played – became even more pressing.</p> <a href=\"https://www.theguardian.com/global-development/commentisfree/2020/dec/22/the-roles-ive-played-brought-home-to-me-the-scourge-of-violence-against-women\">Continue reading...</a>","link":"https://www.theguardian.com/global-development/commentisfree/2020/dec/22/the-roles-ive-played-brought-home-to-me-the-scourge-of-violence-against-women","published":"Tue, 22 Dec 2020 14:00:17 GMT","geolocations":[{"name":"Kosovo","count":1,"lat":42.6718,"lng":21.16243,"type":"country"},{"name":"Australia","count":1,"lat":-35.30654,"lng":149.12655,"type":"country"},{"name":"Us","count":1,"lat":38.89037,"lng":-77.03196,"type":"country"}],"source":"The Guardian"},{"feed_name":"World","feed_url":"https://www.aljazeera.com/xml/rss/all.xml","title":"India’s economy appears to be stabilising as shoppers return","summary":"Business activity, company order books and output prices have rebounded sharply since their coronavirus lockdown lows.","link":"https://www.aljazeera.com/economy/2020/12/23/bb-indias-economy-appears-to-be-stabilising-as-shoppers-return","published":"Wed, 23 Dec 2020 04:05:12 +0000","geolocations":[{"name":"India","count":4,"lat":28.63095,"lng":77.21721,"type":"country"},{"name":"U.K.","count":1,"lat":29.93186,"lng":77.81922,"type":"point"}],"source":"Aljazeera"},{"feed_name":"World","feed_url":"https://rss.nytimes.com/services/xml/rss/nyt/World.xml","title":"Lockerbie Bombing of 1988: US Unseals Charges Against New Suspect","summary":"Attorney General William P. Barr said that investigators had obtained a confession in 2012 from a bomb expert admitting his role in the terrorist attack on a jetliner over Scotland.","link":"https://www.nytimes.com/2020/12/21/us/politics/lockerbie-bombing-suspect.html","published":"Tue, 22 Dec 2020 01:22:47 +0000","geolocations":[{"name":"Libya","count":4,"lat":32.89534,"lng":13.18105,"type":"country"},{"name":"The United States","count":1,"lat":38.89037,"lng":-77.03196,"type":"country"},{"name":"United Kingdom","count":1,"lat":38.95953,"lng":-91.92768,"type":"point"},{"name":"Netherlands","count":1,"lat":52.36993,"lng":4.90788,"type":"country"},{"name":"United States","count":1,"lat":38.89037,"lng":-77.03196,"type":"country"},{"name":"Scotland","count":1,"lat":55.95438,"lng":-3.20144,"type":"country"},{"name":"Tunisia","count":1,"lat":36.80001,"lng":10.1827,"type":"country"},{"name":"Tripoli","count":2,"lat":32.89534,"lng":13.18105,"type":"point"}],"source":"The New York Times"},{"feed_name":"World","feed_url":"https://www.latimes.com/world/rss2.0.xml","title":"Column: Will the 2020 presidential campaign turn out to be the low point in modern political civility?","summary":"<p>Polarization has been part of American politics for decades, but in 2020, President Trump took us into dangerous new territory.</p>","link":"https://www.latimes.com/politics/story/2020-12-16/year-in-review-americans-polarization-2020-presidential-campaign","published":"Wed, 16 Dec 2020 08:00:51 -0500","geolocations":[{"name":"St. John’S Church","count":1,"lat":49.93258,"lng":-97.1598,"type":"point"},{"name":"The United States","count":1,"lat":38.89037,"lng":-77.03196,"type":"country"},{"name":"Minneapolis","count":1,"lat":44.97902,"lng":-93.26494,"type":"point"},{"name":"Portland","count":1,"lat":45.51179,"lng":-122.67563,"type":"point"},{"name":"Ore.","count":1,"lat":6.76139,"lng":4.8762,"type":"point"},{"name":"Pennsylvania","count":1,"lat":40.25986,"lng":-76.88223,"type":"point"},{"name":"Wisconsin","count":1,"lat":43.07313,"lng":-89.38644,"type":"point"},{"name":"Buffalo","count":2,"lat":42.88544,"lng":-78.87846,"type":"point"},{"name":"N.Y.","count":2,"lat":40.71455,"lng":-74.00714,"type":"point"}],"source":"Los Angeles Times"},{"feed_name":"World","feed_url":"https://www.latimes.com/world/rss2.0.xml","title":"Trump finds himself isolated in refusal to blame Russia for big cyberattack","summary":"<p>Some lawmakers want the Kremlin punished over the suspected hack, but Trump refuses to point fingers.</p>","link":"https://www.latimes.com/world-nation/story/2020-12-20/lawmakers-experts-baffled-trump-brushes-off-suspected-russian-hack","published":"Sun, 20 Dec 2020 16:10:25 -0500","geolocations":[{"name":"U.S.","count":7,"lat":38.89037,"lng":-77.03196,"type":"country"},{"name":"Russia","count":7,"lat":55.75696,"lng":37.61502,"type":"country"},{"name":"The United States","count":3,"lat":38.89037,"lng":-77.03196,"type":"country"},{"name":"Utah","count":1,"lat":40.76031,"lng":-111.88822,"type":"point"},{"name":"China","count":1,"lat":39.90657,"lng":116.38765,"type":"country"},{"name":"Virginia","count":1,"lat":37.54068,"lng":-77.43367,"type":"point"},{"name":"Austin","count":1,"lat":30.26759,"lng":-97.74299,"type":"point"},{"name":"Wyo","count":1,"lat":39.78186,"lng":-122.19752,"type":"point"},{"name":"Moscow","count":1,"lat":55.75696,"lng":37.61502,"type":"point"},{"name":"Washington","count":1,"lat":38.89037,"lng":-77.03196,"type":"point"}],"source":"Los Angeles Times"},{"feed_name":"World","feed_url":"https://www.latimes.com/world/rss2.0.xml","title":"Column: Biden was left with a mess in Iran. Can he get out of it?","summary":"<p>The first foreign policy challenge for the Biden administration will be reviving the U.S. nuclear deal with Iran.</p>","link":"https://www.latimes.com/politics/story/2020-12-20/biden-was-left-with-a-mess-in-iran-can-he-get-out-of-it","published":"Sun, 20 Dec 2020 07:00:45 -0500","geolocations":[{"name":"Iran","count":16,"lat":35.68877,"lng":51.41503,"type":"country"},{"name":"Tehran","count":3,"lat":35.68877,"lng":51.41503,"type":"point"},{"name":"U.S.","count":5,"lat":38.89037,"lng":-77.03196,"type":"country"},{"name":"The United States","count":3,"lat":38.89037,"lng":-77.03196,"type":"country"},{"name":"New York","count":1,"lat":40.71455,"lng":-74.00714,"type":"point"},{"name":"Delaware","count":1,"lat":39.15803,"lng":-75.52473,"type":"point"},{"name":"United States","count":1,"lat":38.89037,"lng":-77.03196,"type":"country"},{"name":"Washington","count":1,"lat":38.89037,"lng":-77.03196,"type":"point"}],"source":"Los Angeles Times"},{"feed_name":"World","feed_url":"https://www.aljazeera.com/xml/rss/all.xml","title":"Bambari: UN says seized CAR town now under peacekeepers’ control","summary":"The attacks followed government accusations that ex-president Francois Bozize was plotting a coup.","link":"https://www.aljazeera.com/news/2020/12/23/un-says-seized-car-town-under-peacekeepers-control","published":"Wed, 23 Dec 2020 11:38:34 +0000","geolocations":[{"name":"The Central African Republic’S","count":1,"lat":4.39669,"lng":18.5586,"type":"country"},{"name":"Russia","count":1,"lat":55.75696,"lng":37.61502,"type":"country"},{"name":"Rwanda","count":1,"lat":-1.97575,"lng":30.03177,"type":"country"},{"name":"Bangui","count":1,"lat":4.39669,"lng":18.5586,"type":"point"},{"name":"France","count":1,"lat":48.85717,"lng":2.3414,"type":"country"}],"source":"Aljazeera"},{"feed_name":"World","feed_url":"https://www.aljazeera.com/xml/rss/all.xml","title":"Surviving COVID: The challenges facing India’s small businesses","summary":"COVID dealt a heavy blow to India&#039;s small businesses, but some have used technology and creative thinking to survive.","link":"https://www.aljazeera.com/economy/2020/12/23/surviving-covid-the-challenges-facing-indias-small-businesses","published":"Wed, 23 Dec 2020 10:45:17 +0000","geolocations":[{"name":"India","count":9,"lat":28.63095,"lng":77.21721,"type":"country"},{"name":"Mumbai","count":3,"lat":19.14045,"lng":72.88235,"type":"point"},{"name":"Beirut","count":1,"lat":33.89607,"lng":35.50678,"type":"point"},{"name":"Lebanon","count":1,"lat":33.89607,"lng":35.50678,"type":"country"}],"source":"Aljazeera"},{"feed_name":"World","feed_url":"https://www.latimes.com/world/rss2.0.xml","title":"Fox News runs fact check in response to defamation charges by voting software firm","summary":"<p>The network is running a pre-taped interview to counter claims made by pro-Trump guests and hosts on election fraud.</p>","link":"https://www.latimes.com/entertainment-arts/business/story/2020-12-19/fox-news-airing-a-fact-check-in-response-to-defamation-charges-by-voting-software-firm","published":"Sat, 19 Dec 2020 19:10:23 -0500","geolocations":[{"name":"London","count":1,"lat":51.50643,"lng":-0.12719,"type":"point"},{"name":"Palo Alto","count":1,"lat":37.44466,"lng":-122.16079,"type":"point"},{"name":"Los Angeles County","count":1,"lat":34.28089,"lng":-119.14472,"type":"point"},{"name":"U.S.","count":1,"lat":38.89037,"lng":-77.03196,"type":"country"},{"name":"The United States","count":3,"lat":38.89037,"lng":-77.03196,"type":"country"}],"source":"Los Angeles Times"},{"feed_name":"World","feed_url":"https://rss.nytimes.com/services/xml/rss/nyt/World.xml","title":"The virus hits federal death row, prompting calls for delays in executions.","summary":"","link":"https://www.nytimes.com/2020/12/22/world/the-virus-hits-federal-death-row-prompting-calls-for-delays-in-executions.html","published":"Tue, 22 Dec 2020 12:12:03 +0000","geolocations":[{"name":"Terre Haute","count":1,"lat":39.46649,"lng":-87.41301,"type":"point"},{"name":"Ind.","count":1,"lat":28.63095,"lng":77.21721,"type":"country"}],"source":"The New York Times"},{"feed_name":"World","feed_url":"https://www.aljazeera.com/xml/rss/all.xml","title":"Previously loved: Shoppers flock to second-hand luxury fashion","summary":"Jump in second-hand luxury sales could be attributed to consumers leaning towards sustainability in a time of crisis.","link":"https://www.aljazeera.com/economy/2020/12/23/shoppers-with-money-to-burn-covet-secondhand-luxury-fashion","published":"Wed, 23 Dec 2020 00:31:57 +0000","geolocations":[{"name":"Santa Monica","count":1,"lat":34.01158,"lng":-118.49227,"type":"point"},{"name":"California","count":1,"lat":38.57944,"lng":-121.49085,"type":"point"},{"name":"Tradesy","count":1,"lat":46.27758,"lng":4.56131,"type":"point"}],"source":"Aljazeera"},{"feed_name":"World","feed_url":"https://www.latimes.com/world/rss2.0.xml","title":"'Will they let us live?' Inside Xinjiang, survivors of China's internment camps speak","summary":"<p>A vast system of Chinese surveillance, detention, cultural erasure and forced labor has devastated the Uighur people in Xingiang, their homeland.</p>","link":"https://www.latimes.com/world-nation/story/2020-12-17/china-xinjiang-uighurs-muslim-minority-camps","published":"Thu, 17 Dec 2020 13:42:15 -0500","geolocations":[{"name":"Xinjiang","count":19,"lat":35.61469,"lng":111.21768,"type":"point"},{"name":"China","count":5,"lat":39.90657,"lng":116.38765,"type":"country"},{"name":"Jevlan Shirmemmet","count":1,"lat":45.38941,"lng":-84.92315,"type":"point"},{"name":"Istanbul","count":1,"lat":41.06201,"lng":28.98877,"type":"point"},{"name":"Turkey","count":2,"lat":39.92109,"lng":32.85391,"type":"country"},{"name":"Kashgar","count":2,"lat":51.48714,"lng":0.09757,"type":"point"},{"name":"Korla","count":5,"lat":22.98609,"lng":85.13433,"type":"point"},{"name":"East Turkestan","count":1,"lat":43.31648,"lng":68.2409,"type":"point"},{"name":"Urumqi","count":2,"lat":43.78787,"lng":87.58627,"type":"point"},{"name":"Google Earth","count":1,"lat":38.76564,"lng":-90.46003,"type":"point"},{"name":"U.S.","count":1,"lat":38.89037,"lng":-77.03196,"type":"country"}],"source":"Los Angeles Times"},{"feed_name":"World","feed_url":"https://www.theguardian.com/world/rss","title":"Hunting Ghislaine: unpicking truth from conspiracy in the Epstein saga","summary":"<p>John Sweeney ‘cracked up’ after leaving the BBC when an investigation went bad. He talks about his long obsession with the Maxwells – and the show that relaunched his career</p><p>“You can feel sorry for someone,” says John Sweeney, “and still want them to face justice.” He’s talking about Hunting Ghislaine, the compelling podcast in which the investigative reporter unpicks the story of Ghislaine Maxwell, the 58-year-old British socialite who is currently in jail, awaiting trial for procuring and trafficking underage girls for the late sexual predator Jeffrey Epstein and others. Ghislaine, who denies the charges, faces 35 years in jail if convicted.</p><p>Does he think she’s evil? By way of reply, Sweeney tells me that in January he testified against Darko Tasic<strong>,</strong> the Serbian fighter later jailed for his role in the 1999 massacre of 113 Albanian men and boys in Kosova. “That,” he says, “was evil.”</p> <a href=\"https://www.theguardian.com/tv-and-radio/2020/dec/23/hunting-ghislaine-podcast-john-sweeney\">Continue reading...</a>","link":"https://www.theguardian.com/tv-and-radio/2020/dec/23/hunting-ghislaine-podcast-john-sweeney","published":"Wed, 23 Dec 2020 07:00:38 GMT","geolocations":[{"name":"Kosova","count":1,"lat":42.6718,"lng":21.16243,"type":"country"},{"name":"Oxford","count":1,"lat":51.75629,"lng":-1.25951,"type":"point"},{"name":"Gaza","count":1,"lat":-25.04706,"lng":33.64469,"type":"point"},{"name":"Podcast","count":2,"lat":48.15764,"lng":-4.13881,"type":"point"},{"name":"New York’S","count":1,"lat":40.71455,"lng":-74.00714,"type":"point"},{"name":"Central Park","count":1,"lat":40.78144,"lng":-73.96516,"type":"point"},{"name":"Russia","count":1,"lat":55.75696,"lng":37.61502,"type":"country"},{"name":"New York","count":1,"lat":40.71455,"lng":-74.00714,"type":"point"},{"name":"America","count":1,"lat":51.43739,"lng":5.98176,"type":"point"}],"source":"The Guardian"},{"feed_name":"World","feed_url":"https://www.latimes.com/world/rss2.0.xml","title":"For a nurse in the COVID unit, death is part of the day","summary":"<p>Once nurses enter the COVID-19 ward, they often feel as isolated as their patients.</p>","link":"https://www.latimes.com/world-nation/story/2020-12-20/a-nurse-confronts-death-in-covid-19-un","published":"Sun, 20 Dec 2020 07:00:18 -0500","geolocations":[{"name":"New Mexico","count":1,"lat":35.69177,"lng":-105.93824,"type":"point"},{"name":"Houston","count":4,"lat":29.76078,"lng":-95.36952,"type":"point"},{"name":"Jose","count":1,"lat":40.83551,"lng":-78.67707,"type":"point"},{"name":"Texas","count":2,"lat":30.26759,"lng":-97.74299,"type":"point"},{"name":"Beaumont","count":1,"lat":53.35783,"lng":-113.41366,"type":"point"},{"name":"San Antonio","count":1,"lat":29.42458,"lng":-98.49461,"type":"point"},{"name":"Louisiana","count":1,"lat":30.44335,"lng":-91.18664,"type":"point"}],"source":"Los Angeles Times"},{"feed_name":"World","feed_url":"https://rss.nytimes.com/services/xml/rss/nyt/World.xml","title":"Your Tuesday Briefing","summary":"Parts of Asia and Europe bar travelers from Britain.","link":"https://www.nytimes.com/2020/12/21/briefing/virus-variant-bans-china-electricity.html","published":"Tue, 22 Dec 2020 03:05:53 +0000","geolocations":[{"name":"Asia","count":1,"lat":-12.76551,"lng":-76.61171,"type":"point"},{"name":"Europe","count":1,"lat":-33.98201,"lng":18.58413,"type":"point"},{"name":"United Kingdom","count":3,"lat":38.95953,"lng":-91.92768,"type":"point"},{"name":"U.K.","count":1,"lat":29.93186,"lng":77.81922,"type":"point"},{"name":"Hong Kong","count":2,"lat":22.2783,"lng":114.16039,"type":"point"},{"name":"France","count":2,"lat":48.85717,"lng":2.3414,"type":"country"},{"name":"Saudi Arabia","count":1,"lat":24.68211,"lng":46.68722,"type":"country"},{"name":"Austria","count":1,"lat":48.20263,"lng":16.36842,"type":"country"},{"name":"Belgium","count":1,"lat":50.84439,"lng":4.35609,"type":"country"},{"name":"Bulgaria","count":1,"lat":42.69718,"lng":23.32433,"type":"country"},{"name":"Germany","count":1,"lat":52.51604,"lng":13.37691,"type":"country"},{"name":"Ireland","count":1,"lat":53.34807,"lng":-6.24827,"type":"country"},{"name":"Italy","count":1,"lat":41.90322,"lng":12.49565,"type":"country"},{"name":"Netherlands","count":1,"lat":52.36993,"lng":4.90788,"type":"country"},{"name":"Canada","count":1,"lat":45.42178,"lng":-75.69116,"type":"country"},{"name":"India","count":1,"lat":28.63095,"lng":77.21721,"type":"country"},{"name":"Iran","count":1,"lat":35.68877,"lng":51.41503,"type":"country"},{"name":"Israel","count":1,"lat":31.78003,"lng":35.21873,"type":"country"},{"name":"Russia","count":1,"lat":55.75696,"lng":37.61502,"type":"country"}],"source":"The New York Times"},{"feed_name":"World","feed_url":"https://www.theguardian.com/world/rss","title":"'Darkest days ahead': Joe Biden gives sobering message on Covid – video","summary":"<p>Biden said the US would have dark days ahead in tackling the coronavirus pandemic and things would get worse before they improved.</p><p>Monday saw the Covid-19 cases pass 18 million in the US according to&nbsp;<a href=\"https://www.theguardian.com/world/ng-interactive/2020/sep/21/coronavirus-covid-19-map-us-cases-deaths-state-by-state\">data</a>&nbsp;from&nbsp;Johns Hopkins University, and Biden said the vaccine rollout would not change trends quickly</p><ul><li><a href=\"https://www.theguardian.com/world/live/2020/dec/22/coronavirus-live-news-biden-receives-vaccine-as-global-death-toll-passes-17m?page=with:block-5fe24fe48f08da4121f4bb18#block-5fe24fe48f08da4121f4bb18\">Coronavirus: latest updates</a></li></ul> <a href=\"https://www.theguardian.com/us-news/video/2020/dec/22/darkest-days-ahead-joe-biden-gives-sobering-message-on-covid-video\">Continue reading...</a>","link":"https://www.theguardian.com/us-news/video/2020/dec/22/darkest-days-ahead-joe-biden-gives-sobering-message-on-covid-video","published":"Tue, 22 Dec 2020 20:58:15 GMT","geolocations":[{"name":"Us","count":2,"lat":38.89037,"lng":-77.03196,"type":"country"}],"source":"The Guardian"},{"feed_name":"World - Europe","feed_url":"http://feeds.bbci.co.uk/news/world/rss.xml","title":"Lionel Messi breaks Pelé scoring record","summary":"Lionel Messi scores his 644th goal for Barcelona during his side's win over Real Valladolid to break Pele's record of the most goals for one club.","link":"https://www.bbc.co.uk/sport/football/55342358","published":"Tue, 22 Dec 2020 23:49:56 GMT","geolocations":[{"name":"Barcelona","count":12,"lat":41.38804,"lng":2.17001,"type":"point"},{"name":"Argentina","count":1,"lat":-34.60849,"lng":-58.37344,"type":"country"},{"name":"Messi","count":1,"lat":-37.72525,"lng":144.7204,"type":"point"},{"name":"Brazil","count":1,"lat":-15.77829,"lng":-47.92909,"type":"country"},{"name":"Valladolid","count":2,"lat":41.65419,"lng":-4.73214,"type":"point"},{"name":"Atletico","count":2,"lat":-19.8685,"lng":-43.89577,"type":"point"}],"source":"BBC"},{"feed_name":"World","feed_url":"https://www.theguardian.com/world/rss","title":"Uganda detains leading lawyer for LGBT rights on money-laundering charges","summary":"<p>Opposition figures say charges against Nicholas Opiyo, known for defending the rights of society’s most vulnerable, are baseless</p><p>Security agencies in Uganda have arrested a prominent human rights lawyer over alleged money laundering.</p><p>Nicholas Opiyo, known for representing LGBTQ+ people, was arrested in a restaurant in the capital, Kampala, on Tuesday by plainclothes security and financial intelligence officers.</p> <a href=\"https://www.theguardian.com/global-development/2020/dec/23/uganda-detains-leading-lawyer-for-lgbt-rights-on-money-laundering-charges\">Continue reading...</a>","link":"https://www.theguardian.com/global-development/2020/dec/23/uganda-detains-leading-lawyer-for-lgbt-rights-on-money-laundering-charges","published":"Wed, 23 Dec 2020 10:56:42 GMT","geolocations":[{"name":"Uganda","count":7,"lat":0.31589,"lng":32.57501,"type":"country"},{"name":"Kampala","count":1,"lat":0.31589,"lng":32.57501,"type":"point"},{"name":"Us","count":1,"lat":38.89037,"lng":-77.03196,"type":"country"}],"source":"The Guardian"},{"feed_name":"World","feed_url":"https://www.latimes.com/world/rss2.0.xml","title":"Harry Reid made Nevada a presidential battleground. Now he wants more","summary":"<p>The former Senate majority leader wants to shove aside Iowa and New Hampshire and make his state first in the nominating process.</p>","link":"https://www.latimes.com/politics/story/2020-12-22/harry-reid-joe-biden-nevada-presidential-calendar","published":"Tue, 22 Dec 2020 08:00:32 -0500","geolocations":[{"name":"Nevada","count":13,"lat":39.16506,"lng":-119.76697,"type":"point"},{"name":"Iowa","count":9,"lat":41.58981,"lng":-93.61538,"type":"point"},{"name":"New Hampshire","count":10,"lat":43.20725,"lng":-71.5366,"type":"point"},{"name":"Henderson","count":1,"lat":36.03178,"lng":-114.98207,"type":"point"},{"name":"Las Vegas","count":2,"lat":36.17193,"lng":-115.14001,"type":"point"},{"name":"West","count":2,"lat":-14.3239,"lng":-170.76852,"type":"point"},{"name":"California","count":2,"lat":38.57944,"lng":-121.49085,"type":"point"},{"name":"America","count":1,"lat":51.43739,"lng":5.98176,"type":"point"},{"name":"South Carolina","count":1,"lat":33.99882,"lng":-81.04537,"type":"point"}],"source":"Los Angeles Times"},{"feed_name":"World","feed_url":"https://www.latimes.com/world/rss2.0.xml","title":"FDA authorizes vaccine from Moderna and NIH, ramping up fight against COVID-19","summary":"<p>The Food and Drug Administration grants emergency-use authorization to the COVID-19 vaccine from Moderna and the National Institutes of Health.</p>","link":"https://www.latimes.com/science/story/2020-12-18/fda-authorizes-covid-vaccine-moderna-nih","published":"Fri, 18 Dec 2020 19:49:52 -0500","geolocations":[{"name":"Pfizer","count":1,"lat":51.26584,"lng":-0.25106,"type":"point"},{"name":"The United States","count":3,"lat":38.89037,"lng":-77.03196,"type":"country"},{"name":"Southern California","count":1,"lat":41.77455,"lng":-84.88371,"type":"point"},{"name":"The San Joaquin Valley","count":1,"lat":34.28543,"lng":-118.68464,"type":"point"},{"name":"U.S.","count":1,"lat":38.89037,"lng":-77.03196,"type":"country"},{"name":"California","count":1,"lat":38.57944,"lng":-121.49085,"type":"point"},{"name":"Washington","count":1,"lat":38.89037,"lng":-77.03196,"type":"point"},{"name":"Fairfield","count":1,"lat":38.24924,"lng":-122.0443,"type":"point"},{"name":"Conn.","count":1,"lat":43.99815,"lng":-80.56848,"type":"point"}],"source":"Los Angeles Times"},{"feed_name":"World - Europe","feed_url":"http://feeds.bbci.co.uk/news/world/rss.xml","title":"Bats, roadblocks and the origins of coronavirus","summary":"The BBC came across roadblocks and checkpoints as they tried to report on a decade-long project into viruses that bats carry.","link":"https://www.bbc.co.uk/news/world-asia-55404485","published":"Mon, 21 Dec 2020 22:28:52 GMT","geolocations":[{"name":"China","count":3,"lat":39.90657,"lng":116.38765,"type":"country"},{"name":"Yunnan Province","count":1,"lat":43.07715,"lng":-7.66689,"type":"point"}],"source":"BBC"},{"feed_name":"World","feed_url":"https://rss.nytimes.com/services/xml/rss/nyt/World.xml","title":"Mexico misled the public about an outbreak in the capital, a Times investigation finds.","summary":"","link":"https://www.nytimes.com/2020/12/21/world/mexico-misled-the-public-about-an-outbreak-in-the-capital-a-times-investigation-finds.html","published":"Tue, 22 Dec 2020 10:18:01 +0000","geolocations":[{"name":"Mexico","count":3,"lat":23.94757,"lng":-102.5411,"type":"country"},{"name":"Mexico City","count":2,"lat":19.27691,"lng":-99.13939,"type":"point"}],"source":"The New York Times"},{"feed_name":"World","feed_url":"https://rss.nytimes.com/services/xml/rss/nyt/World.xml","title":"Protests at Oregon State Capitol Over Virus Restrictions","summary":"","link":"https://www.nytimes.com/2020/12/21/world/oregon-coronavirus-protests.html","published":"Tue, 22 Dec 2020 04:36:34 +0000","geolocations":[{"name":"Oregon","count":1,"lat":44.93326,"lng":-123.04381,"type":"point"},{"name":"Salem","count":1,"lat":44.93326,"lng":-123.04381,"type":"point"}],"source":"The New York Times"},{"feed_name":"World","feed_url":"https://rss.nytimes.com/services/xml/rss/nyt/World.xml","title":"Xin Xing, Giant Panda With Progeny Around the Globe, Dies at 38","summary":"The star of China’s Chongqing Zoo was the world’s oldest panda in captivity. More than 150 of her descendants have lived in several countries.","link":"https://www.nytimes.com/2020/12/23/world/asia/china-giant-panda-xin-xing-dead.html","published":"Wed, 23 Dec 2020 10:39:33 +0000","geolocations":[{"name":"China","count":2,"lat":39.90657,"lng":116.38765,"type":"country"}],"source":"The New York Times"},{"feed_name":"World","feed_url":"https://rss.nytimes.com/services/xml/rss/nyt/World.xml","title":"Your Wednesday Briefing","summary":"Running out of I.C.U. beds in South Korea.","link":"https://www.nytimes.com/2020/12/22/briefing/south-korea-hospitals-eu-travel-bans.html","published":"Tue, 22 Dec 2020 19:32:21 +0000","geolocations":[{"name":"South Korea","count":2,"lat":37.55886,"lng":126.99989,"type":"country"},{"name":"Seoul","count":1,"lat":37.55886,"lng":126.99989,"type":"point"},{"name":"Daegu","count":1,"lat":3.65825,"lng":-76.69169,"type":"point"}],"source":"The New York Times"},{"feed_name":"World","feed_url":"https://rss.nytimes.com/services/xml/rss/nyt/World.xml","title":"Concerns About Coronavirus Variant Cut Off U.K. From Europe","summary":"Dozens of countries banned air and rail links to Britain, foreshadowing what a “no deal” Brexit could look like in 10 days.","link":"https://www.nytimes.com/2020/12/21/world/europe/coronavirus-variant-uk.html","published":"Tue, 22 Dec 2020 19:22:18 +0000","geolocations":[{"name":"United Kingdom","count":2,"lat":38.95953,"lng":-91.92768,"type":"point"},{"name":"London","count":2,"lat":51.50643,"lng":-0.12719,"type":"point"},{"name":"England","count":1,"lat":51.50643,"lng":-0.12719,"type":"country"}],"source":"The New York Times"},{"feed_name":"World","feed_url":"https://rss.nytimes.com/services/xml/rss/nyt/World.xml","title":"Mexico Misled Citizens About the Severity of Coronavirus in its Capital","summary":"The federal government had data that should have prompted an immediate lockdown in early December. Instead, it kept the city open for another two weeks.","link":"https://www.nytimes.com/2020/12/21/world/americas/mexico-city-covid.html","published":"Tue, 22 Dec 2020 17:53:00 +0000","geolocations":[{"name":"Mexico City","count":3,"lat":19.27691,"lng":-99.13939,"type":"point"},{"name":"Mexico","count":2,"lat":23.94757,"lng":-102.5411,"type":"country"}],"source":"The New York Times"},{"feed_name":"World","feed_url":"https://www.latimes.com/world/rss2.0.xml","title":"Column: Why the U.S. still hasn't solved its mask and glove shortages","summary":"<p>How can it be that we helped develop a vaccine against COVID-19, but front-line healthcare workers still face shortages of simple protective equipment?</p>","link":"https://www.latimes.com/politics/story/2020-12-16/column-why-the-u-s-still-hasnt-solved-its-mask-and-glove-shortages","published":"Wed, 16 Dec 2020 07:00:30 -0500","geolocations":[{"name":"U.S.","count":1,"lat":38.89037,"lng":-77.03196,"type":"country"},{"name":"The United States","count":2,"lat":38.89037,"lng":-77.03196,"type":"country"}],"source":"Los Angeles Times"},{"feed_name":"World","feed_url":"https://www.aljazeera.com/xml/rss/all.xml","title":"Analysis: A turbulent 2020 spurs Greece to rearm","summary":"As Greece and Turkey wrap their most acrimonious year since 1974, Athens buys 18 French Rafale jets in $3bn deal.","link":"https://www.aljazeera.com/features/2020/12/23/a-turbulent-2020-spurs-greece-to-rearm","published":"Wed, 23 Dec 2020 11:13:48 +0000","geolocations":[{"name":"Greece","count":36,"lat":37.97614,"lng":23.7364,"type":"country"},{"name":"Turkey","count":29,"lat":39.92109,"lng":32.85391,"type":"country"},{"name":"Athens","count":5,"lat":37.97614,"lng":23.7364,"type":"point"},{"name":"France","count":8,"lat":48.85717,"lng":2.3414,"type":"country"},{"name":"Germany","count":3,"lat":52.51604,"lng":13.37691,"type":"country"},{"name":"Cyprus","count":8,"lat":35.17197,"lng":33.36489,"type":"country"},{"name":"Meteor","count":1,"lat":45.69121,"lng":-91.3652,"type":"point"},{"name":"East Med","count":1,"lat":18.3217,"lng":-64.86406,"type":"point"},{"name":"The United Arab Emirates","count":3,"lat":24.46918,"lng":54.37173,"type":"country"},{"name":"Emirates","count":1,"lat":24.46918,"lng":54.37173,"type":"country"},{"name":"Egypt","count":3,"lat":30.04427,"lng":31.23525,"type":"country"},{"name":"Israel","count":4,"lat":31.78003,"lng":35.21873,"type":"country"},{"name":"Belarus","count":1,"lat":53.90374,"lng":27.56546,"type":"country"},{"name":"Ankara","count":2,"lat":39.92109,"lng":32.85391,"type":"point"},{"name":"Varosha","count":1,"lat":43.13275,"lng":24.71831,"type":"point"},{"name":"Mediterranean","count":1,"lat":25.04446,"lng":55.13858,"type":"point"},{"name":"Spain","count":1,"lat":40.41955,"lng":-3.69196,"type":"country"},{"name":"Italy","count":1,"lat":41.90322,"lng":12.49565,"type":"country"},{"name":"Russia","count":4,"lat":55.75696,"lng":37.61502,"type":"country"},{"name":"Crimea","count":1,"lat":45.33314,"lng":34.36801,"type":"point"},{"name":"Europe","count":1,"lat":-33.98201,"lng":18.58413,"type":"point"},{"name":"The East Mediterranean","count":3,"lat":33.34629,"lng":-111.8169,"type":"point"},{"name":"The United States","count":1,"lat":38.89037,"lng":-77.03196,"type":"country"},{"name":"Us","count":5,"lat":38.89037,"lng":-77.03196,"type":"country"},{"name":"America","count":2,"lat":51.43739,"lng":5.98176,"type":"point"},{"name":"Berlin","count":1,"lat":52.51604,"lng":13.37691,"type":"point"},{"name":"Saudi Arabia","count":1,"lat":24.68211,"lng":46.68722,"type":"country"},{"name":"Bahrain","count":1,"lat":26.22952,"lng":50.57604,"type":"country"},{"name":"India","count":1,"lat":28.63095,"lng":77.21721,"type":"country"},{"name":"Pakistan","count":1,"lat":33.70964,"lng":73.07545,"type":"point"},{"name":"Libya","count":1,"lat":32.89534,"lng":13.18105,"type":"country"},{"name":"Syria","count":1,"lat":33.51656,"lng":36.31708,"type":"point"}],"source":"Aljazeera"},{"feed_name":"World","feed_url":"https://www.latimes.com/world/rss2.0.xml","title":"U.S. cybersecurity agency warns of 'grave' threat from hack","summary":"<p>U.S. authorities are expressing increased alarm about an intrusion into computer systems around the globe that officials suspect Russia is behind.</p>","link":"https://www.latimes.com/world-nation/story/2020-12-17/us-cybersecurity-agency-warns-of-grave-threat-from-hack","published":"Thu, 17 Dec 2020 13:30:30 -0500","geolocations":[{"name":"Russia","count":3,"lat":55.75696,"lng":37.61502,"type":"country"},{"name":"Moscow","count":1,"lat":55.75696,"lng":37.61502,"type":"point"},{"name":"U.S.","count":3,"lat":38.89037,"lng":-77.03196,"type":"country"},{"name":"Texas","count":1,"lat":30.26759,"lng":-97.74299,"type":"point"}],"source":"Los Angeles Times"},{"feed_name":"World","feed_url":"https://rss.nytimes.com/services/xml/rss/nyt/World.xml","title":"1998 U.S. Embassy Bombing Victims Are Assured Equal Compensation in Deal With Sudan","summary":"A new congressional agreement largely puts to rest months of furious negotiations over how to help Sudan’s fragile transitional government, which faces lawsuits accusing the country of harboring Al Qaeda.","link":"https://www.nytimes.com/2020/12/21/us/politics/sudan-embassy-bombing-compensation.html","published":"Mon, 21 Dec 2020 23:55:03 +0000","geolocations":[{"name":"Washington","count":1,"lat":38.89037,"lng":-77.03196,"type":"point"},{"name":"East Africa","count":1,"lat":34.07879,"lng":-90.70776,"type":"point"},{"name":"Sudan","count":4,"lat":15.58651,"lng":32.52318,"type":"point"},{"name":"Israel","count":1,"lat":31.78003,"lng":35.21873,"type":"country"},{"name":"Kenya","count":1,"lat":-1.28352,"lng":36.82379,"type":"country"},{"name":"Tanzania","count":1,"lat":-6.1735,"lng":35.74689,"type":"country"},{"name":"United States","count":1,"lat":38.89037,"lng":-77.03196,"type":"country"}],"source":"The New York Times"},{"feed_name":"World","feed_url":"https://www.theguardian.com/world/rss","title":"'Glamping' at Singapore airport offers in-tents retail therapy","summary":"<p>Guests grounded by Covid can ‘wake up to the refreshing view of the majestic HSBC Rain Vortex’ or peg a bargain in the shops</p><ul><li><a href=\"https://www.theguardian.com/world/series/coronavirus-live/latest\">Coronavirus – latest updates</a></li><li><a href=\"https://www.theguardian.com/world/coronavirus-outbreak\">See all our coronavirus coverage</a></li></ul><p>Singapore’s Changi airport is charging customers up to $269 per night for the chance to camp in a tent in its retail wing, the latest unusual travel experience aimed at boosting revenue during the pandemic.</p><p>Tickets for the “glamping” experience, which have already sold out, offer guests the chance to “wake up to the refreshing view of the majestic HSBC Rain Vortex”, the world’s largest indoor waterfall. Tents are four metres in diameter and come with blankets. Shopping discounts are also included.</p> <a href=\"https://www.theguardian.com/world/2020/dec/23/glamping-at-singapore-airport-offers-in-tents-retail-therapy-covid\">Continue reading...</a>","link":"https://www.theguardian.com/world/2020/dec/23/glamping-at-singapore-airport-offers-in-tents-retail-therapy-covid","published":"Wed, 23 Dec 2020 05:45:00 GMT","geolocations":[{"name":"Singapore","count":3,"lat":1.29041,"lng":103.85211,"type":"country"},{"name":"Changi","count":1,"lat":1.36996,"lng":103.99311,"type":"point"},{"name":"Taiwan","count":1,"lat":25.03737,"lng":121.56355,"type":"country"},{"name":"England","count":1,"lat":51.50643,"lng":-0.12719,"type":"country"}],"source":"The Guardian"},{"feed_name":"World","feed_url":"https://rss.nytimes.com/services/xml/rss/nyt/World.xml","title":"Citing Coal Shortages, China Rations Electricity for Millions","summary":"Warning of coal shortages, officials are trying to curb energy usage by telling residents not to use electric stoves and extinguishing lights on building facades and billboards.","link":"https://www.nytimes.com/2020/12/21/world/asia/china-electricity-coal-shortage.html","published":"Mon, 21 Dec 2020 14:08:26 +0000","geolocations":[{"name":"China","count":4,"lat":39.90657,"lng":116.38765,"type":"country"},{"name":"Australia","count":3,"lat":-35.30654,"lng":149.12655,"type":"country"},{"name":"Hunan","count":1,"lat":10.08527,"lng":124.11748,"type":"point"}],"source":"The New York Times"},{"feed_name":"World","feed_url":"https://www.theguardian.com/world/rss","title":"NHS chiefs urge PM to extend Brexit transition by a month","summary":"<p>No-deal departure could put patients at risk and push Covid-hit health service ‘over the edge’, says letter</p><ul><li><a href=\"https://www.theguardian.com/world/series/coronavirus-live/latest\">Coronavirus – latest updates</a></li><li><a href=\"https://www.theguardian.com/world/coronavirus-outbreak\">See all our coronavirus coverage</a></li></ul><p>NHS leaders have called on Boris Johnson to extend the <a href=\"https://viewer.gutools.co.uk/politics/eu-referendum\">Brexit</a> transition period by a month, telling the prime minister that a no-deal exit could risk the health of patients during the Covid-19 crisis.</p><p>Faced with an alarming rise in infections, they said a month’s delay would take the health service out of “the immediate danger zone” and would “enable the NHS to continue to focus on fighting the pandemic without having to contend with disruptive changes brought about by a no-deal outcome”.</p> <a href=\"https://www.theguardian.com/society/2020/dec/23/nhs-chiefs-urge-pm-to-extend-brexit-transition-by-a-month\">Continue reading...</a>","link":"https://www.theguardian.com/society/2020/dec/23/nhs-chiefs-urge-pm-to-extend-brexit-transition-by-a-month","published":"Wed, 23 Dec 2020 06:00:36 GMT","geolocations":[{"name":"England","count":1,"lat":51.50643,"lng":-0.12719,"type":"country"},{"name":"Kent","count":1,"lat":47.3807,"lng":-122.23741,"type":"point"},{"name":"Sheffield","count":1,"lat":53.38311,"lng":-1.46454,"type":"point"},{"name":"Michigan","count":1,"lat":42.73194,"lng":-84.55225,"type":"point"}],"source":"The Guardian"},{"feed_name":"World","feed_url":"https://www.theguardian.com/world/rss","title":"'Black book' of thousands of illegal migrant pushbacks presented to EU","summary":"<p>Shocking dossier of systematic violations of asylum seekers along the notorious ‘Balkan route’ compiled by watchdog groups</p><p>A 1,500-page “black book” documenting hundreds of illegal pushbacks against asylum seekers by authorities on Europe’s external borders was released last week and handed over to the EU commission.</p><p>Compiled by the watchdog<em> </em>organisation Border Violence Monitoring Network (BVMN), the Black Book of Pushbacks is a collection of 892 group testimonies, detailing the experiences of 12,654 victims of human rights violations along the Balkan migration route, one of the most gruelling in the recent migrant crisis given the alleged <a href=\"https://www.theguardian.com/global-development/2020/oct/23/croatia-denies-migrant-border-attacks-after-new-reports-of-brutal-pushbacks\"> violence of </a>border police officers.</p> <a href=\"https://www.theguardian.com/global-development/2020/dec/23/black-book-of-thousands-of-migrant-pushbacks-presented-to-eu\">Continue reading...</a>","link":"https://www.theguardian.com/global-development/2020/dec/23/black-book-of-thousands-of-migrant-pushbacks-presented-to-eu","published":"Wed, 23 Dec 2020 07:15:38 GMT","geolocations":[{"name":"Europe","count":2,"lat":-33.98201,"lng":18.58413,"type":"point"},{"name":"Balkan","count":1,"lat":40.21579,"lng":28.81133,"type":"point"},{"name":"Asia","count":1,"lat":-12.76551,"lng":-76.61171,"type":"point"},{"name":"The Middle East","count":1,"lat":39.29996,"lng":-76.58967,"type":"point"},{"name":"Africa","count":1,"lat":43.10832,"lng":12.77534,"type":"point"},{"name":"Balkans","count":1,"lat":40.21579,"lng":28.81133,"type":"point"},{"name":"Croatia","count":3,"lat":45.80724,"lng":15.96757,"type":"country"},{"name":"Bosnia-Herzegovina","count":4,"lat":43.85946,"lng":18.43582,"type":"country"},{"name":"United Left","count":1,"lat":37.91508,"lng":-82.59588,"type":"point"},{"name":"Brussels","count":1,"lat":50.84439,"lng":4.35609,"type":"point"},{"name":"Pakistan","count":1,"lat":33.70964,"lng":73.07545,"type":"point"},{"name":"Afghanistan","count":1,"lat":34.53313,"lng":69.10223,"type":"country"},{"name":"Canton","count":1,"lat":40.79788,"lng":-81.37194,"type":"point"}],"source":"The Guardian"},{"feed_name":"World","feed_url":"https://www.theguardian.com/world/rss","title":"Organic meat production just as bad for climate, study finds","summary":"<p>Analysis also found the lowest impact meat was still far more damaging than the worst plant foods</p><p>The cost of the climate damage caused by organic meat production is just as high as that of conventionally farmed meat, according to research.</p><p>The analysis estimated the greenhouse gas emissions resulting from different foods and calculated how much their prices would need to rise to cover the harm they cause by fuelling the climate emergency.</p> <a href=\"https://www.theguardian.com/environment/2020/dec/23/organic-meat-production-just-as-bad-for-climate-study-finds\">Continue reading...</a>","link":"https://www.theguardian.com/environment/2020/dec/23/organic-meat-production-just-as-bad-for-climate-study-finds","published":"Wed, 23 Dec 2020 10:42:50 GMT","geolocations":[{"name":"South America","count":1,"lat":44.76704,"lng":-93.92739,"type":"point"},{"name":"Germany","count":1,"lat":52.51604,"lng":13.37691,"type":"country"}],"source":"The Guardian"},{"feed_name":"World","feed_url":"https://rss.nytimes.com/services/xml/rss/nyt/World.xml","title":"Police Took Their Son Away. Then the Merchants of Hope Showed Up.","summary":"The police seize and kill young men in Nigeria. Then pastors, lawyers and so-called human rights advocates squeeze money out of their families, promising to help find them.","link":"https://www.nytimes.com/2020/12/23/world/africa/nigeria-police-SARS.html","published":"Wed, 23 Dec 2020 10:00:32 +0000","geolocations":[{"name":"Awka","count":1,"lat":6.20777,"lng":7.07534,"type":"point"},{"name":"Awkuzu","count":1,"lat":5.53851,"lng":7.50056,"type":"point"}],"source":"The New York Times"},{"feed_name":"World - Europe","feed_url":"http://feeds.bbci.co.uk/news/world/rss.xml","title":"Covid-19: 'Losing Christmas is irreparable damage'","summary":"Foppolo ski resort in the Italian Alps is shut and will miss the all-important Christmas ski season.","link":"https://www.bbc.co.uk/news/world-europe-55414708","published":"Wed, 23 Dec 2020 00:01:35 GMT","geolocations":[{"name":"Italy","count":2,"lat":41.90322,"lng":12.49565,"type":"country"},{"name":"Europe","count":1,"lat":-33.98201,"lng":18.58413,"type":"point"},{"name":"Bergamo","count":1,"lat":45.69523,"lng":9.66951,"type":"point"}],"source":"BBC"},{"feed_name":"World - Europe","feed_url":"http://feeds.bbci.co.uk/news/world/rss.xml","title":"The pioneering lawyer who fought for women’s suffrage in India","summary":"Mithan Lam left an indelible stamp on the struggle for gender equality in India.","link":"https://www.bbc.co.uk/news/world-asia-india-55134978","published":"Wed, 23 Dec 2020 00:16:25 GMT","geolocations":[{"name":"Bombay","count":1,"lat":19.14045,"lng":72.88235,"type":"point"},{"name":"India","count":2,"lat":28.63095,"lng":77.21721,"type":"country"},{"name":"San Francisco'S","count":1,"lat":37.77712,"lng":-122.41964,"type":"point"},{"name":"Us","count":1,"lat":38.89037,"lng":-77.03196,"type":"country"}],"source":"BBC"},{"feed_name":"World","feed_url":"https://rss.nytimes.com/services/xml/rss/nyt/World.xml","title":"France fast-tracks citizenship for frontline workers.","summary":"","link":"https://www.nytimes.com/2020/12/22/world/france-fast-tracks-citizenship-for-frontline-workers.html","published":"Tue, 22 Dec 2020 23:03:28 +0000","geolocations":[{"name":"France","count":1,"lat":48.85717,"lng":2.3414,"type":"country"}],"source":"The New York Times"},{"feed_name":"World","feed_url":"https://www.theguardian.com/world/rss","title":"Coronavirus live news: new variant already in 'great majority if not all' European countries, says expert","summary":"<p>Preliminary data suggest <a href=\"https://www.theguardian.com/world/live/2020/dec/23/coronavirus-live-news-us-cases-increase-14-in-one-week-france-to-reopen-uk-border?page=with:block-5fe31e698f08c00122dedbf0#block-5fe31e698f08c00122dedbf0\">viral loads higher in new variant</a>, says Nervtag professor; UK entrants to France <a href=\"https://www.theguardian.com/world/2020/dec/22/covid-uk-may-test-all-lorry-drivers-to-try-to-break-port-gridlock\">must have negative test</a></p><ul><li><a href=\"https://www.theguardian.com/world/2020/dec/23/uk-ferry-passengers-disembark-in-calais-after-france-eases-travel-ban\">UK ferry passengers disembark in Calais after France eases travel ban</a></li><li><a href=\"https://www.theguardian.com/world/2020/dec/23/more-areas-of-england-could-move-into-tier-4-covid-restrictions\">More of England could move into tier 4 from Boxing Day, says minister</a></li><li><a href=\"https://www.theguardian.com/us-news/2020/dec/22/covid-relief-trump-demands-changes-to-sign-900bn-bill\">Trump demands changes to sign $900bn stimulus bill</a></li><li><a href=\"https://www.theguardian.com/australia-news/2020/dec/23/australian-health-officials-scramble-after-qantas-crew-member-tests-covid-positive\">Australian officials scramble after Qantas crew member tests positive</a><br /></li><li><a href=\"https://www.theguardian.com/world/2020/dec/23/mexico-coronavirus-amlo-cases-deaths\">Covid fatalities soar in Mexico as president condemned for inaction</a></li></ul><p class=\"block-time published-time\"> <time datetime=\"2020-12-23T11:44:25.785Z\">11.44am <span class=\"timezone\">GMT</span></time> </p><p>A man has been arrested after disturbances in Dover and the nearby Manston lorry park, PA reports.</p><p>The man is being held for obstructing a highway in Dover, Kent Police said.</p><p class=\"block-time published-time\"> <time datetime=\"2020-12-23T11:42:33.160Z\">11.42am <span class=\"timezone\">GMT</span></time> </p><p>Prof Ferguson says evidence from Denmark (a country with a relatively low infection rate) suggests that “almost certainly” this virus has already been introduced to the “great majority if not all” of European countries.</p> <a href=\"https://www.theguardian.com/world/live/2020/dec/23/coronavirus-live-news-us-cases-increase-14-in-one-week-france-to-reopen-uk-border\">Continue reading...</a>","link":"https://www.theguardian.com/world/live/2020/dec/23/coronavirus-live-news-us-cases-increase-14-in-one-week-france-to-reopen-uk-border","published":"Wed, 23 Dec 2020 11:44:26 GMT","geolocations":[{"name":"Athens","count":4,"lat":37.97614,"lng":23.7364,"type":"point"},{"name":"Greece","count":1,"lat":37.97614,"lng":23.7364,"type":"country"}],"source":"The Guardian"},{"feed_name":"World","feed_url":"https://www.aljazeera.com/xml/rss/all.xml","title":"The race to save an Indigenous Brazilian language from extinction","summary":"As elders from an Indigenous tribe die of COVID-19, younger members must fight to stop their language dying with them.","link":"https://www.aljazeera.com/features/2020/12/23/race-to-save-brazil-indigenous-language-from-extinction","published":"Wed, 23 Dec 2020 11:24:48 +0000","geolocations":[{"name":"Brazil","count":11,"lat":-15.77829,"lng":-47.92909,"type":"country"},{"name":"Leonardo Villas","count":1,"lat":32.32137,"lng":-117.05034,"type":"point"},{"name":"The Upper Xingu","count":1,"lat":16.40544,"lng":120.58781,"type":"point"},{"name":"Kamayura","count":1,"lat":13.00724,"lng":77.64536,"type":"point"},{"name":"Goiania","count":1,"lat":-16.67931,"lng":-49.25645,"type":"point"},{"name":"Suya","count":1,"lat":57.80062,"lng":70.6278,"type":"point"},{"name":"Kaiabi","count":1,"lat":11.75306,"lng":4.50989,"type":"point"},{"name":"The Trumai","count":1,"lat":43.82867,"lng":-94.42805,"type":"point"},{"name":"Sao Paulo","count":1,"lat":-23.56287,"lng":-46.65468,"type":"point"},{"name":"Indigenous","count":2,"lat":-17.88178,"lng":30.96549,"type":"point"},{"name":"Brasilia","count":4,"lat":-15.77829,"lng":-47.92909,"type":"country"},{"name":"Amazonas","count":1,"lat":-3.44312,"lng":-78.74363,"type":"point"},{"name":"Xingu","count":3,"lat":-23.48169,"lng":-52.70135,"type":"point"},{"name":"Macus","count":1,"lat":22.58129,"lng":88.36353,"type":"point"},{"name":"Piaracu Village","count":1,"lat":36.82807,"lng":-79.31424,"type":"point"},{"name":"Kuikuro","count":1,"lat":-23.76101,"lng":-45.78855,"type":"point"},{"name":"Alto Xingu","count":1,"lat":-25.40284,"lng":-49.2014,"type":"point"},{"name":"Xingu Indigenous","count":1,"lat":-27.74756,"lng":-53.05747,"type":"point"},{"name":"Kalapalo","count":1,"lat":-6.07336,"lng":-49.87216,"type":"point"},{"name":"Ipawu","count":1,"lat":7.89112,"lng":5.57773,"type":"point"},{"name":"Rio De Janeiro","count":1,"lat":-22.91216,"lng":-43.17501,"type":"point"},{"name":"Yawalpiti","count":1,"lat":0.69041,"lng":33.28204,"type":"point"}],"source":"Aljazeera"},{"feed_name":"World","feed_url":"https://www.latimes.com/world/rss2.0.xml","title":"Column: Here's what Sen. Mike Lee got wrong about a Smithsonian Latino museum","summary":"<p>The Utah senator described the Smithsonian's proposed National Museum of the American Latino as divisive. More divisive: a society that erases Latinos</p>","link":"https://www.latimes.com/entertainment-arts/story/2020-12-17/utah-senator-mike-lee-blocks-smithsonian-latino-museum","published":"Thu, 17 Dec 2020 03:01:33 -0500","geolocations":[{"name":"Washington","count":1,"lat":38.89037,"lng":-77.03196,"type":"point"},{"name":"Utah","count":3,"lat":40.76031,"lng":-111.88822,"type":"point"},{"name":"New Jersey","count":2,"lat":40.21788,"lng":-74.7594,"type":"point"},{"name":"U.S.","count":7,"lat":38.89037,"lng":-77.03196,"type":"country"},{"name":"Europe","count":1,"lat":-33.98201,"lng":18.58413,"type":"point"},{"name":"Latin America","count":1,"lat":41.62788,"lng":13.34278,"type":"point"},{"name":"Southwest","count":1,"lat":17.68981,"lng":-64.86195,"type":"point"},{"name":"Mexico","count":1,"lat":23.94757,"lng":-102.5411,"type":"country"},{"name":"Hollywood","count":1,"lat":26.01067,"lng":-80.16026,"type":"point"},{"name":"Texas","count":1,"lat":30.26759,"lng":-97.74299,"type":"point"},{"name":"El Paso","count":1,"lat":31.75916,"lng":-106.48749,"type":"point"},{"name":"California","count":3,"lat":38.57944,"lng":-121.49085,"type":"point"}],"source":"Los Angeles Times"},{"feed_name":"World","feed_url":"https://www.latimes.com/world/rss2.0.xml","title":"Biden nominates Rep. Haaland to Interior, naming first Native American Cabinet member","summary":"<p>Deb Haaland would be first Indigenous Cabinet member, running the agency that oversees federal land and American Indian affairs.</p>","link":"https://www.latimes.com/environment/story/2020-12-17/biden-nominates-deb-haaland-to-interior-naming-first-native-american-cabinet-secretary","published":"Thu, 17 Dec 2020 14:56:32 -0500","geolocations":[{"name":"New Mexico","count":4,"lat":35.69177,"lng":-105.93824,"type":"point"},{"name":"Haaland","count":10,"lat":60.67418,"lng":4.95931,"type":"point"},{"name":"The United States","count":1,"lat":38.89037,"lng":-77.03196,"type":"country"},{"name":"Pennsylvania","count":1,"lat":40.25986,"lng":-76.88223,"type":"point"},{"name":"Texas","count":1,"lat":30.26759,"lng":-97.74299,"type":"point"},{"name":"Utah","count":1,"lat":40.76031,"lng":-111.88822,"type":"point"},{"name":"Alaska","count":1,"lat":58.29973,"lng":-134.40679,"type":"point"},{"name":"Arctic National Wildlife Refuge","count":1,"lat":40.1538,"lng":-109.62409,"type":"point"},{"name":"Laguna Pueblo","count":1,"lat":22.22637,"lng":-97.82026,"type":"point"},{"name":"Standing Rock","count":1,"lat":35.79538,"lng":-108.3599,"type":"point"},{"name":"North Dakota","count":1,"lat":46.80536,"lng":-100.77969,"type":"point"},{"name":"Washington","count":1,"lat":38.89037,"lng":-77.03196,"type":"point"},{"name":"The Laguna Pueblo","count":1,"lat":22.22637,"lng":-97.82026,"type":"point"},{"name":"Kansas","count":1,"lat":39.04928,"lng":-95.67118,"type":"point"},{"name":"United States","count":1,"lat":38.89037,"lng":-77.03196,"type":"country"},{"name":"San Francisco","count":1,"lat":37.77712,"lng":-122.41964,"type":"point"}],"source":"Los Angeles Times"},{"feed_name":"World - Europe","feed_url":"http://feeds.bbci.co.uk/news/world/rss.xml","title":"Biden gets Covid vaccine: 'Nothing to worry about'","summary":"The president-elect has his first dose of the Pfizer coronavirus vaccine in Delaware.","link":"https://www.bbc.co.uk/news/world-us-canada-55405693","published":"Mon, 21 Dec 2020 21:35:39 GMT","geolocations":[{"name":"Us","count":1,"lat":38.89037,"lng":-77.03196,"type":"country"},{"name":"Newark","count":1,"lat":53.07428,"lng":-0.80972,"type":"point"},{"name":"Delaware","count":1,"lat":39.15803,"lng":-75.52473,"type":"point"}],"source":"BBC"},{"feed_name":"World","feed_url":"https://www.latimes.com/world/rss2.0.xml","title":"Decades later, Congress restores Medicaid for Marshallese and other Pacific Islanders","summary":"<p>Nearly 25 years ago, Congress went back on its promise to give the Marshallese medical coverage. This weekend, lawmakers voted to reinstate it.</p>","link":"https://www.latimes.com/world-nation/story/2020-12-21/congress-approves-medicaid-for-marshallese","published":"Mon, 21 Dec 2020 16:30:31 -0500","geolocations":[{"name":"The United States","count":7,"lat":38.89037,"lng":-77.03196,"type":"country"},{"name":"Marshall Islands","count":1,"lat":7.10941,"lng":171.37138,"type":"country"},{"name":"Pacific Island","count":2,"lat":34.12861,"lng":-117.25738,"type":"point"},{"name":"Northwest Center","count":1,"lat":35.19898,"lng":-78.06416,"type":"point"},{"name":"Marshallese","count":4,"lat":42.41121,"lng":-77.34561,"type":"point"},{"name":"Washington","count":2,"lat":38.89037,"lng":-77.03196,"type":"point"},{"name":"Arkansas","count":2,"lat":34.7487,"lng":-92.27485,"type":"point"},{"name":"U.S.","count":6,"lat":38.89037,"lng":-77.03196,"type":"country"},{"name":"Palau","count":1,"lat":7.50137,"lng":134.62193,"type":"country"},{"name":"The Federated States Of Micronesia","count":1,"lat":6.91773,"lng":158.15775,"type":"country"},{"name":"Hawaii","count":2,"lat":21.30493,"lng":-157.85788,"type":"point"},{"name":"Medicaid","count":1,"lat":48.43291,"lng":-3.14127,"type":"point"},{"name":"Oregon","count":1,"lat":44.93326,"lng":-123.04381,"type":"point"},{"name":"The Marshall Islands","count":1,"lat":7.10941,"lng":171.37138,"type":"country"},{"name":"Kwajalein","count":1,"lat":38.72518,"lng":-104.7953,"type":"point"},{"name":"California","count":1,"lat":38.57944,"lng":-121.49085,"type":"point"}],"source":"Los Angeles Times"},{"feed_name":"World","feed_url":"https://www.latimes.com/world/rss2.0.xml","title":"Rich countries are hoarding COVID-19 vaccines. Elsewhere, the pandemic may keep killing for years","summary":"<p>Poor countries face long waits for injections as the U.S. and others buy up nearly all the global supply of Pfizer and Moderna vaccines.</p>","link":"https://www.latimes.com/world-nation/story/2020-12-22/rich-nations-snap-up-covid-19-vaccines-leaving-less-for-the-poor","published":"Tue, 22 Dec 2020 05:00:42 -0500","geolocations":[{"name":"China","count":4,"lat":39.90657,"lng":116.38765,"type":"country"},{"name":"Russia","count":2,"lat":55.75696,"lng":37.61502,"type":"country"},{"name":"Geneva","count":1,"lat":46.20833,"lng":6.14275,"type":"point"},{"name":"India","count":7,"lat":28.63095,"lng":77.21721,"type":"country"},{"name":"South Africa","count":1,"lat":-25.74587,"lng":28.18764,"type":"country"},{"name":"Africa","count":1,"lat":43.10832,"lng":12.77534,"type":"point"},{"name":"Ahmedabad","count":1,"lat":23.02778,"lng":72.60025,"type":"point"},{"name":"The United States","count":4,"lat":38.89037,"lng":-77.03196,"type":"country"},{"name":"The United Kingdom","count":1,"lat":38.95953,"lng":-91.92768,"type":"point"},{"name":"U.S.","count":4,"lat":38.89037,"lng":-77.03196,"type":"country"},{"name":"Covax","count":6,"lat":40.12734,"lng":-8.85287,"type":"point"},{"name":"Sub-Saharan Africa","count":1,"lat":-27.17536,"lng":21.91836,"type":"point"},{"name":"France","count":1,"lat":48.85717,"lng":2.3414,"type":"country"},{"name":"Canada","count":2,"lat":45.42178,"lng":-75.69116,"type":"country"},{"name":"Mexico City","count":2,"lat":19.27691,"lng":-99.13939,"type":"point"},{"name":"Latin America","count":1,"lat":41.62788,"lng":13.34278,"type":"point"},{"name":"Caribbean","count":1,"lat":30.47333,"lng":-86.42132,"type":"point"},{"name":"Mexico","count":2,"lat":23.94757,"lng":-102.5411,"type":"country"},{"name":"Brazil","count":1,"lat":-15.77829,"lng":-47.92909,"type":"country"},{"name":"Chile","count":1,"lat":-33.43722,"lng":-70.65002,"type":"country"},{"name":"Bolivia","count":1,"lat":-16.49908,"lng":-68.13378,"type":"country"},{"name":"El Salvador","count":1,"lat":13.69967,"lng":-89.2068,"type":"country"},{"name":"Nicaragua","count":1,"lat":12.1172,"lng":-86.24081,"type":"country"},{"name":"Indonesia","count":1,"lat":-6.17148,"lng":106.82649,"type":"country"},{"name":"Asia","count":1,"lat":-12.76551,"lng":-76.61171,"type":"point"},{"name":"Singapore","count":1,"lat":1.29041,"lng":103.85211,"type":"country"},{"name":"Linthicum","count":1,"lat":39.21251,"lng":-76.66941,"type":"point"}],"source":"Los Angeles Times"},{"feed_name":"World","feed_url":"https://rss.nytimes.com/services/xml/rss/nyt/World.xml","title":"Who Takes the Eurostar? Almost No One, as the Pandemic Fuels a Rail Crisis","summary":"A plunge in ridership at the international high-speed train mirrors wider troubles gripping Europe’s railway industry.","link":"https://www.nytimes.com/2020/12/21/business/eurostar-pandemic-train-europe.html","published":"Tue, 22 Dec 2020 19:21:24 +0000","geolocations":[{"name":"Paris","count":3,"lat":48.85717,"lng":2.3414,"type":"point"},{"name":"Nord","count":1,"lat":34.43734,"lng":35.84711,"type":"point"},{"name":"London","count":4,"lat":51.50643,"lng":-0.12719,"type":"point"},{"name":"United Kingdom","count":2,"lat":38.95953,"lng":-91.92768,"type":"point"},{"name":"France","count":2,"lat":48.85717,"lng":2.3414,"type":"country"},{"name":"Brussels","count":1,"lat":50.84439,"lng":4.35609,"type":"point"},{"name":"Amsterdam","count":1,"lat":52.37018,"lng":4.87324,"type":"point"},{"name":"England","count":1,"lat":51.50643,"lng":-0.12719,"type":"country"}],"source":"The New York Times"},{"feed_name":"World","feed_url":"https://www.theguardian.com/world/rss","title":"Dr Fauci feels 'extreme confidence' in Covid vaccine as he gets jab – video","summary":"<p>Dr Anthony Fauci was injected with his first dose of the Moderna Covid-19 vaccine and he said he hoped it would encourage millions of other Americans to do the same.</p><p>The top US infectious diseases expert said he felt 'extreme confidence of the safety and efficacy of this vaccine'</p><ul><li><a href=\"https://www.theguardian.com/world/live/2020/dec/22/coronavirus-live-news-biden-receives-vaccine-as-global-death-toll-passes-17m\">Coronavirus – live coverage&nbsp;</a></li><li><a href=\"https://www.theguardian.com/us-news/2020/dec/21/joe-biden-coronavirus-vaccine-covid-public\">Biden receives vaccine live on TV</a></li></ul> <a href=\"https://www.theguardian.com/world/video/2020/dec/22/dr-fauci-feels-extreme-confidence-in-covid-vaccine-as-he-gets-jab-video\">Continue reading...</a>","link":"https://www.theguardian.com/world/video/2020/dec/22/dr-fauci-feels-extreme-confidence-in-covid-vaccine-as-he-gets-jab-video","published":"Tue, 22 Dec 2020 17:05:25 GMT","geolocations":[{"name":"Us","count":1,"lat":38.89037,"lng":-77.03196,"type":"country"}],"source":"The Guardian"},{"feed_name":"World","feed_url":"https://www.theguardian.com/world/rss","title":"New Covid variant in UK: spreading Christmas fear?","summary":"<p>B117 is more transmissible than original virus, but there is no evidence it makes people sicker</p><ul><li><a href=\"https://www.theguardian.com/world/series/coronavirus-live/latest\">Coronavirus – latest updates</a></li><li><a href=\"https://www.theguardian.com/world/coronavirus-outbreak\">See all our coronavirus coverage</a></li></ul><p>If a new virus sounds scary, a new mutating virus sounds scarier still. In Kent in September, scientists now believe, somebody with Covid was the unlucky first person to pass on a variant form of the coronavirus that is maybe as much as 70% more transmissible than the version we have been used to.</p><p>The exponential recent rise in cases now blamed on that incident and the UK government response have sparked alarm around the world, with other countries banning flights into the UK <a href=\"https://www.theguardian.com/world/2020/dec/21/france-ban-uk-transport-surprise-says-grant-shapps-covid\">for at least 48 hours</a> while everyone figures out what is going on.</p> <a href=\"https://www.theguardian.com/world/2020/dec/21/new-covid-variant-in-uk-spreading-christmas-fear\">Continue reading...</a>","link":"https://www.theguardian.com/world/2020/dec/21/new-covid-variant-in-uk-spreading-christmas-fear","published":"Mon, 21 Dec 2020 19:03:58 GMT","geolocations":[{"name":"Kent","count":2,"lat":47.3807,"lng":-122.23741,"type":"point"},{"name":"London","count":1,"lat":51.50643,"lng":-0.12719,"type":"point"},{"name":"England","count":1,"lat":51.50643,"lng":-0.12719,"type":"country"},{"name":"Germany","count":1,"lat":52.51604,"lng":13.37691,"type":"country"},{"name":"Europe","count":1,"lat":-33.98201,"lng":18.58413,"type":"point"}],"source":"The Guardian"},{"feed_name":"World","feed_url":"https://rss.nytimes.com/services/xml/rss/nyt/World.xml","title":"France Eases U.K. Border Restrictions for Some Travelers","summary":"Two days after France shut down the frontier, Britain agreed to broad virus tests for truck drivers as part of an agreement to reopen rail, air and sea routes.","link":"https://www.nytimes.com/2020/12/22/world/europe/uk-france-covid-19-border.html","published":"Wed, 23 Dec 2020 03:41:31 +0000","geolocations":[{"name":"Dover","count":1,"lat":39.15803,"lng":-75.52473,"type":"point"},{"name":"Kent","count":1,"lat":47.3807,"lng":-122.23741,"type":"point"},{"name":"United Kingdom","count":3,"lat":38.95953,"lng":-91.92768,"type":"point"},{"name":"Europe","count":2,"lat":-33.98201,"lng":18.58413,"type":"point"},{"name":"Switzerland","count":1,"lat":46.94843,"lng":7.44046,"type":"country"},{"name":"England","count":1,"lat":51.50643,"lng":-0.12719,"type":"country"},{"name":"France","count":1,"lat":48.85717,"lng":2.3414,"type":"country"}],"source":"The New York Times"},{"feed_name":"World","feed_url":"https://rss.nytimes.com/services/xml/rss/nyt/World.xml","title":"Sentence Is Cut for Skylar Mack, U.S. Student Who Broke Quarantine in Cayman Islands","summary":"Skylar Mack, 18, was sentenced to four months in prison for violating coronavirus restrictions in the Cayman Islands. After an outcry, her sentence was reduced to two months on Tuesday.","link":"https://www.nytimes.com/2020/12/22/world/americas/skylar-mack-cayman-islands-covid.html","published":"Wed, 23 Dec 2020 03:31:06 +0000","geolocations":[{"name":"The Cayman Islands","count":2,"lat":19.29657,"lng":-81.38175,"type":"country"},{"name":"The Cayman Islands’","count":1,"lat":19.29657,"lng":-81.38175,"type":"country"}],"source":"The New York Times"},{"feed_name":"World","feed_url":"https://rss.nytimes.com/services/xml/rss/nyt/World.xml","title":"China Long Avoided Talking About Mental Health. Then Covid Hit.","summary":"The government has deployed extensive resources to address the spike in depression and anxiety. But social stigmas and long-term challenges remain.","link":"https://www.nytimes.com/2020/12/21/world/asia/china-covid-mental-health.html","published":"Mon, 21 Dec 2020 19:00:09 +0000","geolocations":[{"name":"China","count":2,"lat":39.90657,"lng":116.38765,"type":"country"},{"name":"Wuhan","count":1,"lat":30.64353,"lng":114.32472,"type":"point"}],"source":"The New York Times"},{"feed_name":"World","feed_url":"https://www.theguardian.com/world/rss","title":"Covid fatalities soar in Mexico as president condemned for inaction","summary":"<p>As the crisis worsens, Andrés Manuel López Obrador’s government has hardly changed its minimal restrictions</p><p>When Rufino Pacheco arrived at the hospital, his breath jagged and his legs buckling, a doctor thrust papers at his stepdaughter, asking for her approval to put him on a ventilator. But the elderly patient balked.</p><p>Less than 12 hours later, Pacheco died, hooked up to an oxygen tank in his bedroom, as his wife cried out, “Don’t leave me, old man.” Days later, she too fell sick with Covid-19, along with her adult son.</p> <a href=\"https://www.theguardian.com/world/2020/dec/23/mexico-coronavirus-amlo-cases-deaths\">Continue reading...</a>","link":"https://www.theguardian.com/world/2020/dec/23/mexico-coronavirus-amlo-cases-deaths","published":"Wed, 23 Dec 2020 10:30:42 GMT","geolocations":[{"name":"Ecatepec","count":2,"lat":18.89592,"lng":-98.26147,"type":"point"},{"name":"Mexico","count":12,"lat":23.94757,"lng":-102.5411,"type":"country"},{"name":"Tijuana","count":1,"lat":32.53507,"lng":-117.04097,"type":"point"},{"name":"Mexico City","count":4,"lat":19.27691,"lng":-99.13939,"type":"point"},{"name":"San Isidro","count":1,"lat":9.97643,"lng":-84.00675,"type":"point"},{"name":"Mexico City’S","count":1,"lat":25.91513,"lng":-112.06282,"type":"country"},{"name":"Colombia","count":1,"lat":4.61496,"lng":-74.06941,"type":"country"},{"name":"Brazil","count":1,"lat":-15.77829,"lng":-47.92909,"type":"country"}],"source":"The Guardian"},{"feed_name":"World","feed_url":"https://rss.nytimes.com/services/xml/rss/nyt/World.xml","title":"Murders of Journalists Doubled in 2020","summary":"At least 30 journalists were killed this year, according to the Committee to Protect Journalists, with 21 slain as a direct result of their work.","link":"https://www.nytimes.com/2020/12/22/world/americas/mexico-journalists-killings-double.html","published":"Tue, 22 Dec 2020 05:02:06 +0000","geolocations":[{"name":"Mexico City","count":1,"lat":19.27691,"lng":-99.13939,"type":"point"},{"name":"Mexico","count":1,"lat":23.94757,"lng":-102.5411,"type":"country"},{"name":"Afghanistan","count":1,"lat":34.53313,"lng":69.10223,"type":"country"},{"name":"The Middle East","count":1,"lat":39.29996,"lng":-76.58967,"type":"point"}],"source":"The New York Times"},{"feed_name":"World","feed_url":"https://www.theguardian.com/world/rss","title":"'The brides feel like Cinderella': the free wedding shop helping India's poor","summary":"<p>Fashion designer’s scheme provides secondhand shoes, clothes and jewellery free to women who can’t pay for their big day</p><p>A section of a boutique in Pappinisseri town in Kerala’s Kannur district brims over with colourful bridal <em>lehengas</em>, saris, gowns and shiny salwar suits.</p><p>An exuberance of fabrics adorns mannequins that stand next to tables spread with sparkly sandals, shoes, bangles and beaded bags. Tableware, bedlinen and miscellaneous items are scattered in other spaces.</p> <a href=\"https://www.theguardian.com/global-development/2020/dec/23/free-wedding-shop-helping-india-poor\">Continue reading...</a>","link":"https://www.theguardian.com/global-development/2020/dec/23/free-wedding-shop-helping-india-poor","published":"Wed, 23 Dec 2020 06:00:37 GMT","geolocations":[{"name":"Pappinisseri","count":1,"lat":11.94126,"lng":75.35319,"type":"point"},{"name":"Kerala","count":2,"lat":8.50519,"lng":76.95139,"type":"point"},{"name":"Kannur District","count":1,"lat":26.27187,"lng":80.41873,"type":"point"},{"name":"Sabitha","count":9,"lat":-29.53192,"lng":31.19814,"type":"point"},{"name":"Mumbai","count":1,"lat":19.14045,"lng":72.88235,"type":"point"},{"name":"Delhi","count":1,"lat":28.63409,"lng":77.21693,"type":"point"},{"name":"Dubai","count":1,"lat":25.26951,"lng":55.30884,"type":"point"},{"name":"Kannur","count":2,"lat":11.87472,"lng":75.37518,"type":"point"},{"name":"India","count":1,"lat":28.63095,"lng":77.21721,"type":"country"},{"name":"Bihar","count":1,"lat":23.54288,"lng":72.65678,"type":"point"}],"source":"The Guardian"},{"feed_name":"World","feed_url":"https://rss.nytimes.com/services/xml/rss/nyt/World.xml","title":"For U.K., an Early Taste of Brexit as Borders Are Sealed","summary":"Battling a new coronavirus variant even as they steel themselves for the looming split with the E.U., Britons are feeling profoundly isolated.","link":"https://www.nytimes.com/2020/12/21/world/europe/brexit-covid-uk.html","published":"Tue, 22 Dec 2020 05:02:27 +0000","geolocations":[{"name":"United Kingdom","count":5,"lat":38.95953,"lng":-91.92768,"type":"point"},{"name":"France","count":1,"lat":48.85717,"lng":2.3414,"type":"country"},{"name":"Spain","count":1,"lat":40.41955,"lng":-3.69196,"type":"country"},{"name":"Europe","count":1,"lat":-33.98201,"lng":18.58413,"type":"point"},{"name":"London","count":1,"lat":51.50643,"lng":-0.12719,"type":"point"}],"source":"The New York Times"},{"feed_name":"World","feed_url":"https://www.theguardian.com/world/rss","title":"Hungry and afraid: life for factory workers meeting UK demand for cheap clothes","summary":"<p>Pakistani workers describe trying to survive on the less than £50 a month many of them earn making items for firms such as Boohoo<br /></p><p>When Qasim Ahmed* arrived in Faisalabad a year ago, he didn’t want much – just enough money to pay for a roof over his head, buy food and send a little cash home each month.</p><p>Today, that seems like a fantasy. Instead of having enough to get by, he claims, he has found himself struggling to survive, frequently going hungry, feeling abused by his boss and fearing he is working in a factory that could go up in flames. “It makes me sad that I can’t help my parents and siblings the way I hoped before coming here,” he says.</p> <a href=\"https://www.theguardian.com/global-development/2020/dec/22/hungry-and-afraid-life-for-factory-workers-meeting-uk-demand-for-cheap-clothes-boohoo-claims\">Continue reading...</a>","link":"https://www.theguardian.com/global-development/2020/dec/22/hungry-and-afraid-life-for-factory-workers-meeting-uk-demand-for-cheap-clothes-boohoo-claims","published":"Tue, 22 Dec 2020 15:00:22 GMT","geolocations":[{"name":"Faisalabad","count":6,"lat":31.40412,"lng":73.09034,"type":"point"},{"name":"Pakistan","count":4,"lat":33.70964,"lng":73.07545,"type":"point"},{"name":"Leicester","count":3,"lat":52.63796,"lng":-1.14042,"type":"point"},{"name":"Punjab","count":1,"lat":30.84324,"lng":75.41748,"type":"point"}],"source":"The Guardian"},{"feed_name":"World","feed_url":"https://www.aljazeera.com/xml/rss/all.xml","title":"France: Gunman, who shot dead 3 police officers, found dead","summary":"Police officers were killed while responding to a call over domestic violence in Puy-de-Dome.","link":"https://www.aljazeera.com/news/2020/12/23/france-three-police-officers-shot-dead-one-wounded","published":"Wed, 23 Dec 2020 06:15:52 +0000","geolocations":[{"name":"Puy-De-Dome","count":1,"lat":45.77668,"lng":3.07722,"type":"point"},{"name":"Clermont","count":1,"lat":28.5513,"lng":-81.76642,"type":"point"}],"source":"Aljazeera"},{"feed_name":"World","feed_url":"https://rss.nytimes.com/services/xml/rss/nyt/World.xml","title":"Israeli Government Collapses, Forcing 4th Election in 2 Years","summary":"A protracted political crisis revolving around Prime Minister Benjamin Netanyahu’s legal troubles brings down the coalition government.","link":"https://www.nytimes.com/2020/12/22/world/middleeast/israel-election-netanyahu.html","published":"Tue, 22 Dec 2020 22:09:56 +0000","geolocations":[{"name":"Jerusalem","count":1,"lat":31.7801,"lng":35.20882,"type":"point"},{"name":"Israel","count":1,"lat":31.78003,"lng":35.21873,"type":"country"}],"source":"The New York Times"},{"feed_name":"World","feed_url":"https://www.latimes.com/world/rss2.0.xml","title":"Despite his boasts, Trump again is no deal-maker as Congress seeks pandemic relief bill","summary":"<p>Donald Trump was elected partly on his fame for \"The Art of the Deal,\" yet he's cut no big deals in office. The relief package is the latest, perhaps final, example.</p>","link":"https://www.latimes.com/politics/story/2020-12-20/despite-his-boasts-trump-again-is-no-deal-maker-as-congress-seeks-crisis-relief-bill","published":"Sun, 20 Dec 2020 06:00:32 -0500","geolocations":[{"name":"Rose Garden","count":1,"lat":37.33473,"lng":-121.92853,"type":"point"},{"name":"Ky","count":1,"lat":19.29657,"lng":-81.38175,"type":"country"}],"source":"Los Angeles Times"},{"feed_name":"World","feed_url":"https://www.theguardian.com/world/rss","title":"New museums and Smokey Bear: what's in the $900bn US stimulus package?","summary":"<p>Tucked into a 5,593-page bill are a range of obscure provisions that appear to have little to do with fortifying a fragile economy</p><p>Late on Monday night, <a href=\"https://www.theguardian.com/world/2020/dec/21/covid-relief-bill-stimulus-checks-congress-republicans-democrats\">Congress approved a $900bn stimulus package</a> which will deliver financial aid to millions of families and businesses facing economic distress from coronavirus pandemic. Though far smaller than a bill lawmakers passed at the outset of the pandemic, earlier this year, the measure is one the largest pieces of legislation in US history.</p><p> <span>Related: </span><a href=\"https://www.theguardian.com/world/2020/dec/22/covid-coronavirus-us-life-expectancy-experts\">Covid could shorten US life expectancy by up to three years, experts say</a> </p> <a href=\"https://www.theguardian.com/us-news/2020/dec/22/congress-us-coronavirus-aid-package-stimulus\">Continue reading...</a>","link":"https://www.theguardian.com/us-news/2020/dec/22/congress-us-coronavirus-aid-package-stimulus","published":"Tue, 22 Dec 2020 21:07:58 GMT","geolocations":[{"name":"Us","count":8,"lat":38.89037,"lng":-77.03196,"type":"country"},{"name":"Washington","count":1,"lat":38.89037,"lng":-77.03196,"type":"point"},{"name":"Utah","count":1,"lat":40.76031,"lng":-111.88822,"type":"point"},{"name":"The United States","count":1,"lat":38.89037,"lng":-77.03196,"type":"country"},{"name":"China","count":3,"lat":39.90657,"lng":116.38765,"type":"country"},{"name":"The People’S Republic Of China","count":1,"lat":11.28537,"lng":75.77659,"type":"point"},{"name":"Tibet","count":1,"lat":44.21739,"lng":0.61961,"type":"point"},{"name":"Lhasa","count":1,"lat":29.66176,"lng":91.13071,"type":"point"},{"name":"Hawaii","count":2,"lat":21.30493,"lng":-157.85788,"type":"point"},{"name":"New York","count":1,"lat":40.71455,"lng":-74.00714,"type":"point"}],"source":"The Guardian"},{"feed_name":"World","feed_url":"https://rss.nytimes.com/services/xml/rss/nyt/World.xml","title":"France Fast-Tracks Citizenship for Frontline Workers","summary":"Some 700 foreigners who were exposed to the coronavirus through their frontline work are being given expedited naturalization reviews.","link":"https://www.nytimes.com/2020/12/22/world/europe/france-naturalization-covid-frontline.html","published":"Wed, 23 Dec 2020 03:43:27 +0000","geolocations":[{"name":"France","count":6,"lat":48.85717,"lng":2.3414,"type":"country"}],"source":"The New York Times"},{"feed_name":"World","feed_url":"https://www.latimes.com/world/rss2.0.xml","title":"A notorious child rapist was released from prison. Hordes of YouTube vigilantes awaited","summary":"<p>The growing popularity of YouTube in South Korea has led to questionable attempts by users to gain viewers, including promises of vigilante justice.</p>","link":"https://www.latimes.com/world-nation/story/2020-12-18/youtubers-vigilante-justice-child-rapist-south-korea","published":"Fri, 18 Dec 2020 10:05:19 -0500","geolocations":[{"name":"South Korea","count":2,"lat":37.55886,"lng":126.99989,"type":"country"},{"name":"Ansan","count":1,"lat":31.9518,"lng":35.94042,"type":"point"}],"source":"Los Angeles Times"},{"feed_name":"World","feed_url":"https://rss.nytimes.com/services/xml/rss/nyt/World.xml","title":"2 People-Smugglers Are Convicted of Manslaughter in U.K. Truck Deaths","summary":"Gheorghe Nica, of Romania, and Eamonn Harrison, of Northern Ireland, were found guilty for the deaths of 39 Vietnamese migrants who were found in a container in southeastern England in 2019.","link":"https://www.nytimes.com/2020/12/21/world/europe/uk-truck-deaths-guilty.html","published":"Mon, 21 Dec 2020 16:08:01 +0000","geolocations":[{"name":"London","count":2,"lat":51.50643,"lng":-0.12719,"type":"point"},{"name":"England","count":1,"lat":51.50643,"lng":-0.12719,"type":"country"},{"name":"Romania","count":1,"lat":44.43429,"lng":26.10298,"type":"country"},{"name":"Northern Ireland","count":1,"lat":54.59534,"lng":-5.93455,"type":"country"},{"name":"Grays","count":1,"lat":51.47962,"lng":0.32697,"type":"point"},{"name":"Belgium","count":1,"lat":50.84439,"lng":4.35609,"type":"country"},{"name":"Zeebrugge","count":1,"lat":51.33099,"lng":3.20698,"type":"point"},{"name":"United Kingdom","count":1,"lat":38.95953,"lng":-91.92768,"type":"point"}],"source":"The New York Times"},{"feed_name":"World","feed_url":"https://www.theguardian.com/world/rss","title":"Australia coronavirus live: NSW reports eight more Covid cases – as it happened","summary":"<p>Sydney to keep 10-visitor rule but from 24-26 December children under 12 not counted; lockdown continues in half of northern beaches, but small Christmas gatherings allowed. This blog is now closed</p><ul><li><a href=\"https://www.theguardian.com/australia-news/2020/dec/21/covid-hotspots-nsw-list-of-sydney-and-regional-coronavirus-case-locations\">NSW Covid hotspots – list of venues and case locations</a></li><li><a href=\"https://www.theguardian.com/australia-news/2020/dec/20/australia-border-restrictions-here-are-the-new-state-and-territory-covid-rules-for-nsw-travellers\">Border restrictions: rules for NSW travellers</a></li><li><a href=\"https://www.theguardian.com/australia-news/2020/nov/09/australia-covid-19-lockdown-rules-coronavirus-restrictions-by-state-how-far-can-travel-interstate-border-social-distancing-nsw-victoria-vic-queensland-qld-wa-sa-act-how-many-people-over-house\">Covid restrictions and lockdown rules – state by state</a></li><li><a href=\"https://www.theguardian.com/society/2020/dec/23/labor-calls-for-australias-covid-vaccine-rollout-to-be-accelerated\">Labor calls for Australia’s vaccine rollout to be accelerated</a></li><li><a href=\"https://www.theguardian.com/world/live/2020/dec/23/coronavirus-live-news-us-cases-increase-14-in-one-week-france-to-reopen-uk-border\">Follow the global liveblog</a></li></ul><p class=\"block-time published-time\"> <time datetime=\"2020-12-23T08:10:19.176Z\">8.10am <span class=\"timezone\">GMT</span></time> </p><p>And with that, we come to the end of today’s live blog. Here’s what went down today:</p><p class=\"block-time published-time\"> <time datetime=\"2020-12-23T07:47:09.934Z\">7.47am <span class=\"timezone\">GMT</span></time> </p><p>Some travellers who have been in Sydney’s hotel quarantine system have told the Guardian they felt secure, but others have said they were “shocked” by some of the processes. </p><p>Some spoke of “environmental complacency” in the system, while others spoke about how “lax” the airport process was.</p><p> <span>Related: </span><a href=\"https://www.theguardian.com/australia-news/2020/dec/23/complacency-in-sydney-hotel-quarantine-system-could-contribute-to-covid-outbreaks-guests\">Complacency in Sydney hotel quarantine system could contribute to Covid outbreaks – guests</a> </p> <a href=\"https://www.theguardian.com/australia-news/live/2020/dec/23/australia-coronavirus-northern-beaches-christmas-covid-hotspots-nsw-victoria\">Continue reading...</a>","link":"https://www.theguardian.com/australia-news/live/2020/dec/23/australia-coronavirus-northern-beaches-christmas-covid-hotspots-nsw-victoria","published":"Wed, 23 Dec 2020 08:27:27 GMT","geolocations":[{"name":"Australia","count":1,"lat":-35.30654,"lng":149.12655,"type":"country"},{"name":"Chester","count":4,"lat":53.18813,"lng":-2.89435,"type":"point"}],"source":"The Guardian"},{"feed_name":"World","feed_url":"https://www.theguardian.com/world/rss","title":"The good old ways: can we still farm like our grandparents?","summary":"<p>Against the odds, small-scale farmers are learning new ways to survive in an age of industrial-scale competition</p><p>Videos: Dom Bush</p><p><strong>‘I can tell you a story about every cow’</strong></p> <a href=\"https://www.theguardian.com/environment/2020/dec/23/the-good-old-ways-can-we-still-farm-like-our-grandparents\">Continue reading...</a>","link":"https://www.theguardian.com/environment/2020/dec/23/the-good-old-ways-can-we-still-farm-like-our-grandparents","published":"Wed, 23 Dec 2020 10:00:42 GMT","geolocations":[{"name":"Chester","count":1,"lat":53.18813,"lng":-2.89435,"type":"point"},{"name":"London","count":1,"lat":51.50643,"lng":-0.12719,"type":"point"},{"name":"Bristol","count":1,"lat":51.45379,"lng":-2.59168,"type":"point"},{"name":"England","count":2,"lat":51.50643,"lng":-0.12719,"type":"country"},{"name":"Herefordshire","count":1,"lat":52.08313,"lng":-2.8092,"type":"point"},{"name":"South Bristol","count":1,"lat":43.85934,"lng":-69.55644,"type":"point"},{"name":"Lake District","count":1,"lat":53.64046,"lng":-113.45621,"type":"point"},{"name":"Cumbria","count":2,"lat":54.61909,"lng":-2.90269,"type":"point"}],"source":"The Guardian"},{"feed_name":"World","feed_url":"https://www.latimes.com/world/rss2.0.xml","title":"Environmental justice groups block Mary Nichols' path to EPA","summary":"<p>Mary Nichols' climate policies made her an environmental celebrity, but her support for California's cap-and-trade program drew opposition.</p>","link":"https://www.latimes.com/environment/story/2020-12-17/environmental-justice-groups-block-mary-nichols-path-to-epa","published":"Thu, 17 Dec 2020 13:06:03 -0500","geolocations":[{"name":"California","count":7,"lat":38.57944,"lng":-121.49085,"type":"point"},{"name":"North Carolina","count":1,"lat":35.78547,"lng":-78.6427,"type":"point"},{"name":"America","count":1,"lat":51.43739,"lng":5.98176,"type":"point"},{"name":"North America","count":1,"lat":36.19711,"lng":-94.52681,"type":"point"},{"name":"Nebraska","count":1,"lat":40.81362,"lng":-96.7073,"type":"point"},{"name":"Quebec","count":1,"lat":46.81273,"lng":-71.2193,"type":"point"},{"name":"South L.A.","count":1,"lat":5.71851,"lng":-0.48509,"type":"point"},{"name":"Black Communities","count":1,"lat":34.64722,"lng":-106.73226,"type":"point"},{"name":"The United States","count":1,"lat":38.89037,"lng":-77.03196,"type":"country"},{"name":"L.A.","count":1,"lat":17.9518,"lng":102.61892,"type":"country"}],"source":"Los Angeles Times"},{"feed_name":"World","feed_url":"https://www.latimes.com/world/rss2.0.xml","title":"British scientists find changes in coronavirus that may make it more infectious","summary":"<p>British scientists have found a version of the coronavirus with a cluster of genetic changes that make it more transmissible and perhaps more dangerous.</p>","link":"https://www.latimes.com/science/story/2020-12-20/changes-in-the-coronavirus-raise-alarm-bells-cancel-christmas-in-britain","published":"Sun, 20 Dec 2020 23:43:56 -0500","geolocations":[{"name":"The United Kingdom","count":2,"lat":38.95953,"lng":-91.92768,"type":"point"},{"name":"United Kingdom","count":2,"lat":38.95953,"lng":-91.92768,"type":"point"},{"name":"Britons","count":2,"lat":52.92891,"lng":1.22465,"type":"point"},{"name":"U.S.","count":1,"lat":38.89037,"lng":-77.03196,"type":"country"},{"name":"England","count":2,"lat":51.50643,"lng":-0.12719,"type":"country"},{"name":"France","count":1,"lat":48.85717,"lng":2.3414,"type":"country"},{"name":"Germany","count":1,"lat":52.51604,"lng":13.37691,"type":"country"},{"name":"Italy","count":2,"lat":41.90322,"lng":12.49565,"type":"country"},{"name":"The Netherlands","count":1,"lat":51.305,"lng":-0.14561,"type":"point"},{"name":"Belgium","count":2,"lat":50.84439,"lng":4.35609,"type":"country"},{"name":"Austria","count":1,"lat":48.20263,"lng":16.36842,"type":"country"},{"name":"Ireland","count":1,"lat":53.34807,"lng":-6.24827,"type":"country"},{"name":"Bulgaria","count":1,"lat":42.69718,"lng":23.32433,"type":"country"},{"name":"U.K.","count":2,"lat":29.93186,"lng":77.81922,"type":"point"},{"name":"Kent","count":2,"lat":47.3807,"lng":-122.23741,"type":"point"},{"name":"London","count":2,"lat":51.50643,"lng":-0.12719,"type":"point"},{"name":"Nextstrain","count":1,"lat":48.69134,"lng":10.92015,"type":"point"},{"name":"Denmark","count":1,"lat":55.67567,"lng":12.56756,"type":"country"},{"name":"Australia","count":1,"lat":-35.30654,"lng":149.12655,"type":"country"},{"name":"South Africa","count":1,"lat":-25.74587,"lng":28.18764,"type":"country"}],"source":"Los Angeles Times"},{"feed_name":"World","feed_url":"https://www.aljazeera.com/xml/rss/all.xml","title":"Trump demands Congress amend ‘wasteful’ COVID relief bill","summary":"Outgoing president&#039;s move could further delay urgently needed financial assistance to millions of Americans.","link":"https://www.aljazeera.com/news/2020/12/23/trump-wants-congress-to-amend-wasteful-covid-relief-bill","published":"Wed, 23 Dec 2020 02:35:04 +0000","geolocations":[{"name":"Us","count":1,"lat":38.89037,"lng":-77.03196,"type":"country"},{"name":"Washington Dc","count":1,"lat":38.89037,"lng":-77.03196,"type":"point"},{"name":"Cambodia","count":1,"lat":12.708,"lng":104.91434,"type":"country"},{"name":"Myanmar","count":1,"lat":21.11892,"lng":96.51169,"type":"country"},{"name":"Egypt","count":1,"lat":30.04427,"lng":31.23525,"type":"country"},{"name":"China","count":1,"lat":39.90657,"lng":116.38765,"type":"country"}],"source":"Aljazeera"},{"feed_name":"World","feed_url":"https://rss.nytimes.com/services/xml/rss/nyt/World.xml","title":"German White Supremacist Is Sentenced to Life for Synagogue Attack","summary":"The 28-year-old attacker was convicted of killing two as he tried to storm a synagogue last year. It was described in court as the most despicable act of anti-Semitism in Germany since World War II.","link":"https://www.nytimes.com/2020/12/21/world/europe/germany-synagogue-attack.html","published":"Mon, 21 Dec 2020 16:45:38 +0000","geolocations":[{"name":"Germany","count":1,"lat":52.51604,"lng":13.37691,"type":"country"},{"name":"Halle","count":1,"lat":51.4822,"lng":11.97494,"type":"point"},{"name":"United States","count":1,"lat":38.89037,"lng":-77.03196,"type":"country"},{"name":"Michigan","count":1,"lat":42.73194,"lng":-84.55225,"type":"point"}],"source":"The New York Times"},{"feed_name":"World","feed_url":"https://rss.nytimes.com/services/xml/rss/nyt/World.xml","title":"Why Experts Think Travel Bans Won't Stop Coronavirus Variant Spread","summary":"It isn’t clear how widely the new variants are already circulating. So the latest moves by countries to bar international travelers may once again be too little, too late.","link":"https://www.nytimes.com/2020/12/22/world/europe/travel-bans-coronavirus-variants.html","published":"Tue, 22 Dec 2020 22:43:10 +0000","geolocations":[{"name":"Sweden","count":1,"lat":59.33257,"lng":18.06683,"type":"country"},{"name":"Denmark","count":1,"lat":55.67567,"lng":12.56756,"type":"country"},{"name":"Saudi Arabia","count":1,"lat":24.68211,"lng":46.68722,"type":"country"},{"name":"South Africa","count":2,"lat":-25.74587,"lng":28.18764,"type":"country"},{"name":"United Kingdom","count":2,"lat":38.95953,"lng":-91.92768,"type":"point"},{"name":"Wales","count":1,"lat":51.48127,"lng":-3.18072,"type":"country"},{"name":"France","count":1,"lat":48.85717,"lng":2.3414,"type":"country"}],"source":"The New York Times"},{"feed_name":"World","feed_url":"https://www.latimes.com/world/rss2.0.xml","title":"Tyson Foods fires 7 managers accused of betting on employee COVID-19 infections at Iowa plant","summary":"<p>Seven Tyson Foods plant managers who were accused of betting on how many employees would get coronavirus were fired Wednesday, the company said.</p>","link":"https://www.latimes.com/world-nation/story/2020-12-17/tyson-foods-fires-7-managers-accused-of-betting-on-employee-covid-19-infections-at-io","published":"Thu, 17 Dec 2020 04:19:06 -0500","geolocations":[{"name":"Tyson","count":1,"lat":28.23991,"lng":-81.19455,"type":"point"},{"name":"Waterloo","count":1,"lat":43.46339,"lng":-80.52075,"type":"point"},{"name":"Iowa","count":3,"lat":41.58981,"lng":-93.61538,"type":"point"},{"name":"U.S.","count":3,"lat":38.89037,"lng":-77.03196,"type":"country"}],"source":"Los Angeles Times"},{"feed_name":"World","feed_url":"https://www.theguardian.com/world/rss","title":"Trump pardons a cast of controversial characters | First Thing","summary":"<p>President pardons 15 people including perpetrators of a massacre in Iraq, and threatens not to sign $900bn aid package. Plus, why Walmart is being sued over the opioid crisis</p><p>Good morning.</p><p>Donald Trump has approved a <a href=\"https://www.theguardian.com/us-news/2020/dec/22/donald-trump-pardons-george-papadopoulos\">wave of pre-Christmas pardons</a>, including disgraced Republican lawmakers, contractors convicted of a <a href=\"https://www.theguardian.com/world/2020/dec/23/trump-pardons-blackwater-contractors-jailed-for-massacre-of-iraq-civilians\">massacre in Iraq</a>, and a former campaign aide who pleaded guilty to lying to federal officials in the Russia investigation. The move drew strong criticism from Democrats, accusing him of offering clemency to “corrupt” politicians, whose <a href=\"https://www.theguardian.com/us-news/2020/dec/22/who-trump-pardon-guide-george-papadopoulos-duncan-hunter\">profiles you can read here</a>.</p> <a href=\"https://www.theguardian.com/us-news/2020/dec/23/first-thing-trump-pardons-cast-controversial-characters\">Continue reading...</a>","link":"https://www.theguardian.com/us-news/2020/dec/23/first-thing-trump-pardons-cast-controversial-characters","published":"Wed, 23 Dec 2020 10:54:12 GMT","geolocations":[{"name":"Iraq","count":2,"lat":33.3421,"lng":44.39307,"type":"country"},{"name":"Russia","count":1,"lat":55.75696,"lng":37.61502,"type":"country"},{"name":"Us","count":5,"lat":38.89037,"lng":-77.03196,"type":"country"},{"name":"Washington","count":1,"lat":38.89037,"lng":-77.03196,"type":"point"},{"name":"Walmart","count":2,"lat":23.75157,"lng":-99.15586,"type":"point"},{"name":"America","count":1,"lat":51.43739,"lng":5.98176,"type":"point"},{"name":"Hollywood","count":1,"lat":26.01067,"lng":-80.16026,"type":"point"},{"name":"California","count":2,"lat":38.57944,"lng":-121.49085,"type":"point"},{"name":"China","count":2,"lat":39.90657,"lng":116.38765,"type":"country"}],"source":"The Guardian"},{"feed_name":"World","feed_url":"https://rss.nytimes.com/services/xml/rss/nyt/World.xml","title":"Fraser Island Blaze Began With Campfire, Australian Officials Say","summary":"The police said the men started an illegal campfire, but experts said the region would remain vulnerable to more fires as climate change worsens dry conditions.","link":"https://www.nytimes.com/2020/12/23/world/australia/fraser-island-fire-australia.html","published":"Wed, 23 Dec 2020 07:49:41 +0000","geolocations":[{"name":"Melbourne","count":1,"lat":-37.81739,"lng":144.96751,"type":"point"},{"name":"Australia","count":2,"lat":-35.30654,"lng":149.12655,"type":"country"},{"name":"Fraser Island","count":1,"lat":-25.40983,"lng":153.04228,"type":"point"},{"name":"K’Gari","count":1,"lat":-24.62899,"lng":29.74528,"type":"point"}],"source":"The New York Times"},{"feed_name":"World","feed_url":"https://rss.nytimes.com/services/xml/rss/nyt/World.xml","title":"South Korea May Move to Level 3 if Covid Cases Aren't Controlled","summary":"Officials are racing to secure more I.C.U. beds after an explosion of infections caused a bottleneck of patients. If cases aren’t brought under control, the government may impose Level 3 restrictions for the first time in South Korea.","link":"https://www.nytimes.com/2020/12/22/world/asia/korea-covid-infections-level-3.html","published":"Tue, 22 Dec 2020 12:49:22 +0000","geolocations":[{"name":"Seoul","count":3,"lat":37.55886,"lng":126.99989,"type":"point"},{"name":"South Korea","count":4,"lat":37.55886,"lng":126.99989,"type":"country"},{"name":"Daegu","count":1,"lat":3.65825,"lng":-76.69169,"type":"point"}],"source":"The New York Times"},{"feed_name":"World - Europe","feed_url":"http://feeds.bbci.co.uk/news/world/rss.xml","title":"El Gordo: Spanish lottery winners celebrate","summary":"Lucky lottery ticket holders have been celebrating in cities across Spain.","link":"https://www.bbc.co.uk/news/world-europe-55418754","published":"Tue, 22 Dec 2020 19:47:16 GMT","geolocations":[{"name":"Spain","count":1,"lat":40.41955,"lng":-3.69196,"type":"country"}],"source":"BBC"},